sep=,
CUSTOM.date [local],CUSTOM.updateTime [local],OSD.flyTime,OSD.flyTime [s],OSD.latitude,OSD.longitude,OSD.height [ft],OSD.heightMax [ft],OSD.vpsHeight [ft],OSD.altitude [ft],OSD.mileage [ft],OSD.hSpeed [MPH],OSD.hSpeedMax [MPH],OSD.xSpeed [MPH],OSD.xSpeedMax [MPH],OSD.ySpeed [MPH],OSD.ySpeedMax [MPH],OSD.zSpeed [MPH],OSD.zSpeedMax [MPH],OSD.pitch,OSD.roll,OSD.yaw,OSD.yaw [360],OSD.directionOfTravel,OSD.flycState,OSD.flycCommand,OSD.flightAction,OSD.gpsNum,OSD.gpsLevel,OSD.isGPSUsed,OSD.nonGPSCause,OSD.droneType,OSD.isSwaveWork,OSD.waveError,OSD.goHomeStatus,OSD.batteryType,OSD.ctrlDevice,OSD.isOnGround,OSD.isMotorOn,OSD.isMotorBlocked,OSD.motorStartFailedCause,OSD.motorFailReason,OSD.isImuPreheated,OSD.imuInitFailReason,OSD.isAcceletorOverRange,OSD.isBarometerDeadInAir,OSD.isCompassError,OSD.isGoHomeHeightModified,OSD.canIOCWork,OSD.isNotEnoughForce,OSD.isOutOfLimit,OSD.isPropellerCatapult,OSD.isVibrating,OSD.isVisionUsed,OSD.voltageWarning,GIMBAL.mode,GIMBAL.pitch,GIMBAL.roll,GIMBAL.yaw,GIMBAL.yaw [360],GIMBAL.isPitchAtLimit,GIMBAL.isRollAtLimit,GIMBAL.isYawAtLimit,GIMBAL.isStuck,CAMERA.isPhoto,CAMERA.isVideo,CAMERA.filename,CAMERA.sdCardIsInserted,CAMERA.sdCardState,RC.downlinkSignal,RC.uplinkSignal,RC.aileron,RC.elevator,RC.throttle,RC.rudder,RC.mode,RC.goHomeDepressed,RC.recordDepressed,RC.shutterDepressed,RC.playbackDepressed,RC.wheelDepressed,RC.wheelOffset,RC.custom1Depressed,RC.custom2Depressed,RC.custom3Depressed,RC.custom4Depressed,BATTERY.chargeLevel,BATTERY.currentPV [V],BATTERY.currentCapacity [mAh],BATTERY.fullCapacity [mAh],BATTERY.voltage [V],BATTERY.isCellVoltageEstimated,BATTERY.cellVoltage1 [V],BATTERY.cellVoltage2 [V],BATTERY.cellVoltage3 [V],BATTERY.cellVoltage4 [V],BATTERY.cellVoltage5 [V],BATTERY.cellVoltage6 [V],BATTERY.maxCellVoltageDeviation,BATTERY.isCellVoltageDeviationHigh,BATTERY.isVoltageLow,BATTERY.current [A],BATTERY.temperature [F],BATTERY.minTemperature [F],BATTERY.maxTemperature [F],BATTERY.usefulTime [s],BATTERY.goHomeTime [s],BATTERY.landTime [s],BATTERY.goHomeBattery,BATTERY.landBattery,BATTERY.safeFlyRadius,BATTERY.volumeConsume,BATTERY.status,BATTERY.goHomeStatus,BATTERY.goHomeCountdown,BATTERY.lowWarning,BATTERY.lowWarningGoHome,BATTERY.seriousLowWarning,BATTERY.seriousLowWarningLanding,BATTERY.timesCharged,MC.failSafeAction,MC.isObstacleAvoidanceEnabled,MC.isCollisionAvoidanceEnabled,MC.isRthObstacleAvoidanceEnabled,MC.isBraking,MC.isAvoidingObstacle,MC.isAvoidingActiveObstacle,MC.isAscentLimitedByObstacle,MC.isLandingConfirmationNeeded,MC.atLowAltitudeLimit,MC.atDistanceLimit,MC.atAirportAltitudeLimit,MC.atAirportBoundary,HOME.latitude,HOME.longitude,HOME.distance [ft],HOME.height [ft],HOME.heightLimit [ft],HOME.isHomeRecord,HOME.goHomeMode,HOME.aircraftHeadDirection,HOME.isDynamicHomePointEnabled,HOME.isReachedLimitDistance,HOME.isReachedLimitHeight,HOME.isCompassCalibrating,HOME.compassCalibrationState,HOME.isMultipleFlightModeEnabled,HOME.isBeginnerMode,HOME.isIOCEnabled,HOME.iocMode,HOME.goHomeHeight [ft],HOME.courseLockAngle,HOME.forceLandingHeight [ft],HOME.dataRecorderFileIndex,WEATHER.windDirection,WEATHER.windRelativeDirection,WEATHER.windSpeed [MPH],WEATHER.maxWindSpeed [MPH],WEATHER.windStrength,WEATHER.isFacingWind,WEATHER.isFlyingIntoWind,RECOVER.appType,RECOVER.appVersion,RECOVER.aircraftName,RECOVER.aircraftSerial,RECOVER.cameraSerial,RECOVER.rcSerial,RECOVER.batterySerial,DETAILS.totalTime [s],DETAILS.totalDistance [ft],DETAILS.maxHeight [ft],DETAILS.maxHorizontalSpeed [MPH],DETAILS.maxVerticalSpeed [MPH],DETAILS.photoNum,DETAILS.videoTime [s],DETAILS.aircraftName,DETAILS.aircraftSerial,DETAILS.cameraSerial,DETAILS.rcSerial,DETAILS.batterySerial,DETAILS.appName,DETAILS.appType,DETAILS.appVersion,DETAILS.guid,SERIAL.flightController,SERIAL.camera,SERIAL.gimbal,SERIAL.rc,SERIAL.battery,APPGPS.latitude,APPGPS.longitude,APPGPS.accuracy,APP.tip,APP.warning
11/10/2024,3:09:29.82 AM,0m 0.0s,0.0,-7.2806385965903,112.796921828772,0,0,,10,0,0,0,0,0,0,0,0,0,-10.7,-0.4,103.8,103.8,,P-GPS,Other,Takeoff (RC Assisted),22,5,True,,DJI FPV,False,False,,Smart,RC,True,True,False,,,True,,False,False,False,False,False,False,False,False,False,False,0,Free,0,-0.5,108.8,108.8,False,False,False,False,False,False,,True,Normal,100,100,364,364,364,1684,0,False,False,False,False,False,0,False,False,False,False,58,21.93,1060,1840,21.93,True,3.655,3.655,3.655,3.655,3.655,3.655,,False,False,2.544,92.8,92.8,92.8,,,,,,,,,Idle,,,,,,13,Go Home,False,False,False,False,False,False,False,False,False,False,False,False,,,,,,False,,,False,False,False,False,,False,False,False,,,,,,,,,,Calm,False,False,Linux,0.0.1,DJI FPV,37QBJ3G00B020K,3F2TJ1429200MP,37RBHB600B03LB,37WPHCPAA104CB,263,1.5,72.1,18.99162,14.316416,0,0,DJI FPV,37QBJ3G00B020K,3F2TJ1429200MP,37RBHB600B03LB,37WPHCPAA104CB,DJI Fly,Linux,0.0.1,986891CF-E8B0-0E1D-07D9-9ACCB8AAEB50,37QBJ3G00B020K,,3F2TJ1429200MP,37RBHB600B03LB,,,,,Motors starting.; Flight mode changed to P-GPS.,
11/10/2024,3:09:30.02 AM,0m 0.2s,0.2,-7.2806387237358,112.796921690248,0,0,,10,0,0,0,0,0,0,0,0,0,-10.7,-0.4,103.8,103.8,,Starting Motors,Other,Takeoff (RC Assisted),22,5,True,,DJI FPV,False,False,,Smart,RC,True,True,False,,,True,,False,False,False,False,False,False,False,False,False,False,0,Free,0,-0.5,108.7,108.7,False,False,False,False,False,False,,True,Normal,100,100,364,364,364,1684,0,False,False,False,False,False,0,False,False,False,False,57,21.93,1060,1840,22.221,True,3.704,3.704,3.704,3.704,3.704,3.704,,False,False,2.544,92.8,92.8,92.8,,11,,,5,5640.0,835.56,,Idle,,25,,5,,13,Go Home,False,False,False,False,False,False,False,False,False,False,False,False,-7.280609664052,112.796951419735,15.1,57.7,1640.4,True,1,1,False,False,False,False,,True,False,False,Course Lock,328,298.5,9.8,80,,,,,Calm,False,False,Linux,0.0.1,DJI FPV,37QBJ3G00B020K,3F2TJ1429200MP,37RBHB600B03LB,37WPHCPAA104CB,263,1.5,72.1,18.99162,14.316416,0,0,DJI FPV,37QBJ3G00B020K,3F2TJ1429200MP,37RBHB600B03LB,37WPHCPAA104CB,DJI Fly,Linux,0.0.1,986891CF-E8B0-0E1D-07D9-9ACCB8AAEB50,37QBJ3G00B020K,,3F2TJ1429200MP,37RBHB600B03LB,,,,,Data Recorder File Index is 80.; Set Return to Home (RTH) altitude to 100 m (328 ft).; Set maximum flight altitude to 500 m (1640 ft).; Flight mode changed to Starting Motors.,
11/10/2024,3:09:30.22 AM,0m 0.4s,0.4,-7.2806387003095,112.79692154703,0,0,,10,0,0,0,0,0,0,0,0,0,-10.7,-0.4,103.8,103.8,,Starting Motors,Other,Takeoff (RC Assisted),22,5,True,,DJI FPV,False,False,,Smart,RC,True,True,False,,,True,,False,False,False,False,False,False,False,False,False,False,0,Free,0,-0.5,108.9,108.9,False,False,False,False,False,False,,True,Normal,100,100,364,364,364,1684,0,False,False,False,False,False,0,False,False,False,False,57,21.93,1060,1840,22.221,True,3.704,3.704,3.704,3.704,3.704,3.704,,False,False,2.544,92.8,92.8,92.8,,11,,,5,5640.0,835.56,,Idle,,25,,5,,13,Go Home,False,False,False,False,False,False,False,False,False,False,False,False,-7.280609664052,112.796951419735,15.1,57.7,1640.4,True,1,1,False,False,False,False,,True,False,False,Course Lock,328,298.5,9.8,80,,,,,Calm,False,False,Linux,0.0.1,DJI FPV,37QBJ3G00B020K,3F2TJ1429200MP,37RBHB600B03LB,37WPHCPAA104CB,263,1.5,72.1,18.99162,14.316416,0,0,DJI FPV,37QBJ3G00B020K,3F2TJ1429200MP,37RBHB600B03LB,37WPHCPAA104CB,DJI Fly,Linux,0.0.1,986891CF-E8B0-0E1D-07D9-9ACCB8AAEB50,37QBJ3G00B020K,,3F2TJ1429200MP,37RBHB600B03LB,,,,,,
11/10/2024,3:09:30.42 AM,0m 0.6s,0.6,-7.2806386730755,112.796921575273,0,0,,10,0,0,0,0,0,0,0,0,0,-10.7,-0.4,103.8,103.8,,Starting Motors,Other,Takeoff (RC Assisted),22,5,True,,DJI FPV,False,False,,Smart,RC,True,True,False,,,True,,False,False,False,False,False,False,False,False,False,False,0,Free,0,-0.5,108.8,108.8,False,False,False,False,False,False,,True,Normal,100,100,364,364,364,1684,0,False,False,False,False,False,0,False,False,False,False,57,21.93,1060,1840,22.221,True,3.704,3.704,3.704,3.704,3.704,3.704,,False,False,2.544,92.8,92.8,92.8,,11,,,5,5640.0,835.56,,Idle,,25,,5,,13,Go Home,False,False,False,False,False,False,False,False,False,False,False,False,-7.280609664052,112.796951419735,15.1,57.7,1640.4,True,1,1,False,False,False,False,,True,False,False,Course Lock,328,298.5,9.8,80,,,,,Calm,False,False,Linux,0.0.1,DJI FPV,37QBJ3G00B020K,3F2TJ1429200MP,37RBHB600B03LB,37WPHCPAA104CB,263,1.5,72.1,18.99162,14.316416,0,0,DJI FPV,37QBJ3G00B020K,3F2TJ1429200MP,37RBHB600B03LB,37WPHCPAA104CB,DJI Fly,Linux,0.0.1,986891CF-E8B0-0E1D-07D9-9ACCB8AAEB50,37QBJ3G00B020K,,3F2TJ1429200MP,37RBHB600B03LB,,,,,,
11/10/2024,3:09:30.62 AM,0m 0.8s,0.8,-7.2806386486792,112.796921601352,0,0,,10,0,0,0,0,0,0,0,0,0,-10.7,-0.4,103.8,103.8,,Starting Motors,Other,Takeoff (RC Assisted),22,5,True,,DJI FPV,False,False,,Smart,RC,True,True,False,,,True,,False,False,False,False,False,False,False,False,False,False,0,Free,0,-0.5,108.8,108.8,False,False,False,False,False,False,,True,Normal,100,100,364,364,364,1684,0,False,False,False,False,False,0,False,False,False,False,57,21.93,1060,1840,22.221,True,3.704,3.704,3.704,3.704,3.704,3.704,,False,False,2.544,92.8,92.8,92.8,,11,,,5,5640.0,835.56,,Idle,,25,,5,,13,Go Home,False,False,False,False,False,False,False,False,False,False,False,False,-7.280609664052,112.796951419735,15.1,57.7,1640.4,True,1,1,False,False,False,False,,True,False,False,Course Lock,328,298.5,9.8,80,,,,,Calm,False,False,Linux,0.0.1,DJI FPV,37QBJ3G00B020K,3F2TJ1429200MP,37RBHB600B03LB,37WPHCPAA104CB,263,1.5,72.1,18.99162,14.316416,0,0,DJI FPV,37QBJ3G00B020K,3F2TJ1429200MP,37RBHB600B03LB,37WPHCPAA104CB,DJI Fly,Linux,0.0.1,986891CF-E8B0-0E1D-07D9-9ACCB8AAEB50,37QBJ3G00B020K,,3F2TJ1429200MP,37RBHB600B03LB,,,,,,
11/10/2024,3:09:30.82 AM,0m 1.0s,1.0,-7.2806387882137,112.796921462419,0,0,,10,0.1,0,0,0,0,0,0,0,0,-10.7,-0.4,103.8,103.8,,Starting Motors,Other,Takeoff (RC Assisted),22,5,True,,DJI FPV,False,False,,Smart,RC,True,True,False,,,True,,False,False,False,False,False,False,False,False,False,False,0,Free,0,-0.5,108.8,108.8,False,False,False,False,False,False,,True,Normal,100,100,364,364,364,1684,0,False,False,False,False,False,0,False,False,False,False,57,21.93,1060,1840,22.221,True,3.704,3.704,3.704,3.704,3.704,3.704,,False,False,2.544,92.8,92.8,92.8,,11,,,5,5640.0,835.56,,Idle,,25,,5,,13,Go Home,False,False,False,False,False,False,False,False,False,False,False,False,-7.280609664052,112.796951419735,15.1,57.7,1640.4,True,1,1,False,False,False,False,,True,False,False,Course Lock,328,298.5,9.8,80,,,,,Calm,False,False,Linux,0.0.1,DJI FPV,37QBJ3G00B020K,3F2TJ1429200MP,37RBHB600B03LB,37WPHCPAA104CB,263,1.5,72.1,18.99162,14.316416,0,0,DJI FPV,37QBJ3G00B020K,3F2TJ1429200MP,37RBHB600B03LB,37WPHCPAA104CB,DJI Fly,Linux,0.0.1,986891CF-E8B0-0E1D-07D9-9ACCB8AAEB50,37QBJ3G00B020K,,3F2TJ1429200MP,37RBHB600B03LB,,,,,,
11/10/2024,3:09:31.02 AM,0m 1.2s,1.2,-7.2806387598524,112.796921494457,0,0,,10,0.1,0,0,0,0,0,0,0,0,-10.7,-0.4,103.8,103.8,,Starting Motors,Other,Takeoff (RC Assisted),22,5,True,,DJI FPV,False,False,,Smart,RC,True,True,False,,,True,,False,False,False,False,False,False,False,False,False,False,0,Free,0,-0.5,108.8,108.8,False,False,False,False,False,False,,True,Normal,100,100,364,364,364,1684,0,False,False,False,False,False,0,False,False,False,False,57,21.93,1060,1840,22.226,True,3.704,3.704,3.704,3.704,3.704,3.704,,False,False,2.544,92.8,92.8,92.8,,11,,,5,5638.2,835.30,,Idle,,25,,5,,13,Go Home,False,False,False,False,False,False,False,False,False,False,False,False,-7.280609664052,112.796951419735,15.1,57.7,1640.4,True,1,1,False,False,False,False,,True,False,False,Course Lock,328,298.5,9.8,80,,,,,Calm,False,False,Linux,0.0.1,DJI FPV,37QBJ3G00B020K,3F2TJ1429200MP,37RBHB600B03LB,37WPHCPAA104CB,263,1.5,72.1,18.99162,14.316416,0,0,DJI FPV,37QBJ3G00B020K,3F2TJ1429200MP,37RBHB600B03LB,37WPHCPAA104CB,DJI Fly,Linux,0.0.1,986891CF-E8B0-0E1D-07D9-9ACCB8AAEB50,37QBJ3G00B020K,,3F2TJ1429200MP,37RBHB600B03LB,,,,,,
11/10/2024,3:09:31.22 AM,0m 1.4s,1.4,-7.2806387402857,112.796921516808,0,0,,10,0.1,0,0,0,0,0,0,0,0,-10.7,-0.4,103.8,103.8,,Starting Motors,Other,Takeoff (RC Assisted),22,5,True,,DJI FPV,False,False,,Smart,RC,True,True,False,,,True,,False,False,False,False,False,False,False,False,False,False,0,Free,0,-0.5,108.9,108.9,False,False,False,False,False,False,,True,Normal,100,100,364,364,364,1684,0,False,False,False,False,False,0,False,False,False,False,57,21.93,1060,1840,22.226,True,3.704,3.704,3.704,3.704,3.704,3.704,,False,False,2.544,92.8,92.8,92.8,,11,,,5,5638.2,835.30,,Idle,,25,,5,,13,Go Home,False,False,False,False,False,False,False,False,False,False,False,False,-7.280609664052,112.796951419735,15.1,57.7,1640.4,True,1,1,False,False,False,False,,True,False,False,Course Lock,328,298.5,9.8,80,,,,,Calm,False,False,Linux,0.0.1,DJI FPV,37QBJ3G00B020K,3F2TJ1429200MP,37RBHB600B03LB,37WPHCPAA104CB,263,1.5,72.1,18.99162,14.316416,0,0,DJI FPV,37QBJ3G00B020K,3F2TJ1429200MP,37RBHB600B03LB,37WPHCPAA104CB,DJI Fly,Linux,0.0.1,986891CF-E8B0-0E1D-07D9-9ACCB8AAEB50,37QBJ3G00B020K,,3F2TJ1429200MP,37RBHB600B03LB,,,,,,
11/10/2024,3:09:31.42 AM,0m 1.6s,1.6,-7.2806387167695,112.796921534411,0,0,,10,0.1,0,0,0,0,0,0,0,0,-10.7,-0.4,103.8,103.8,,Manual Takeoff,Other,Takeoff (RC Assisted),22,5,True,,DJI FPV,False,False,,Smart,RC,True,True,False,,,True,,False,False,False,False,False,False,False,False,False,False,0,Free,0,-0.5,108.9,108.9,False,False,False,False,False,False,,True,Normal,100,100,364,364,364,1684,0,False,False,False,False,False,0,False,False,False,False,57,21.93,1060,1840,22.226,True,3.704,3.704,3.704,3.704,3.704,3.704,,False,False,2.544,92.8,92.8,92.8,,11,,,5,5638.2,835.30,,Idle,,25,,5,,13,Go Home,False,False,False,False,False,False,False,False,False,False,False,False,-7.280609664052,112.796951419735,15.1,57.7,1640.4,True,1,1,False,False,False,False,,True,False,False,Course Lock,328,298.5,9.8,80,,,,,Calm,False,False,Linux,0.0.1,DJI FPV,37QBJ3G00B020K,3F2TJ1429200MP,37RBHB600B03LB,37WPHCPAA104CB,263,1.5,72.1,18.99162,14.316416,0,0,DJI FPV,37QBJ3G00B020K,3F2TJ1429200MP,37RBHB600B03LB,37WPHCPAA104CB,DJI Fly,Linux,0.0.1,986891CF-E8B0-0E1D-07D9-9ACCB8AAEB50,37QBJ3G00B020K,,3F2TJ1429200MP,37RBHB600B03LB,,,,,Flight mode changed to Manual Takeoff.,
11/10/2024,3:09:31.62 AM,0m 1.8s,1.8,-7.2806386952084,112.796921551394,0,0,,10,0.1,0,0,0,0,0,0,0,0,-10.8,-0.4,103.8,103.8,,Manual Takeoff,Other,Takeoff (RC Assisted),22,5,True,,DJI FPV,False,False,,Smart,RC,True,True,False,,,True,,False,False,False,False,False,False,False,False,False,False,0,Free,0,-0.5,108.9,108.9,False,False,False,False,False,False,,True,Normal,100,100,469,735,527,1595,0,False,False,False,False,False,0,False,False,False,False,57,21.93,1060,1840,22.226,True,3.704,3.704,3.704,3.704,3.704,3.704,,False,False,2.544,92.8,92.8,92.8,,11,,,5,5638.2,835.30,,Idle,,25,,5,,13,Go Home,False,False,False,False,False,False,False,False,False,False,False,False,-7.280609664052,112.796951419735,15.1,57.7,1640.4,True,1,1,False,False,False,False,,True,False,False,Course Lock,328,298.5,9.8,80,,,,,Calm,False,False,Linux,0.0.1,DJI FPV,37QBJ3G00B020K,3F2TJ1429200MP,37RBHB600B03LB,37WPHCPAA104CB,263,1.5,72.1,18.99162,14.316416,0,0,DJI FPV,37QBJ3G00B020K,3F2TJ1429200MP,37RBHB600B03LB,37WPHCPAA104CB,DJI Fly,Linux,0.0.1,986891CF-E8B0-0E1D-07D9-9ACCB8AAEB50,37QBJ3G00B020K,,3F2TJ1429200MP,37RBHB600B03LB,,,,,,
11/10/2024,3:09:31.82 AM,0m 2.0s,2.0,-7.2806385253372,112.796921571681,0,0,,10,0.2,0,0,0,0,0,0,0,0,-10.9,-0.4,103.9,103.9,,Manual Takeoff,Other,Takeoff (RC Assisted),22,5,True,,DJI FPV,False,False,,Smart,RC,True,True,False,,,True,,False,False,False,False,False,False,False,False,False,False,0,Free,0,-0.6,108.9,108.9,False,False,False,False,False,False,,True,Normal,100,100,1019,1017,1010,1009,0,False,False,False,False,False,0,False,False,False,False,57,21.93,1060,1840,22.226,True,3.704,3.704,3.704,3.704,3.704,3.704,,False,False,2.544,92.8,92.8,92.8,,11,,,5,5638.2,835.30,,Idle,,25,,5,,13,Go Home,False,False,False,False,False,False,False,False,False,False,False,False,-7.280609664052,112.796951419735,15.0,57.7,1640.4,True,1,1,False,False,False,False,,True,False,False,Course Lock,328,298.5,9.8,80,,,,,Calm,False,False,Linux,0.0.1,DJI FPV,37QBJ3G00B020K,3F2TJ1429200MP,37RBHB600B03LB,37WPHCPAA104CB,263,1.5,72.1,18.99162,14.316416,0,0,DJI FPV,37QBJ3G00B020K,3F2TJ1429200MP,37RBHB600B03LB,37WPHCPAA104CB,DJI Fly,Linux,0.0.1,986891CF-E8B0-0E1D-07D9-9ACCB8AAEB50,37QBJ3G00B020K,,3F2TJ1429200MP,37RBHB600B03LB,,,,,,
11/10/2024,3:09:32.02 AM,0m 2.2s,2.2,-7.2806383735703,112.796921593633,0,0,,10,0.3,0,0,0,0,0,0,0,0,-10.9,-0.4,103.9,103.9,,Manual Takeoff,Other,Takeoff (RC Assisted),22,5,True,,DJI FPV,False,False,,Smart,RC,True,True,False,,,True,,False,False,False,False,False,False,False,False,False,False,0,Free,0,-0.6,108.9,108.9,False,False,False,False,False,False,,True,Normal,100,100,1018,1017,1016,1009,0,False,False,False,False,False,0,False,False,False,False,57,21.93,1060,1840,22.169,True,3.695,3.695,3.695,3.695,3.695,3.695,,False,False,2.544,92.8,92.8,92.8,,11,,,5,5859.8,868.12,,Idle,,25,,5,,13,Go Home,False,False,False,False,False,False,False,False,False,False,False,False,-7.280609664052,112.796951419735,15.0,57.7,1640.4,True,1,1,False,False,False,False,,True,False,False,Course Lock,328,298.5,9.8,80,,,,,Calm,False,False,Linux,0.0.1,DJI FPV,37QBJ3G00B020K,3F2TJ1429200MP,37RBHB600B03LB,37WPHCPAA104CB,263,1.5,72.1,18.99162,14.316416,0,0,DJI FPV,37QBJ3G00B020K,3F2TJ1429200MP,37RBHB600B03LB,37WPHCPAA104CB,DJI Fly,Linux,0.0.1,986891CF-E8B0-0E1D-07D9-9ACCB8AAEB50,37QBJ3G00B020K,,3F2TJ1429200MP,37RBHB600B03LB,,,,,,
11/10/2024,3:09:32.22 AM,0m 2.4s,2.4,-7.280638394036,112.796921773525,0,0,,10,0.3,0,0,0,0,0,0,0,0,-10.9,-0.4,103.9,103.9,,Manual Takeoff,Other,Takeoff (RC Assisted),22,5,True,,DJI FPV,False,False,,Smart,RC,True,True,False,,,True,,False,False,False,False,False,False,False,False,False,False,0,Free,0,-0.6,108.9,108.9,False,False,False,False,False,False,,True,Normal,100,100,1019,1017,1017,1009,0,False,False,False,False,False,0,False,False,False,False,57,21.93,1060,1840,22.169,True,3.695,3.695,3.695,3.695,3.695,3.695,,False,False,2.544,92.8,92.8,92.8,,11,,,5,5859.8,868.12,,Idle,,25,,5,,13,Go Home,False,False,False,False,False,False,False,False,False,False,False,False,-7.280609664052,112.796951419735,14.9,57.7,1640.4,True,1,1,False,False,False,False,,True,False,False,Course Lock,328,298.5,9.8,80,,,,,Calm,False,False,Linux,0.0.1,DJI FPV,37QBJ3G00B020K,3F2TJ1429200MP,37RBHB600B03LB,37WPHCPAA104CB,263,1.5,72.1,18.99162,14.316416,0,0,DJI FPV,37QBJ3G00B020K,3F2TJ1429200MP,37RBHB600B03LB,37WPHCPAA104CB,DJI Fly,Linux,0.0.1,986891CF-E8B0-0E1D-07D9-9ACCB8AAEB50,37QBJ3G00B020K,,3F2TJ1429200MP,37RBHB600B03LB,,,,,,
11/10/2024,3:09:32.42 AM,0m 2.6s,2.6,-7.2806384156096,112.796921778552,0.3,0.3,,10,0.3,0,0,0,0,0,0,0,0,-11,-0.4,103.9,103.9,,Manual Takeoff,Other,Takeoff (RC Assisted),22,5,True,,DJI FPV,False,False,,Smart,RC,True,True,False,,,True,,False,False,False,False,False,False,False,False,False,False,0,Free,0,-0.6,108.9,108.9,False,False,False,False,False,False,,True,Normal,100,100,1019,1017,1017,1009,0,False,False,False,False,False,0,False,False,False,False,57,21.93,1060,1840,22.169,True,3.695,3.695,3.695,3.695,3.695,3.695,,False,False,2.544,92.8,92.8,92.8,,11,,,5,5859.8,868.12,,Idle,,25,,5,,13,Go Home,False,False,False,False,False,False,False,False,False,False,False,False,-7.280609664052,112.796951419735,15.0,57.7,1640.4,True,1,1,False,False,False,False,,True,False,False,Course Lock,328,298.5,9.8,80,,,,,Calm,False,False,Linux,0.0.1,DJI FPV,37QBJ3G00B020K,3F2TJ1429200MP,37RBHB600B03LB,37WPHCPAA104CB,263,1.5,72.1,18.99162,14.316416,0,0,DJI FPV,37QBJ3G00B020K,3F2TJ1429200MP,37RBHB600B03LB,37WPHCPAA104CB,DJI Fly,Linux,0.0.1,986891CF-E8B0-0E1D-07D9-9ACCB8AAEB50,37QBJ3G00B020K,,3F2TJ1429200MP,37RBHB600B03LB,,,,,,
11/10/2024,3:09:32.62 AM,0m 2.8s,2.8,-7.2806384367237,112.796921782695,0.3,0.3,,10,0.3,0,0,0,0,0,0,0,0,-11,-0.4,103.9,103.9,,Manual Takeoff,Other,Takeoff (RC Assisted),22,5,True,,DJI FPV,False,False,,Smart,RC,True,True,False,,,True,,False,False,False,False,False,False,False,False,False,False,0,Free,0,-0.6,108.9,108.9,False,False,False,False,False,False,,True,Normal,100,100,1018,1017,1017,1008,0,False,False,False,False,False,0,False,False,False,False,57,21.93,1060,1840,22.169,True,3.695,3.695,3.695,3.695,3.695,3.695,,False,False,2.544,92.8,92.8,92.8,,11,,,5,5859.8,868.12,,Idle,,25,,5,,13,Go Home,False,False,False,False,False,False,False,False,False,False,False,False,-7.280609664052,112.796951419735,15.0,57.7,1640.4,True,1,1,False,False,False,False,,True,False,False,Course Lock,328,298.5,9.8,80,,,,,Calm,False,False,Linux,0.0.1,DJI FPV,37QBJ3G00B020K,3F2TJ1429200MP,37RBHB600B03LB,37WPHCPAA104CB,263,1.5,72.1,18.99162,14.316416,0,0,DJI FPV,37QBJ3G00B020K,3F2TJ1429200MP,37RBHB600B03LB,37WPHCPAA104CB,DJI Fly,Linux,0.0.1,986891CF-E8B0-0E1D-07D9-9ACCB8AAEB50,37QBJ3G00B020K,,3F2TJ1429200MP,37RBHB600B03LB,,,,,,
11/10/2024,3:09:32.82 AM,0m 3.0s,3.0,-7.2806384585224,112.796921941789,0.3,0.3,,10,0.4,0,0,0,0,0,0,0,0,-11,-0.4,103.9,103.9,,Manual Takeoff,Other,Takeoff (RC Assisted),22,5,True,,DJI FPV,False,False,,Smart,RC,True,True,False,,,True,,False,False,False,False,False,False,False,False,False,False,0,Free,0,-0.5,108.9,108.9,False,False,False,False,False,False,,True,Normal,100,100,1017,1020,1018,1009,0,False,False,False,False,False,0,False,False,False,False,57,22.052,1040,1840,22.169,False,3.671,3.677,3.674,3.676,3.674,3.68,0.009,False,False,3.912,93.6,92.8,93.5,,11,,,5,5859.8,868.12,,Idle,,25,,5,,13,Go Home,False,False,False,False,False,False,False,False,False,False,False,False,-7.280609664052,112.796951419735,14.9,57.7,1640.4,True,1,1,False,False,False,False,,True,False,False,Course Lock,328,298.5,9.8,80,,,,,Calm,False,False,Linux,0.0.1,DJI FPV,37QBJ3G00B020K,3F2TJ1429200MP,37RBHB600B03LB,37WPHCPAA104CB,263,1.5,72.1,18.99162,14.316416,0,0,DJI FPV,37QBJ3G00B020K,3F2TJ1429200MP,37RBHB600B03LB,37WPHCPAA104CB,DJI Fly,Linux,0.0.1,986891CF-E8B0-0E1D-07D9-9ACCB8AAEB50,37QBJ3G00B020K,,3F2TJ1429200MP,37RBHB600B03LB,,,,,,
11/10/2024,3:09:33.02 AM,0m 3.2s,3.2,-7.2806383192536,112.796921931407,0.3,0.3,,10,0.5,0,0,0,0,0,0,0,0,-11,-0.4,103.9,103.9,,Manual Takeoff,Other,Takeoff (RC Assisted),22,5,True,,DJI FPV,False,False,,Smart,RC,True,True,False,,,True,,False,False,False,False,False,False,False,False,False,False,0,Free,0,-0.5,108.9,108.9,False,False,False,False,False,False,,True,Normal,100,100,1017,1028,1022,1008,0,False,False,False,False,False,0,False,False,False,False,57,22.052,1040,1840,22.051,False,3.671,3.677,3.674,3.676,3.674,3.68,0.009,False,False,3.912,93.6,92.8,93.5,,11,,,5,6496.7,962.48,,Idle,,25,,5,,13,Go Home,False,False,False,False,False,False,False,False,False,False,False,False,-7.280609664052,112.796951419735,14.9,57.7,1640.4,True,1,1,False,False,False,False,,True,False,False,Course Lock,328,298.5,9.8,80,,,,,Calm,False,False,Linux,0.0.1,DJI FPV,37QBJ3G00B020K,3F2TJ1429200MP,37RBHB600B03LB,37WPHCPAA104CB,263,1.5,72.1,18.99162,14.316416,0,0,DJI FPV,37QBJ3G00B020K,3F2TJ1429200MP,37RBHB600B03LB,37WPHCPAA104CB,DJI Fly,Linux,0.0.1,986891CF-E8B0-0E1D-07D9-9ACCB8AAEB50,37QBJ3G00B020K,,3F2TJ1429200MP,37RBHB600B03LB,,,,,,
11/10/2024,3:09:33.22 AM,0m 3.4s,3.4,-7.2806383443043,112.796921920236,0.6,0.6,,10,0.5,0,0,0,0,0,0,0,0,-11,-0.4,103.9,103.9,,Manual Takeoff,Other,Takeoff (RC Assisted),22,5,True,,DJI FPV,False,False,,Smart,RC,True,True,False,,,True,,False,False,False,False,False,False,False,False,False,False,0,Free,0,-0.5,108.9,108.9,False,False,False,False,False,False,,True,Normal,100,100,1015,1051,1019,1008,0,False,False,False,False,False,0,False,False,False,False,57,22.052,1040,1840,22.051,False,3.671,3.677,3.674,3.676,3.674,3.68,0.009,False,False,3.912,93.6,92.8,93.5,,11,,,5,6496.7,962.48,,Idle,,25,,5,,13,Go Home,False,False,False,False,False,False,False,False,False,False,False,False,-7.280609664052,112.796951419735,14.9,57.7,1640.4,True,1,1,False,False,False,False,,True,False,False,Course Lock,328,298.5,9.8,80,,,,,Calm,False,False,Linux,0.0.1,DJI FPV,37QBJ3G00B020K,3F2TJ1429200MP,37RBHB600B03LB,37WPHCPAA104CB,263,1.5,72.1,18.99162,14.316416,0,0,DJI FPV,37QBJ3G00B020K,3F2TJ1429200MP,37RBHB600B03LB,37WPHCPAA104CB,DJI Fly,Linux,0.0.1,986891CF-E8B0-0E1D-07D9-9ACCB8AAEB50,37QBJ3G00B020K,,3F2TJ1429200MP,37RBHB600B03LB,,,,,,
11/10/2024,3:09:33.42 AM,0m 3.6s,3.6,-7.2806382095897,112.796921905416,0.6,0.6,,10,0.5,0,0,0,0,0,0,-0.223694,0,-11,-0.4,103.9,103.9,,Manual Takeoff,Other,Takeoff (RC Assisted),22,5,True,,DJI FPV,False,False,,Smart,RC,True,True,False,,,True,,False,False,False,False,False,False,False,False,False,False,0,Free,0,-0.6,108.9,108.9,False,False,False,False,False,False,,True,Normal,100,100,1018,1018,1024,1009,0,False,False,False,False,False,0,False,False,False,False,57,22.052,1040,1840,22.051,False,3.671,3.677,3.674,3.676,3.674,3.68,0.009,False,False,3.912,93.6,92.8,93.5,,11,,,5,6496.7,962.48,,Idle,,25,,5,,13,Go Home,False,False,False,False,False,False,False,False,False,False,False,False,-7.280609664052,112.796951419735,14.9,57.7,1640.4,True,1,1,False,False,False,False,,True,False,False,Course Lock,328,298.5,9.8,80,,,,,Calm,False,False,Linux,0.0.1,DJI FPV,37QBJ3G00B020K,3F2TJ1429200MP,37RBHB600B03LB,37WPHCPAA104CB,263,1.5,72.1,18.99162,14.316416,0,0,DJI FPV,37QBJ3G00B020K,3F2TJ1429200MP,37RBHB600B03LB,37WPHCPAA104CB,DJI Fly,Linux,0.0.1,986891CF-E8B0-0E1D-07D9-9ACCB8AAEB50,37QBJ3G00B020K,,3F2TJ1429200MP,37RBHB600B03LB,,,,,,
11/10/2024,3:09:33.62 AM,0m 3.8s,3.8,-7.2806380810593,112.796921891722,0.6,0.6,,10,0.6,0,0,0,0,0,0,-0.223694,0,-10.9,-0.4,103.9,103.9,,Manual Takeoff,Other,Takeoff (RC Assisted),22,5,True,,DJI FPV,False,False,,Smart,RC,True,True,False,,,True,,False,False,False,False,False,False,False,False,False,False,0,Free,0,-0.5,108.9,108.9,False,False,False,False,False,False,,True,Normal,100,100,1018,1019,1169,1058,0,False,False,False,False,False,0,False,False,False,False,57,22.052,1040,1840,22.051,False,3.671,3.677,3.674,3.676,3.674,3.68,0.009,False,False,3.912,93.6,92.8,93.5,,11,,,5,6496.7,962.48,,Idle,,25,,5,,13,Go Home,False,False,False,False,False,False,False,False,False,False,False,False,-7.280609664052,112.796951419735,14.8,57.7,1640.4,True,1,1,False,False,False,False,,True,False,False,Course Lock,328,298.5,9.8,80,,,,,Calm,False,False,Linux,0.0.1,DJI FPV,37QBJ3G00B020K,3F2TJ1429200MP,37RBHB600B03LB,37WPHCPAA104CB,263,1.5,72.1,18.99162,14.316416,0,0,DJI FPV,37QBJ3G00B020K,3F2TJ1429200MP,37RBHB600B03LB,37WPHCPAA104CB,DJI Fly,Linux,0.0.1,986891CF-E8B0-0E1D-07D9-9ACCB8AAEB50,37QBJ3G00B020K,,3F2TJ1429200MP,37RBHB600B03LB,,,,,,
11/10/2024,3:09:33.82 AM,0m 4.0s,4.0,-7.2806381173181,112.796921878278,0.9,0.9,,11,0.6,0,0,0,0,0,0,-0.223694,0,-10.9,-0.4,104,104,,Manual Takeoff,Other,Takeoff (RC Assisted),22,5,True,,DJI FPV,False,False,,Smart,RC,True,True,False,,,True,,False,False,False,False,False,False,False,False,False,False,0,Free,0,-0.5,108.9,108.9,False,False,False,False,False,False,,True,Normal,100,100,1016,1020,1289,1106,0,False,False,False,False,False,0,False,False,False,False,57,22.073,1040,1840,22.051,False,3.675,3.681,3.677,3.68,3.678,3.683,0.009,False,False,3.14,93.6,92.8,93.5,,11,,,5,6496.7,962.48,,Idle,,25,,5,,13,Go Home,False,False,False,False,False,False,False,False,False,False,False,False,-7.280609664052,112.796951419735,14.9,57.7,1640.4,True,1,1,False,False,False,False,,True,False,False,Course Lock,328,298.5,9.8,80,,,,,Calm,False,False,Linux,0.0.1,DJI FPV,37QBJ3G00B020K,3F2TJ1429200MP,37RBHB600B03LB,37WPHCPAA104CB,263,1.5,72.1,18.99162,14.316416,0,0,DJI FPV,37QBJ3G00B020K,3F2TJ1429200MP,37RBHB600B03LB,37WPHCPAA104CB,DJI Fly,Linux,0.0.1,986891CF-E8B0-0E1D-07D9-9ACCB8AAEB50,37QBJ3G00B020K,,3F2TJ1429200MP,37RBHB600B03LB,,,,,,
11/10/2024,3:09:34.02 AM,0m 4.2s,4.2,-7.2806381489771,112.79692202429,0.9,0.9,,11,0.6,0.223694,0.223694,0,0,0.223694,0.223694,-0.223694,0,-10.9,-0.4,104,104,102.3,Manual Takeoff,Other,Takeoff (RC Assisted),22,5,True,,DJI FPV,False,False,,Smart,RC,True,True,False,,,True,,False,False,False,False,False,False,False,False,False,False,0,Free,0,-0.6,108.9,108.9,False,False,False,False,False,False,,True,Normal,100,100,1017,1021,1537,1065,0,False,False,False,False,False,0,False,False,False,False,57,22.073,1040,1840,22.045,False,3.675,3.681,3.677,3.68,3.678,3.683,0.009,False,False,3.14,93.6,92.8,93.5,,11,,,5,7818.2,1158.25,,Idle,,25,,5,,13,Go Home,False,False,False,False,False,False,False,False,False,False,False,False,-7.280609664052,112.796951419735,14.8,57.7,1640.4,True,1,1,False,False,False,False,,True,False,False,Course Lock,328,298.5,9.8,80,,,,,Calm,False,False,Linux,0.0.1,DJI FPV,37QBJ3G00B020K,3F2TJ1429200MP,37RBHB600B03LB,37WPHCPAA104CB,263,1.5,72.1,18.99162,14.316416,0,0,DJI FPV,37QBJ3G00B020K,3F2TJ1429200MP,37RBHB600B03LB,37WPHCPAA104CB,DJI Fly,Linux,0.0.1,986891CF-E8B0-0E1D-07D9-9ACCB8AAEB50,37QBJ3G00B020K,,3F2TJ1429200MP,37RBHB600B03LB,,,,,,
11/10/2024,3:09:34.22 AM,0m 4.4s,4.4,-7.2806383355514,112.796921844284,0.9,0.9,,11,0.7,0.223694,0.223694,0,0,0.223694,0.223694,-0.223694,0,-11,-0.4,104,104,223.7,Manual Takeoff,Other,Takeoff (RC Assisted),22,5,True,,DJI FPV,False,False,,Smart,RC,True,True,False,,,True,,False,False,False,False,False,False,False,False,False,False,0,Free,0,-1,109.4,109.4,False,False,False,False,False,False,,True,Normal,100,100,1017,1021,1570,1192,0,False,False,False,False,False,0,False,False,False,False,57,22.073,1040,1840,22.045,False,3.675,3.681,3.677,3.68,3.678,3.683,0.009,False,False,3.14,93.6,92.8,93.5,,11,,,5,7818.2,1158.25,,Idle,,25,,5,,13,Go Home,False,False,False,False,False,False,False,False,False,False,False,False,-7.280609664052,112.796951419735,14.9,57.7,1640.4,True,1,1,False,False,False,False,,True,False,False,Course Lock,328,298.5,9.8,80,,,,,Calm,False,False,Linux,0.0.1,DJI FPV,37QBJ3G00B020K,3F2TJ1429200MP,37RBHB600B03LB,37WPHCPAA104CB,263,1.5,72.1,18.99162,14.316416,0,0,DJI FPV,37QBJ3G00B020K,3F2TJ1429200MP,37RBHB600B03LB,37WPHCPAA104CB,DJI Fly,Linux,0.0.1,986891CF-E8B0-0E1D-07D9-9ACCB8AAEB50,37QBJ3G00B020K,,3F2TJ1429200MP,37RBHB600B03LB,,,,,,
11/10/2024,3:09:34.42 AM,0m 4.6s,4.6,-7.2806383422521,112.796921823655,0.9,0.9,,11,0.7,0.223694,0.223694,0,0,0.223694,0.223694,-0.223694,0,-9,-1.8,107.1,107.1,251.8,Manual Takeoff,Other,Takeoff (RC Assisted),22,5,True,,DJI FPV,False,False,,Smart,RC,True,True,False,,,True,,False,False,False,False,False,False,False,False,False,False,0,Free,0,-1.2,115.5,115.5,False,False,False,False,False,False,,True,Normal,100,100,1018,1031,1684,1225,0,False,False,False,False,False,0,False,False,False,False,57,22.073,1040,1840,22.045,False,3.675,3.681,3.677,3.68,3.678,3.683,0.009,False,False,3.14,93.6,92.8,93.5,,11,,,5,7818.2,1158.25,,Idle,,25,,5,,13,Go Home,False,False,False,False,False,False,False,False,False,False,False,False,-7.280609664052,112.796951419735,14.9,57.7,1640.4,True,1,1,False,False,False,False,,True,False,False,Course Lock,328,298.5,9.8,80,,,,,Calm,False,False,Linux,0.0.1,DJI FPV,37QBJ3G00B020K,3F2TJ1429200MP,37RBHB600B03LB,37WPHCPAA104CB,263,1.5,72.1,18.99162,14.316416,0,0,DJI FPV,37QBJ3G00B020K,3F2TJ1429200MP,37RBHB600B03LB,37WPHCPAA104CB,DJI Fly,Linux,0.0.1,986891CF-E8B0-0E1D-07D9-9ACCB8AAEB50,37QBJ3G00B020K,,3F2TJ1429200MP,37RBHB600B03LB,,,,,,
11/10/2024,3:09:34.62 AM,0m 4.8s,4.8,-7.2806383662512,112.79692174037,0.9,0.9,,11,0.8,0,0.223694,0,0,0,0.223694,-0.223694,0,-4.5,-0.8,111.5,111.5,,Manual Takeoff,Other,Takeoff (RC Assisted),22,5,True,,DJI FPV,False,False,,Smart,RC,True,True,False,,,True,,False,False,False,False,False,False,False,False,False,False,0,Free,0,-1,117.7,117.7,False,False,False,False,False,False,,True,Normal,100,100,1018,1021,1684,1175,0,False,False,False,False,False,0,False,False,False,False,57,22.073,1040,1840,22.045,False,3.675,3.681,3.677,3.68,3.678,3.683,0.009,False,False,3.14,93.6,92.8,93.5,,11,,,5,7818.2,1158.25,,Idle,,25,,5,,13,Go Home,False,False,False,False,False,False,False,False,False,False,False,False,-7.280609664052,112.796951419735,14.9,57.7,1640.4,True,1,1,False,False,False,False,,True,False,False,Course Lock,328,298.5,9.8,80,,,,,Calm,False,False,Linux,0.0.1,DJI FPV,37QBJ3G00B020K,3F2TJ1429200MP,37RBHB600B03LB,37WPHCPAA104CB,263,1.5,72.1,18.99162,14.316416,0,0,DJI FPV,37QBJ3G00B020K,3F2TJ1429200MP,37RBHB600B03LB,37WPHCPAA104CB,DJI Fly,Linux,0.0.1,986891CF-E8B0-0E1D-07D9-9ACCB8AAEB50,37QBJ3G00B020K,,3F2TJ1429200MP,37RBHB600B03LB,,,,,,
11/10/2024,3:09:34.82 AM,0m 5.0s,5.0,-7.2806383555086,112.796921618887,1.3,1.3,,11,0.8,0,0.223694,0,0,0,0.223694,-0.223694,0,-0.3,-1,112.8,112.8,,Manual Takeoff,Other,Takeoff (RC Assisted),23,5,True,,DJI FPV,False,False,,Smart,RC,True,True,False,,,True,,False,False,False,False,False,False,False,False,False,False,0,Free,0,-0.8,118.4,118.4,False,False,False,False,False,False,,True,Normal,100,100,1016,1020,1684,1170,0,False,False,False,False,False,0,False,False,False,False,57,21.973,1040,1840,22.045,False,3.659,3.664,3.662,3.669,3.659,3.66,0.01,False,False,3.912,93.6,92.8,93.5,,11,,,5,7818.2,1158.25,,Idle,,25,,5,,13,Go Home,False,False,False,False,False,False,False,False,False,False,False,False,-7.280609664052,112.796951419735,15.0,57.7,1640.4,True,1,1,False,False,False,False,,True,False,False,Course Lock,328,298.5,9.8,80,,,,,Calm,False,False,Linux,0.0.1,DJI FPV,37QBJ3G00B020K,3F2TJ1429200MP,37RBHB600B03LB,37WPHCPAA104CB,263,1.5,72.1,18.99162,14.316416,0,0,DJI FPV,37QBJ3G00B020K,3F2TJ1429200MP,37RBHB600B03LB,37WPHCPAA104CB,DJI Fly,Linux,0.0.1,986891CF-E8B0-0E1D-07D9-9ACCB8AAEB50,37QBJ3G00B020K,,3F2TJ1429200MP,37RBHB600B03LB,,,,,,
11/10/2024,3:09:35.02 AM,0m 5.2s,5.2,-7.2806383402315,112.796921504765,1.3,1.3,,11,0.9,0.223694,0.223694,0,0,0.223694,0.223694,-0.223694,0,0.3,0,114.6,114.6,277.6,Manual Takeoff,Other,Takeoff (RC Assisted),23,5,True,,DJI FPV,False,False,,Smart,RC,True,True,False,,,True,,False,False,False,False,False,False,False,False,False,False,0,Free,0,-0.1,121.6,121.6,False,False,False,False,False,False,,True,Normal,100,100,1018,1018,1684,1178,0,False,False,False,False,False,0,False,False,False,False,57,21.973,1040,1840,22.009,False,3.659,3.664,3.662,3.669,3.659,3.66,0.01,False,False,3.912,93.6,92.8,93.5,,11,,,5,9138.5,1353.85,,Idle,,25,,5,,13,Go Home,False,False,False,False,False,False,False,False,False,False,False,False,-7.280609664052,112.796951419735,15.0,57.7,1640.4,True,1,1,False,False,False,False,,True,False,False,Course Lock,328,298.5,9.8,80,,,,,Calm,False,False,Linux,0.0.1,DJI FPV,37QBJ3G00B020K,3F2TJ1429200MP,37RBHB600B03LB,37WPHCPAA104CB,263,1.5,72.1,18.99162,14.316416,0,0,DJI FPV,37QBJ3G00B020K,3F2TJ1429200MP,37RBHB600B03LB,37WPHCPAA104CB,DJI Fly,Linux,0.0.1,986891CF-E8B0-0E1D-07D9-9ACCB8AAEB50,37QBJ3G00B020K,,3F2TJ1429200MP,37RBHB600B03LB,,,,,,
11/10/2024,3:09:35.22 AM,0m 5.4s,5.4,-7.2806383963293,112.796921297037,1.3,1.3,,11,0.9,0,0.223694,0,0,0,0.223694,-0.447388,0,0.2,0,117.4,117.4,,Manual Takeoff,Other,,23,5,True,,DJI FPV,False,False,,Smart,RC,False,True,False,,,True,,False,False,False,False,False,False,False,False,False,False,0,Free,0,0.2,123.5,123.5,False,False,False,False,False,False,,True,Normal,100,100,1018,1018,1684,1152,0,False,False,False,False,False,0,False,False,False,False,57,21.973,1040,1840,22.009,False,3.659,3.664,3.662,3.669,3.659,3.66,0.01,False,False,3.912,93.6,92.8,93.5,,11,,,5,9138.5,1353.85,,Idle,,25,,5,,13,Go Home,False,False,False,False,False,False,False,False,False,False,False,False,-7.280609664052,112.796951419735,15.1,57.7,1640.4,True,1,1,False,False,False,False,,True,False,False,Course Lock,328,298.5,9.8,80,,,,,Calm,False,False,Linux,0.0.1,DJI FPV,37QBJ3G00B020K,3F2TJ1429200MP,37RBHB600B03LB,37WPHCPAA104CB,263,1.5,72.1,18.99162,14.316416,0,0,DJI FPV,37QBJ3G00B020K,3F2TJ1429200MP,37RBHB600B03LB,37WPHCPAA104CB,DJI Fly,Linux,0.0.1,986891CF-E8B0-0E1D-07D9-9ACCB8AAEB50,37QBJ3G00B020K,,3F2TJ1429200MP,37RBHB600B03LB,,,,,,
11/10/2024,3:09:35.42 AM,0m 5.6s,5.6,-7.2806383157913,112.796921164976,1.3,1.3,,11,1.0,0.223694,0.223694,0,0,0.223694,0.223694,-1.342164,0,0,1.5,118.7,118.7,301.5,P-GPS,Other,,23,5,True,,DJI FPV,False,False,,Smart,RC,False,True,False,,,True,,False,False,False,False,False,False,False,False,False,False,0,Free,0,1.3,124.5,124.5,False,False,False,False,False,False,,True,Normal,100,100,1018,1018,1684,1134,0,False,False,False,False,False,0,False,False,False,False,57,21.973,1040,1840,22.009,False,3.659,3.664,3.662,3.669,3.659,3.66,0.01,False,False,3.912,93.6,92.8,93.5,,11,,,5,9138.5,1353.85,,Idle,,25,,5,,13,Go Home,False,False,False,False,False,False,False,False,False,False,False,False,-7.280609664052,112.796951419735,15.1,57.7,1640.4,True,1,1,False,False,False,False,,True,False,False,Course Lock,328,298.5,9.8,80,,,,,Calm,False,False,Linux,0.0.1,DJI FPV,37QBJ3G00B020K,3F2TJ1429200MP,37RBHB600B03LB,37WPHCPAA104CB,263,1.5,72.1,18.99162,14.316416,0,0,DJI FPV,37QBJ3G00B020K,3F2TJ1429200MP,37RBHB600B03LB,37WPHCPAA104CB,DJI Fly,Linux,0.0.1,986891CF-E8B0-0E1D-07D9-9ACCB8AAEB50,37QBJ3G00B020K,,3F2TJ1429200MP,37RBHB600B03LB,,,,,Flight mode changed to P-GPS.,
11/10/2024,3:09:35.62 AM,0m 5.8s,5.8,-7.2806382841027,112.796921126677,1.9,1.9,0.9,12,1.0,0.223694,0.223694,0,0,0.223694,0.223694,-3.131716,0,1.7,1.7,119.8,119.8,309.8,P-GPS,Other,,23,5,True,,DJI FPV,True,False,,Smart,RC,False,True,False,,,True,,False,False,False,False,False,False,False,False,False,False,0,Free,0,1.2,125.3,125.3,False,False,False,False,False,False,,True,Normal,100,100,1019,1017,1684,1104,0,False,False,False,False,False,0,False,False,False,False,57,21.973,1040,1840,22.009,False,3.659,3.664,3.662,3.669,3.659,3.66,0.01,False,False,3.912,93.6,92.8,93.5,,11,,,5,9138.5,1353.85,,Idle,,25,,5,,13,Go Home,False,False,False,False,False,False,False,False,False,False,False,False,-7.280609664052,112.796951419735,15.1,57.7,1640.4,True,1,1,False,False,False,False,,True,False,False,Course Lock,328,298.5,9.8,80,,,,,Calm,False,False,Linux,0.0.1,DJI FPV,37QBJ3G00B020K,3F2TJ1429200MP,37RBHB600B03LB,37WPHCPAA104CB,263,1.5,72.1,18.99162,14.316416,0,0,DJI FPV,37QBJ3G00B020K,3F2TJ1429200MP,37RBHB600B03LB,37WPHCPAA104CB,DJI Fly,Linux,0.0.1,986891CF-E8B0-0E1D-07D9-9ACCB8AAEB50,37QBJ3G00B020K,,3F2TJ1429200MP,37RBHB600B03LB,,,,,,
11/10/2024,3:09:35.82 AM,0m 6.0s,6.0,-7.2806382887725,112.796921066724,3.2,3.2,2.6,13,1.0,0.223694,0.223694,0,0,0.223694,0.223694,-5.816044,0,2.5,1.2,120.5,120.5,265.5,P-GPS,Other,,22,5,True,,DJI FPV,True,False,,Smart,RC,False,True,False,,,True,,False,False,False,False,False,False,False,False,False,False,0,Free,0,1.1,125.9,125.9,False,False,False,False,False,False,,True,Normal,100,100,1019,1017,1684,1069,0,False,False,False,False,False,0,False,False,False,False,57,21.546,1036,1840,22.009,False,3.586,3.598,3.593,3.593,3.585,3.591,0.013,False,False,9.448,93.6,92.8,93.5,,11,,,5,9138.5,1353.85,,Idle,,25,,5,,13,Go Home,False,False,False,False,False,False,False,False,False,False,False,False,-7.280609664052,112.796951419735,15.1,57.7,1640.4,True,1,1,False,False,False,False,,True,False,False,Course Lock,328,298.5,9.8,80,,,,,Calm,False,False,Linux,0.0.1,DJI FPV,37QBJ3G00B020K,3F2TJ1429200MP,37RBHB600B03LB,37WPHCPAA104CB,263,1.5,72.1,18.99162,14.316416,0,0,DJI FPV,37QBJ3G00B020K,3F2TJ1429200MP,37RBHB600B03LB,37WPHCPAA104CB,DJI Fly,Linux,0.0.1,986891CF-E8B0-0E1D-07D9-9ACCB8AAEB50,37QBJ3G00B020K,,3F2TJ1429200MP,37RBHB600B03LB,,,,,,
11/10/2024,3:09:36.02 AM,0m 6.2s,6.2,-7.2806380934315,112.796920889007,5.2,5.2,4.9,15,1.1,0,0.223694,0,0,0,0.223694,-8.724066,0,2.1,1.4,120.9,120.9,,P-GPS,Other,,21,5,True,,DJI FPV,True,False,,Smart,RC,False,True,False,,,True,,False,False,False,False,False,False,False,False,False,False,0,Free,0,0.9,126.1,126.1,False,False,False,False,False,False,,True,Normal,100,100,1018,1018,1638,1098,0,False,False,False,False,False,0,False,False,False,False,57,21.546,1036,1840,21.762,False,3.586,3.598,3.593,3.593,3.585,3.591,0.013,False,False,9.448,93.6,92.8,93.5,,,,,6,10697.1,1584.75,,Idle,,25,,5,,13,Go Home,False,False,False,False,False,False,False,False,False,False,False,False,-7.2806383963293,112.796921297037,0.1,57.7,1640.4,True,1,1,False,False,False,False,,True,False,False,Course Lock,328,298.5,9.8,80,,,,,Calm,False,False,Linux,0.0.1,DJI FPV,37QBJ3G00B020K,3F2TJ1429200MP,37RBHB600B03LB,37WPHCPAA104CB,263,1.5,72.1,18.99162,14.316416,0,0,DJI FPV,37QBJ3G00B020K,3F2TJ1429200MP,37RBHB600B03LB,37WPHCPAA104CB,DJI Fly,Linux,0.0.1,986891CF-E8B0-0E1D-07D9-9ACCB8AAEB50,37QBJ3G00B020K,,3F2TJ1429200MP,37RBHB600B03LB,,,,,Home point updated.,
11/10/2024,3:09:36.22 AM,0m 6.4s,6.4,-7.2806368301842,112.796920849633,8.2,8.2,8.2,18,1.6,0,0.223694,0,0,0,0.223694,-11.855782,0,1.6,1.2,121.4,121.4,,P-GPS,Other,,19,5,True,,DJI FPV,True,False,,Smart,RC,False,True,False,,,True,,False,False,False,False,False,False,False,False,False,False,0,Free,0,-0.2,126.6,126.6,False,False,False,False,False,False,,True,Normal,100,100,1019,1017,1584,1078,0,False,False,False,False,False,0,False,False,False,False,57,21.546,1036,1840,21.762,False,3.586,3.598,3.593,3.593,3.585,3.591,0.013,False,False,9.448,93.6,92.8,93.5,,,,,6,10697.1,1584.75,,Idle,,25,,5,,13,Go Home,False,False,False,False,False,False,False,False,False,False,False,False,-7.2806383963293,112.796921297037,0.5,57.7,1640.4,True,1,1,False,False,False,False,,True,False,False,Course Lock,328,298.5,9.8,80,,,,,Calm,False,False,Linux,0.0.1,DJI FPV,37QBJ3G00B020K,3F2TJ1429200MP,37RBHB600B03LB,37WPHCPAA104CB,263,1.5,72.1,18.99162,14.316416,0,0,DJI FPV,37QBJ3G00B020K,3F2TJ1429200MP,37RBHB600B03LB,37WPHCPAA104CB,DJI Fly,Linux,0.0.1,986891CF-E8B0-0E1D-07D9-9ACCB8AAEB50,37QBJ3G00B020K,,3F2TJ1429200MP,37RBHB600B03LB,,,,,,
11/10/2024,3:09:36.42 AM,0m 6.6s,6.6,-7.280636043521,112.796920605885,12.1,12.1,12.1,22,1.9,0.223694,0.223694,-0.223694,0,0,0.223694,-13.645334,0,1.7,-0.9,121.6,121.6,342.9,P-GPS,Other,,20,5,True,,DJI FPV,True,False,,Smart,RC,False,True,False,,,True,,False,False,False,False,False,False,False,False,False,False,0,Free,0,-2.5,126.8,126.8,False,False,False,False,False,False,,True,Normal,100,100,1019,1018,1556,1009,0,False,False,False,False,False,0,False,False,False,False,57,21.546,1036,1840,21.762,False,3.586,3.598,3.593,3.593,3.585,3.591,0.013,False,False,9.448,93.6,92.8,93.5,,,,,6,10697.1,1584.75,,Idle,,25,,5,,13,Go Home,False,False,False,False,False,False,False,False,False,False,False,False,-7.2806383963293,112.796921297037,0.8,57.7,1640.4,True,1,1,False,False,False,False,,True,False,False,Course Lock,328,298.5,9.8,80,,,,,Calm,False,False,Linux,0.0.1,DJI FPV,37QBJ3G00B020K,3F2TJ1429200MP,37RBHB600B03LB,37WPHCPAA104CB,263,1.5,72.1,18.99162,14.316416,0,0,DJI FPV,37QBJ3G00B020K,3F2TJ1429200MP,37RBHB600B03LB,37WPHCPAA104CB,DJI Fly,Linux,0.0.1,986891CF-E8B0-0E1D-07D9-9ACCB8AAEB50,37QBJ3G00B020K,,3F2TJ1429200MP,37RBHB600B03LB,,,,,,
11/10/2024,3:09:36.62 AM,0m 6.8s,6.8,-7.2806355483617,112.79692031781,16.4,16.4,16.0,26,2.1,0.223694,0.223694,-0.223694,0,0,0.223694,-14.316416,0,3,-2.9,121.5,121.5,330.0,P-GPS,Other,,22,5,True,,DJI FPV,True,False,,Smart,RC,False,True,False,,,True,,False,False,False,False,False,False,False,False,False,False,0,Free,0,-3,126.9,126.9,False,False,False,False,False,False,,True,Normal,100,100,1019,1017,1535,1010,0,False,False,False,False,False,0,False,False,False,False,57,21.546,1036,1840,21.762,False,3.586,3.598,3.593,3.593,3.585,3.591,0.013,False,False,9.448,93.6,92.8,93.5,,,,,6,10697.1,1584.75,,Idle,,25,,5,,13,Go Home,False,False,False,False,False,False,False,False,False,False,False,False,-7.2806383963293,112.796921297037,1.0,57.7,1640.4,True,1,1,False,False,False,False,,True,False,False,Course Lock,328,298.5,9.8,80,,,,,Calm,False,False,Linux,0.0.1,DJI FPV,37QBJ3G00B020K,3F2TJ1429200MP,37RBHB600B03LB,37WPHCPAA104CB,263,1.5,72.1,18.99162,14.316416,0,0,DJI FPV,37QBJ3G00B020K,3F2TJ1429200MP,37RBHB600B03LB,37WPHCPAA104CB,DJI Fly,Linux,0.0.1,986891CF-E8B0-0E1D-07D9-9ACCB8AAEB50,37QBJ3G00B020K,,3F2TJ1429200MP,37RBHB600B03LB,,,,,,
11/10/2024,3:09:36.82 AM,0m 7.0s,7.0,-7.2806350624102,112.796920212084,20.3,20.3,20.3,30,2.3,0.223694,0.223694,0,0,0.223694,0.223694,-14.092722,0,3.8,-2,121.7,121.7,347.8,P-GPS,Other,,21,5,True,,DJI FPV,True,False,,Smart,RC,False,True,False,,,True,,False,False,False,False,False,False,False,False,False,False,0,Free,0,-2,126.8,126.8,False,False,False,False,False,False,,True,Normal,100,100,1019,1016,1425,1033,0,False,False,False,False,False,0,False,False,False,False,57,21.346,1032,1840,21.762,False,3.559,3.545,3.541,3.564,3.564,3.573,0.032,False,False,14.212,93.6,92.8,93.5,,,,,6,10697.1,1584.75,,Idle,,25,,5,,13,Go Home,False,False,False,False,False,False,False,False,False,False,False,False,-7.2806383963293,112.796921297037,1.2,57.7,1640.4,True,1,1,False,False,False,False,,True,False,False,Course Lock,328,298.5,9.8,80,,,,,Calm,False,False,Linux,0.0.1,DJI FPV,37QBJ3G00B020K,3F2TJ1429200MP,37RBHB600B03LB,37WPHCPAA104CB,263,1.5,72.1,18.99162,14.316416,0,0,DJI FPV,37QBJ3G00B020K,3F2TJ1429200MP,37RBHB600B03LB,37WPHCPAA104CB,DJI Fly,Linux,0.0.1,986891CF-E8B0-0E1D-07D9-9ACCB8AAEB50,37QBJ3G00B020K,,3F2TJ1429200MP,37RBHB600B03LB,,,,,,
11/10/2024,3:09:37.02 AM,0m 7.2s,7.2,-7.2806348573939,112.796920058418,24.6,24.6,24.2,34,2.4,0.223694,0.223694,0,0,0.223694,0.223694,-13.42164,0,4.7,-1.5,121.9,121.9,323.3,P-GPS,Other,,21,5,True,,DJI FPV,True,False,,Smart,RC,False,True,False,,,True,,False,False,False,False,False,False,False,False,False,False,0,Free,0,-1.8,126.9,126.9,False,False,False,False,False,False,,True,Normal,100,100,1018,1018,1224,1011,0,False,False,False,False,False,0,False,False,False,False,57,21.346,1032,1840,21.375,False,3.559,3.545,3.541,3.564,3.564,3.573,0.032,False,False,14.212,93.6,92.8,93.5,,1,1,,7,15313.6,2268.69,,Idle,,25,,5,,13,Go Home,False,False,False,False,False,False,False,False,False,False,False,False,-7.2806383963293,112.796921297037,1.3,57.7,1640.4,True,1,1,False,False,False,False,,True,False,False,Course Lock,328,298.5,9.8,80,,,,,Calm,False,False,Linux,0.0.1,DJI FPV,37QBJ3G00B020K,3F2TJ1429200MP,37RBHB600B03LB,37WPHCPAA104CB,263,1.5,72.1,18.99162,14.316416,0,0,DJI FPV,37QBJ3G00B020K,3F2TJ1429200MP,37RBHB600B03LB,37WPHCPAA104CB,DJI Fly,Linux,0.0.1,986891CF-E8B0-0E1D-07D9-9ACCB8AAEB50,37QBJ3G00B020K,,3F2TJ1429200MP,37RBHB600B03LB,,,,,,
11/10/2024,3:09:37.22 AM,0m 7.4s,7.4,-7.2806350014825,112.796919759531,28.2,28.2,27.8,38,2.5,0.223694,0.223694,0,0,0.223694,0.223694,-11.632088,0,4.4,-1.4,121.9,121.9,244.0,P-GPS,Other,,21,5,True,,DJI FPV,True,False,,Smart,RC,False,True,False,,,True,,False,False,False,False,False,False,False,False,False,False,0,Free,0,-1.8,126.9,126.9,False,False,False,False,False,False,,True,Normal,100,100,1018,1017,1130,1011,0,False,False,False,False,False,0,False,False,False,False,57,21.346,1032,1840,21.375,False,3.559,3.545,3.541,3.564,3.564,3.573,0.032,False,False,14.212,93.6,92.8,93.5,,1,1,,7,15313.6,2268.69,,Idle,,25,,5,,13,Go Home,False,False,False,False,False,False,False,False,False,False,False,False,-7.2806383963293,112.796921297037,1.3,57.7,1640.4,True,1,1,False,False,False,False,,True,False,False,Course Lock,328,298.5,9.8,80,,,,,Calm,False,False,Linux,0.0.1,DJI FPV,37QBJ3G00B020K,3F2TJ1429200MP,37RBHB600B03LB,37WPHCPAA104CB,263,1.5,72.1,18.99162,14.316416,0,0,DJI FPV,37QBJ3G00B020K,3F2TJ1429200MP,37RBHB600B03LB,37WPHCPAA104CB,DJI Fly,Linux,0.0.1,986891CF-E8B0-0E1D-07D9-9ACCB8AAEB50,37QBJ3G00B020K,,3F2TJ1429200MP,37RBHB600B03LB,,,,,,
11/10/2024,3:09:37.42 AM,0m 7.6s,7.6,-7.2806347131811,112.796919501943,31.4,31.4,31.1,41,2.6,0,0.223694,0,0,0,0.223694,-9.618842,0,3.3,-1.5,121.9,121.9,,P-GPS,Other,,22,5,True,,DJI FPV,True,False,,Smart,RC,False,True,False,,,True,,False,False,False,False,False,False,False,False,False,False,0,Free,0,-1.4,126.8,126.8,False,False,False,False,False,False,,True,Normal,100,100,1019,1018,1022,1008,0,False,False,False,False,False,0,False,False,False,False,57,21.346,1032,1840,21.375,False,3.559,3.545,3.541,3.564,3.564,3.573,0.032,False,False,14.212,93.6,92.8,93.5,,1,1,,7,15313.6,2268.69,,Idle,,25,,5,,13,Go Home,False,False,False,False,False,False,False,False,False,False,False,False,-7.2806383963293,112.796921297037,1.4,57.7,1640.4,True,1,1,False,False,False,False,,True,False,False,Course Lock,328,298.5,9.8,80,,,,,Calm,False,False,Linux,0.0.1,DJI FPV,37QBJ3G00B020K,3F2TJ1429200MP,37RBHB600B03LB,37WPHCPAA104CB,263,1.5,72.1,18.99162,14.316416,0,0,DJI FPV,37QBJ3G00B020K,3F2TJ1429200MP,37RBHB600B03LB,37WPHCPAA104CB,DJI Fly,Linux,0.0.1,986891CF-E8B0-0E1D-07D9-9ACCB8AAEB50,37QBJ3G00B020K,,3F2TJ1429200MP,37RBHB600B03LB,,,,,,
11/10/2024,3:09:37.62 AM,0m 7.8s,7.8,-7.2806343308117,112.796919244689,34.1,34.1,33.4,44,2.8,0,0.223694,0,0,0,0.223694,-7.158208,0,2.7,-0.7,122,122,,P-GPS,Other,,22,5,True,,DJI FPV,True,False,,Smart,RC,False,True,False,,,True,,False,False,False,False,False,False,False,False,False,False,0,Free,0,-0.5,126.8,126.8,False,False,False,False,False,False,,True,Normal,100,100,1018,1021,1019,1009,0,False,False,False,False,False,0,False,False,False,False,57,21.346,1032,1840,21.375,False,3.559,3.545,3.541,3.564,3.564,3.573,0.032,False,False,14.212,93.6,92.8,93.5,,1,1,,7,15313.6,2268.69,,Idle,,25,,5,,13,Go Home,False,False,False,False,False,False,False,False,False,False,False,False,-7.2806383963293,112.796921297037,1.6,57.7,1640.4,True,1,1,False,False,False,False,,True,False,False,Course Lock,328,298.5,9.8,80,,,,,Calm,False,False,Linux,0.0.1,DJI FPV,37QBJ3G00B020K,3F2TJ1429200MP,37RBHB600B03LB,37WPHCPAA104CB,263,1.5,72.1,18.99162,14.316416,0,0,DJI FPV,37QBJ3G00B020K,3F2TJ1429200MP,37RBHB600B03LB,37WPHCPAA104CB,DJI Fly,Linux,0.0.1,986891CF-E8B0-0E1D-07D9-9ACCB8AAEB50,37QBJ3G00B020K,,3F2TJ1429200MP,37RBHB600B03LB,,,,,,
11/10/2024,3:09:37.82 AM,0m 8.0s,8.0,-7.2806344489996,112.796918736442,35.7,35.7,34.1,45,3.0,0,0.223694,0,0,0,0.223694,-4.921268,0,1.5,0,122,122,,P-GPS,Other,,22,5,True,,DJI FPV,False,False,,Smart,RC,False,True,False,,,True,,False,False,False,False,False,False,False,False,False,False,0,Free,0,-0.3,126.8,126.8,False,False,False,False,False,False,,True,Normal,100,100,1019,1016,1017,888,0,False,False,False,False,False,0,False,False,False,False,57,21.863,1032,1840,21.375,False,3.64,3.646,3.641,3.645,3.642,3.649,0.032,False,False,4.54,93.6,92.8,93.5,,1,1,,7,15313.6,2268.69,,Idle,,25,,5,,13,Go Home,False,False,False,False,False,False,False,False,False,False,False,False,-7.2806383963293,112.796921297037,1.7,57.7,1640.4,True,1,1,False,False,False,False,,True,False,False,Course Lock,328,298.5,9.8,80,,,,,Calm,False,False,Linux,0.0.1,DJI FPV,37QBJ3G00B020K,3F2TJ1429200MP,37RBHB600B03LB,37WPHCPAA104CB,263,1.5,72.1,18.99162,14.316416,0,0,DJI FPV,37QBJ3G00B020K,3F2TJ1429200MP,37RBHB600B03LB,37WPHCPAA104CB,DJI Fly,Linux,0.0.1,986891CF-E8B0-0E1D-07D9-9ACCB8AAEB50,37QBJ3G00B020K,,3F2TJ1429200MP,37RBHB600B03LB,,,,,,
11/10/2024,3:09:38.02 AM,0m 8.2s,8.2,-7.2806340222155,112.796917832868,37.0,37.0,34.1,47,3.3,0,0.223694,0,0,0,0.223694,-2.460634,0,0.8,0.1,122.3,122.3,,P-GPS,Other,,22,5,True,,DJI FPV,False,False,,Smart,RC,False,True,False,,,True,,False,False,False,False,False,False,False,False,False,False,0,Free,0,0,124.2,124.2,False,False,False,False,False,False,,True,Normal,100,100,1018,1018,1018,732,0,False,False,False,False,False,0,False,False,False,False,57,21.863,1032,1840,21.65,False,3.64,3.646,3.641,3.645,3.642,3.649,0.032,False,False,4.54,93.6,92.8,93.5,,1,2,,8,21114.1,3128.02,,Idle,,25,,5,,13,Go Home,False,False,False,False,False,False,False,False,False,False,False,False,-7.2806383963293,112.796921297037,2.0,57.7,1640.4,True,1,1,False,False,False,False,,True,False,False,Course Lock,328,298.5,9.8,80,,,,,Calm,False,False,Linux,0.0.1,DJI FPV,37QBJ3G00B020K,3F2TJ1429200MP,37RBHB600B03LB,37WPHCPAA104CB,263,1.5,72.1,18.99162,14.316416,0,0,DJI FPV,37QBJ3G00B020K,3F2TJ1429200MP,37RBHB600B03LB,37WPHCPAA104CB,DJI Fly,Linux,0.0.1,986891CF-E8B0-0E1D-07D9-9ACCB8AAEB50,37QBJ3G00B020K,,3F2TJ1429200MP,37RBHB600B03LB,,,,,,
11/10/2024,3:09:38.22 AM,0m 8.4s,8.4,-7.2806338171203,112.796917431442,37.7,37.7,34.1,47,3.5,0,0.223694,0,0,0,0.223694,-1.11847,0,0,0.2,117.9,117.9,,P-GPS,Other,,23,5,True,,DJI FPV,False,False,,Smart,RC,False,True,False,,,True,,False,False,False,False,False,False,False,False,False,False,0,Free,0,-0.1,119.3,119.3,False,False,False,False,False,False,,True,Normal,100,100,1018,1017,1020,766,0,False,False,False,False,False,0,False,False,False,False,57,21.863,1032,1840,21.65,False,3.64,3.646,3.641,3.645,3.642,3.649,0.032,False,False,4.54,93.6,92.8,93.5,,1,2,,8,21114.1,3128.02,,Idle,,25,,5,,13,Go Home,False,False,False,False,False,False,False,False,False,False,False,False,-7.2806383963293,112.796921297037,2.1,57.7,1640.4,True,1,1,False,False,False,False,,True,False,False,Course Lock,328,298.5,9.8,80,,,,,Calm,False,False,Linux,0.0.1,DJI FPV,37QBJ3G00B020K,3F2TJ1429200MP,37RBHB600B03LB,37WPHCPAA104CB,263,1.5,72.1,18.99162,14.316416,0,0,DJI FPV,37QBJ3G00B020K,3F2TJ1429200MP,37RBHB600B03LB,37WPHCPAA104CB,DJI Fly,Linux,0.0.1,986891CF-E8B0-0E1D-07D9-9ACCB8AAEB50,37QBJ3G00B020K,,3F2TJ1429200MP,37RBHB600B03LB,,,,,,
11/10/2024,3:09:38.42 AM,0m 8.6s,8.6,-7.2806336441224,112.7969171054,37.7,37.7,34.1,47,3.6,0,0.223694,0,0,0,0.223694,-0.447388,0,-1.4,0,113.5,113.5,,P-GPS,Other,,23,5,True,,DJI FPV,False,False,,Smart,RC,False,True,False,,,True,,False,False,False,False,False,False,False,False,False,False,0,Free,0,-0.8,115.3,115.3,False,False,False,False,False,False,,True,Normal,100,100,1019,1017,1019,770,0,False,False,False,False,False,0,False,False,False,False,57,21.863,1032,1840,21.65,False,3.64,3.646,3.641,3.645,3.642,3.649,0.032,False,False,4.54,93.6,92.8,93.5,,1,2,,8,21114.1,3128.02,,Idle,,25,,5,,13,Go Home,False,False,False,False,False,False,False,False,False,False,False,False,-7.2806383963293,112.796921297037,2.3,57.7,1640.4,True,1,1,False,False,False,False,,True,False,False,Course Lock,328,298.5,9.8,80,,,,,Calm,False,False,Linux,0.0.1,DJI FPV,37QBJ3G00B020K,3F2TJ1429200MP,37RBHB600B03LB,37WPHCPAA104CB,263,1.5,72.1,18.99162,14.316416,0,0,DJI FPV,37QBJ3G00B020K,3F2TJ1429200MP,37RBHB600B03LB,37WPHCPAA104CB,DJI Fly,Linux,0.0.1,986891CF-E8B0-0E1D-07D9-9ACCB8AAEB50,37QBJ3G00B020K,,3F2TJ1429200MP,37RBHB600B03LB,,,,,,
11/10/2024,3:09:38.62 AM,0m 8.8s,8.8,-7.2806334638222,112.79691692251,37.7,37.7,34.1,47,3.7,0,0.223694,0,0,0,0.223694,0,0,-1.5,-0.8,109.5,109.5,,P-GPS,Other,,23,5,True,,DJI FPV,False,False,,Smart,RC,False,True,False,,,True,,False,False,False,False,False,False,False,False,False,False,0,Free,0,-1.4,111.4,111.4,False,False,False,False,False,False,,True,Normal,100,100,1019,1018,1020,760,0,False,False,False,False,False,0,False,False,False,False,57,21.863,1032,1840,21.65,False,3.64,3.646,3.641,3.645,3.642,3.649,0.032,False,False,4.54,93.6,92.8,93.5,,1,2,,8,21114.1,3128.02,,Idle,,25,,5,,13,Go Home,False,False,False,False,False,False,False,False,False,False,False,False,-7.2806383963293,112.796921297037,2.3,57.7,1640.4,True,1,1,False,False,False,False,,True,False,False,Course Lock,328,298.5,9.8,80,,,,,Calm,False,False,Linux,0.0.1,DJI FPV,37QBJ3G00B020K,3F2TJ1429200MP,37RBHB600B03LB,37WPHCPAA104CB,263,1.5,72.1,18.99162,14.316416,0,0,DJI FPV,37QBJ3G00B020K,3F2TJ1429200MP,37RBHB600B03LB,37WPHCPAA104CB,DJI Fly,Linux,0.0.1,986891CF-E8B0-0E1D-07D9-9ACCB8AAEB50,37QBJ3G00B020K,,3F2TJ1429200MP,37RBHB600B03LB,,,,,,
11/10/2024,3:09:38.82 AM,0m 9.0s,9.0,-7.2806333859278,112.796916889082,37.7,37.7,34.1,47,3.8,0,0.223694,0,0,0,0.223694,0,0,-2.4,-1.4,105.5,105.5,,P-GPS,Other,,23,5,True,,DJI FPV,False,False,,Smart,RC,False,True,False,,,True,,False,False,False,False,False,False,False,False,False,False,0,Free,0,-1.5,107.1,107.1,False,False,False,False,False,False,,True,Normal,100,100,1020,1018,1019,756,0,False,False,False,False,False,0,False,False,False,False,57,21.714,1028,1840,21.65,False,3.617,3.622,3.618,3.62,3.615,3.622,0.032,False,False,6.416,93.6,92.8,93.5,,1,2,,8,21114.1,3128.02,,Idle,,25,,5,,13,Go Home,False,False,False,False,False,False,False,False,False,False,False,False,-7.2806383963293,112.796921297037,2.4,57.7,1640.4,True,1,1,False,False,False,False,,True,False,False,Course Lock,328,298.5,9.8,80,,,,,Calm,False,False,Linux,0.0.1,DJI FPV,37QBJ3G00B020K,3F2TJ1429200MP,37RBHB600B03LB,37WPHCPAA104CB,263,1.5,72.1,18.99162,14.316416,0,0,DJI FPV,37QBJ3G00B020K,3F2TJ1429200MP,37RBHB600B03LB,37WPHCPAA104CB,DJI Fly,Linux,0.0.1,986891CF-E8B0-0E1D-07D9-9ACCB8AAEB50,37QBJ3G00B020K,,3F2TJ1429200MP,37RBHB600B03LB,,,,,,
11/10/2024,3:09:39.02 AM,0m 9.2s,9.2,-7.2806332151297,112.796916785806,37.7,37.7,34.1,47,3.8,0,0.223694,0,0,0,0.223694,0,0,-2.5,-1.3,101.1,101.1,,P-GPS,Other,,23,5,True,,DJI FPV,False,False,,Smart,RC,False,True,False,,,True,,False,False,False,False,False,False,False,False,False,False,0,Free,0,-1.1,102.7,102.7,False,False,False,False,False,False,,True,Normal,100,100,1019,1018,1019,760,0,False,False,False,False,False,0,False,False,False,False,56,21.714,1028,1840,21.853,False,3.617,3.622,3.618,3.62,3.615,3.622,0.032,False,False,6.416,93.6,92.8,93.5,,1,2,,8,23512.3,3483.30,,Idle,,25,,5,,13,Go Home,False,False,False,False,False,False,False,False,False,False,False,False,-7.2806383963293,112.796921297037,2.4,57.7,1640.4,True,1,1,False,False,False,False,,True,False,False,Course Lock,328,298.5,9.8,80,,,,,Calm,False,False,Linux,0.0.1,DJI FPV,37QBJ3G00B020K,3F2TJ1429200MP,37RBHB600B03LB,37WPHCPAA104CB,263,1.5,72.1,18.99162,14.316416,0,0,DJI FPV,37QBJ3G00B020K,3F2TJ1429200MP,37RBHB600B03LB,37WPHCPAA104CB,DJI Fly,Linux,0.0.1,986891CF-E8B0-0E1D-07D9-9ACCB8AAEB50,37QBJ3G00B020K,,3F2TJ1429200MP,37RBHB600B03LB,,,,,,
11/10/2024,3:09:39.22 AM,0m 9.4s,9.4,-7.2806329644724,112.796916826636,37.7,37.7,34.1,47,3.9,0,0.223694,0,0,0,0.223694,0,0,-1.7,-0.7,96.7,96.7,,P-GPS,Other,,23,5,True,,DJI FPV,False,False,,Smart,RC,False,True,False,,,True,,False,False,False,False,False,False,False,False,False,False,0,Free,0,-0.5,98.5,98.5,False,False,False,False,False,False,,True,Normal,100,100,1018,1019,1018,758,0,False,False,False,False,False,0,False,False,False,False,56,21.714,1028,1840,21.853,False,3.617,3.622,3.618,3.62,3.615,3.622,0.032,False,False,6.416,93.6,92.8,93.5,,1,2,,8,23512.3,3483.30,,Idle,,25,,5,,13,Go Home,False,False,False,False,False,False,False,False,False,False,False,False,-7.2806383963293,112.796921297037,2.5,57.7,1640.4,True,1,1,False,False,False,False,,True,False,False,Course Lock,328,298.5,9.8,80,,,,,Calm,False,False,Linux,0.0.1,DJI FPV,37QBJ3G00B020K,3F2TJ1429200MP,37RBHB600B03LB,37WPHCPAA104CB,263,1.5,72.1,18.99162,14.316416,0,0,DJI FPV,37QBJ3G00B020K,3F2TJ1429200MP,37RBHB600B03LB,37WPHCPAA104CB,DJI Fly,Linux,0.0.1,986891CF-E8B0-0E1D-07D9-9ACCB8AAEB50,37QBJ3G00B020K,,3F2TJ1429200MP,37RBHB600B03LB,,,,,,
11/10/2024,3:09:39.42 AM,0m 9.6s,9.6,-7.2806330074986,112.79691690838,37.4,37.7,34.1,47,4.0,0.223694,0.223694,0,0,0.223694,0.223694,0,0,-1.2,0,92.4,92.4,117.9,P-GPS,Other,,22,5,True,,DJI FPV,False,False,,Smart,RC,False,True,False,,,True,,False,False,False,False,False,False,False,False,False,False,0,Free,0,0,94.1,94.1,False,False,False,False,False,False,,True,Normal,100,100,1019,1019,1019,753,0,False,False,False,False,False,0,False,False,False,False,56,21.714,1028,1840,21.853,False,3.617,3.622,3.618,3.62,3.615,3.622,0.032,False,False,6.416,93.6,92.8,93.5,,1,2,,8,23512.3,3483.30,,Idle,,25,,5,,13,Go Home,False,False,False,False,False,False,False,False,False,False,False,False,-7.2806383963293,112.796921297037,2.5,57.7,1640.4,True,1,1,False,False,False,False,,True,False,False,Course Lock,328,298.5,9.8,80,,,,,Calm,False,False,Linux,0.0.1,DJI FPV,37QBJ3G00B020K,3F2TJ1429200MP,37RBHB600B03LB,37WPHCPAA104CB,263,1.5,72.1,18.99162,14.316416,0,0,DJI FPV,37QBJ3G00B020K,3F2TJ1429200MP,37RBHB600B03LB,37WPHCPAA104CB,DJI Fly,Linux,0.0.1,986891CF-E8B0-0E1D-07D9-9ACCB8AAEB50,37QBJ3G00B020K,,3F2TJ1429200MP,37RBHB600B03LB,,,,,,
