sep=,
CUSTOM.date [local],CUSTOM.updateTime [local],OSD.flyTime,OSD.flyTime [s],OSD.latitude,OSD.longitude,OSD.height [ft],OSD.heightMax [ft],OSD.vpsHeight [ft],OSD.altitude [ft],OSD.mileage [ft],OSD.hSpeed [MPH],OSD.hSpeedMax [MPH],OSD.xSpeed [MPH],OSD.xSpeedMax [MPH],OSD.ySpeed [MPH],OSD.ySpeedMax [MPH],OSD.zSpeed [MPH],OSD.zSpeedMax [MPH],OSD.pitch,OSD.roll,OSD.yaw,OSD.yaw [360],OSD.directionOfTravel,OSD.flycState,OSD.flycCommand,OSD.flightAction,OSD.gpsNum,OSD.gpsLevel,OSD.isGPSUsed,OSD.nonGPSCause,OSD.droneType,OSD.isSwaveWork,OSD.waveError,OSD.goHomeStatus,OSD.batteryType,OSD.ctrlDevice,OSD.isOnGround,OSD.isMotorOn,OSD.isMotorBlocked,OSD.motorStartFailedCause,OSD.motorFailReason,OSD.isImuPreheated,OSD.imuInitFailReason,OSD.isAcceletorOverRange,OSD.isBarometerDeadInAir,OSD.isCompassError,OSD.isGoHomeHeightModified,OSD.canIOCWork,OSD.isNotEnoughForce,OSD.isOutOfLimit,OSD.isPropellerCatapult,OSD.isVibrating,OSD.isVisionUsed,OSD.voltageWarning,GIMBAL.mode,GIMBAL.pitch,GIMBAL.roll,GIMBAL.yaw,GIMBAL.yaw [360],GIMBAL.isPitchAtLimit,GIMBAL.isRollAtLimit,GIMBAL.isYawAtLimit,GIMBAL.isStuck,CAMERA.isPhoto,CAMERA.isVideo,CAMERA.filename,CAMERA.sdCardIsInserted,CAMERA.sdCardState,RC.downlinkSignal,RC.uplinkSignal,RC.aileron,RC.elevator,RC.throttle,RC.rudder,RC.mode,RC.goHomeDepressed,RC.recordDepressed,RC.shutterDepressed,RC.playbackDepressed,RC.wheelDepressed,RC.wheelOffset,RC.custom1Depressed,RC.custom2Depressed,RC.custom3Depressed,RC.custom4Depressed,BATTERY.chargeLevel,BATTERY.currentPV [V],BATTERY.currentCapacity [mAh],BATTERY.fullCapacity [mAh],BATTERY.voltage [V],BATTERY.isCellVoltageEstimated,BATTERY.cellVoltage1 [V],BATTERY.cellVoltage2 [V],BATTERY.cellVoltage3 [V],BATTERY.cellVoltage4 [V],BATTERY.cellVoltage5 [V],BATTERY.cellVoltage6 [V],BATTERY.maxCellVoltageDeviation,BATTERY.isCellVoltageDeviationHigh,BATTERY.isVoltageLow,BATTERY.current [A],BATTERY.temperature [F],BATTERY.minTemperature [F],BATTERY.maxTemperature [F],BATTERY.usefulTime [s],BATTERY.goHomeTime [s],BATTERY.landTime [s],BATTERY.goHomeBattery,BATTERY.landBattery,BATTERY.safeFlyRadius,BATTERY.volumeConsume,BATTERY.status,BATTERY.goHomeStatus,BATTERY.goHomeCountdown,BATTERY.lowWarning,BATTERY.lowWarningGoHome,BATTERY.seriousLowWarning,BATTERY.seriousLowWarningLanding,BATTERY.timesCharged,MC.failSafeAction,MC.isObstacleAvoidanceEnabled,MC.isCollisionAvoidanceEnabled,MC.isRthObstacleAvoidanceEnabled,MC.isBraking,MC.isAvoidingObstacle,MC.isAvoidingActiveObstacle,MC.isAscentLimitedByObstacle,MC.isLandingConfirmationNeeded,MC.atLowAltitudeLimit,MC.atDistanceLimit,MC.atAirportAltitudeLimit,MC.atAirportBoundary,HOME.latitude,HOME.longitude,HOME.distance [ft],HOME.height [ft],HOME.heightLimit [ft],HOME.isHomeRecord,HOME.goHomeMode,HOME.aircraftHeadDirection,HOME.isDynamicHomePointEnabled,HOME.isReachedLimitDistance,HOME.isReachedLimitHeight,HOME.isCompassCalibrating,HOME.compassCalibrationState,HOME.isMultipleFlightModeEnabled,HOME.isBeginnerMode,HOME.isIOCEnabled,HOME.iocMode,HOME.goHomeHeight [ft],HOME.courseLockAngle,HOME.forceLandingHeight [ft],HOME.dataRecorderFileIndex,WEATHER.windDirection,WEATHER.windRelativeDirection,WEATHER.windSpeed [MPH],WEATHER.maxWindSpeed [MPH],WEATHER.windStrength,WEATHER.isFacingWind,WEATHER.isFlyingIntoWind,RECOVER.appType,RECOVER.appVersion,RECOVER.aircraftName,RECOVER.aircraftSerial,RECOVER.cameraSerial,RECOVER.rcSerial,RECOVER.batterySerial,DETAILS.totalTime [s],DETAILS.totalDistance [ft],DETAILS.maxHeight [ft],DETAILS.maxHorizontalSpeed [MPH],DETAILS.maxVerticalSpeed [MPH],DETAILS.photoNum,DETAILS.videoTime [s],DETAILS.aircraftName,DETAILS.aircraftSerial,DETAILS.cameraSerial,DETAILS.rcSerial,DETAILS.batterySerial,DETAILS.appName,DETAILS.appType,DETAILS.appVersion,DETAILS.guid,SERIAL.flightController,SERIAL.camera,SERIAL.gimbal,SERIAL.rc,SERIAL.battery,SERIAL.battery2,APPGPS.latitude,APPGPS.longitude,APPGPS.accuracy,APP.tip,APP.warning
6/27/2025,3:34:35.35 AM,0m 0.0s,0.0,-7.2802567165367,112.791973402402,0,0,0.3,13,0,0,0,0,0,0,0,0,0,-19.2,1.4,-137.2,222.8,,Starting Motors,Other,Takeoff (RC Assisted),22,5,True,,DJI FPV,False,False,,Smart,RC,True,True,False,,,True,,False,False,False,False,False,False,False,False,False,False,0,Free,0,1.2,-136.8,223.2,False,False,False,False,False,False,,True,Normal,,100,364,364,364,1684,2,False,False,False,False,False,0,False,False,False,False,19,20.788,332,1776,20.788,True,3.465,3.465,3.465,3.465,3.465,3.465,,False,False,2.916,111.4,111.3,111.3,,,,,,,,,Idle,,,,,,12,Go Home,False,False,False,False,False,False,False,False,False,False,False,False,,,,,,False,,,False,False,False,False,,False,False,False,,,,,,,,,,Calm,False,False,Linux,0.0.1,DJI FPV,37QBJ3G00B020K,3F2TJ1429200MP,37RBHB600B03LB,37WPJ3CAA10285,341.2,4.1,278.8,24.69358,14.092722,0,409,DJI FPV,37QBJ3G00B020K,3F2TJ1429200MP,37RBHB600B03LB,37WPHCPAA104CB,DJI Fly,Linux,0.0.1,EA20D610-F35C-36B4-B270-AD954241374F,37QBJ3G00B020K,3F2TJ1429200MP,,37RBHB600B03LB,37WPHCPAA104CB,,,,,Motors starting.; Flight mode changed to Starting Motors.,
6/27/2025,3:34:35.55 AM,0m 0.2s,0.2,-7.2802566136562,112.791973639407,0,0,0.3,13,0,0,0,0,0,0,0,0,0,-19.2,1.4,-137.3,222.7,,Starting Motors,Other,Takeoff (RC Assisted),22,5,True,,DJI FPV,False,False,,Smart,RC,True,True,False,,,True,,False,False,False,False,False,False,False,False,False,False,0,Free,0,1.2,-136.8,223.2,False,False,False,False,False,False,,True,Normal,100,100,364,364,364,1684,2,False,False,False,False,False,0,False,False,False,False,85,20.788,332,1776,23.797,True,3.966,3.966,3.966,3.966,3.966,3.966,,False,False,2.916,111.4,111.3,111.3,,2,,,5,5997.6,888.54,,Idle,,25,,5,,12,Go Home,False,False,False,False,False,False,False,False,False,False,False,False,-7.2802622461493,112.791965757271,3.5,28.6,1640.4,True,1,1,False,False,False,False,,True,False,False,Course Lock,328,,9.8,89,,,,,Calm,False,False,Linux,0.0.1,DJI FPV,37QBJ3G00B020K,3F2TJ1429200MP,37RBHB600B03LB,37WPJ3CAA10285,341.2,4.1,278.8,24.69358,14.092722,0,409,DJI FPV,37QBJ3G00B020K,3F2TJ1429200MP,37RBHB600B03LB,37WPHCPAA104CB,DJI Fly,Linux,0.0.1,EA20D610-F35C-36B4-B270-AD954241374F,37QBJ3G00B020K,3F2TJ1429200MP,,37RBHB600B03LB,37WPHCPAA104CB,,,,,Data Recorder File Index is 89.; Set Return to Home (RTH) altitude to 100 m (328 ft).; Set maximum flight altitude to 500 m (1640 ft).,
6/27/2025,3:34:35.75 AM,0m 0.4s,0.4,-7.2802565142629,112.791973696002,0,0,0.3,13,0,0,0,0,0,0,0,0,0,-19.2,1.4,-137.2,222.8,,Starting Motors,Other,Takeoff (RC Assisted),22,5,True,,DJI FPV,False,False,,Smart,RC,True,True,False,,,True,,False,False,False,False,False,False,False,False,False,False,0,Free,0,1.2,-136.9,223.1,False,False,False,False,False,False,,True,Normal,100,100,364,364,364,1684,2,False,False,False,False,False,0,False,False,False,False,85,20.788,332,1776,23.797,True,3.966,3.966,3.966,3.966,3.966,3.966,,False,False,2.916,111.4,111.3,111.3,,2,,,5,5997.6,888.54,,Idle,,25,,5,,12,Go Home,False,False,False,False,False,False,False,False,False,False,False,False,-7.2802622461493,112.791965757271,3.5,28.6,1640.4,True,1,1,False,False,False,False,,True,False,False,Course Lock,328,,9.8,89,,,,,Calm,False,False,Linux,0.0.1,DJI FPV,37QBJ3G00B020K,3F2TJ1429200MP,37RBHB600B03LB,37WPJ3CAA10285,341.2,4.1,278.8,24.69358,14.092722,0,409,DJI FPV,37QBJ3G00B020K,3F2TJ1429200MP,37RBHB600B03LB,37WPHCPAA104CB,DJI Fly,Linux,0.0.1,EA20D610-F35C-36B4-B270-AD954241374F,37QBJ3G00B020K,3F2TJ1429200MP,,37RBHB600B03LB,37WPHCPAA104CB,,,,,,
6/27/2025,3:34:35.95 AM,0m 0.6s,0.6,-7.2802562426572,112.791973757543,0,0,0.3,13,0.1,0,0,0,0,0,0,0,0,-19.2,1.4,-137.2,222.8,,Starting Motors,Other,Takeoff (RC Assisted),22,5,True,,DJI FPV,False,False,,Smart,RC,True,True,False,,,True,,False,False,False,False,False,False,False,False,False,False,0,Free,0,1.2,-136.8,223.2,False,False,False,False,False,True,,True,Normal,100,100,364,453,364,1684,2,False,False,False,False,False,0,False,False,False,False,85,20.788,332,1776,23.797,True,3.966,3.966,3.966,3.966,3.966,3.966,,False,False,2.916,111.4,111.3,111.3,,2,,,5,5997.6,888.54,,Idle,,25,,5,,12,Go Home,False,False,False,False,False,False,False,False,False,False,False,False,-7.2802622461493,112.791965757271,3.6,28.6,1640.4,True,1,1,False,False,False,False,,True,False,False,Course Lock,328,,9.8,89,,,,,Calm,False,False,Linux,0.0.1,DJI FPV,37QBJ3G00B020K,3F2TJ1429200MP,37RBHB600B03LB,37WPJ3CAA10285,341.2,4.1,278.8,24.69358,14.092722,0,409,DJI FPV,37QBJ3G00B020K,3F2TJ1429200MP,37RBHB600B03LB,37WPHCPAA104CB,DJI Fly,Linux,0.0.1,EA20D610-F35C-36B4-B270-AD954241374F,37QBJ3G00B020K,3F2TJ1429200MP,,37RBHB600B03LB,37WPHCPAA104CB,,,,,,
6/27/2025,3:34:36.15 AM,0m 0.8s,0.8,-7.280256154695,112.791973998226,0,0,0.3,13,0.2,0,0,0,0,0,0,0,0,-19.2,1.4,-137.2,222.8,,Starting Motors,Other,Takeoff (RC Assisted),22,5,True,,DJI FPV,False,False,,Smart,RC,True,True,False,,,True,,False,False,False,False,False,False,False,False,False,False,0,Free,0,1.2,-136.9,223.1,False,False,False,False,False,True,,True,Normal,100,100,1020,1018,1072,1027,2,False,False,False,False,False,0,False,False,False,False,85,20.788,332,1776,23.797,True,3.966,3.966,3.966,3.966,3.966,3.966,,False,False,2.916,111.4,111.3,111.3,,2,,,5,5997.6,888.54,,Idle,,25,,5,,12,Go Home,False,False,False,False,False,False,False,False,False,False,False,False,-7.2802622461493,112.791965757271,3.7,28.6,1640.4,True,1,1,False,False,False,False,,True,False,False,Course Lock,328,,9.8,89,,,,,Calm,False,False,Linux,0.0.1,DJI FPV,37QBJ3G00B020K,3F2TJ1429200MP,37RBHB600B03LB,37WPJ3CAA10285,341.2,4.1,278.8,24.69358,14.092722,0,409,DJI FPV,37QBJ3G00B020K,3F2TJ1429200MP,37RBHB600B03LB,37WPHCPAA104CB,DJI Fly,Linux,0.0.1,EA20D610-F35C-36B4-B270-AD954241374F,37QBJ3G00B020K,3F2TJ1429200MP,,37RBHB600B03LB,37WPHCPAA104CB,,,,,,
6/27/2025,3:34:36.35 AM,0m 1.0s,1.0,-7.2802560654176,112.791974060519,0,0,0.3,13,0.2,0,0,0,0,0,0,0,0,-19.2,1.4,-137.2,222.8,,Starting Motors,Other,Takeoff (RC Assisted),22,5,True,,DJI FPV,False,False,,Smart,RC,True,True,False,,,True,,False,False,False,False,False,False,False,False,False,False,0,Free,0,1.2,-136.8,223.2,False,False,False,False,False,True,,True,Normal,100,100,1021,1017,1017,1006,2,False,False,False,False,False,0,False,False,False,False,85,20.788,332,1776,23.797,True,3.966,3.966,3.966,3.966,3.966,3.966,,False,False,2.916,111.4,111.3,111.3,,2,,,5,5997.6,888.54,,Idle,,25,,5,,12,Go Home,False,False,False,False,False,False,False,False,False,False,False,False,-7.2802622461493,112.791965757271,3.7,28.6,1640.4,True,1,1,False,False,False,False,,True,False,False,Course Lock,328,,9.8,89,,,,,Calm,False,False,Linux,0.0.1,DJI FPV,37QBJ3G00B020K,3F2TJ1429200MP,37RBHB600B03LB,37WPJ3CAA10285,341.2,4.1,278.8,24.69358,14.092722,0,409,DJI FPV,37QBJ3G00B020K,3F2TJ1429200MP,37RBHB600B03LB,37WPHCPAA104CB,DJI Fly,Linux,0.0.1,EA20D610-F35C-36B4-B270-AD954241374F,37QBJ3G00B020K,3F2TJ1429200MP,,37RBHB600B03LB,37WPHCPAA104CB,,,,,,
6/27/2025,3:34:36.55 AM,0m 1.2s,1.2,-7.2802559708845,112.791974132511,0,0,0.3,13,0.3,0,0,0,0,0,0,0,0,-19.2,1.4,-137.1,222.9,,Starting Motors,Other,Takeoff (RC Assisted),22,5,True,,DJI FPV,False,False,,Smart,RC,True,True,False,,,True,,False,False,False,False,False,False,False,False,False,False,0,Free,0,1.2,-136.8,223.2,False,False,False,False,False,True,,True,Normal,100,100,1021,1018,1042,1023,2,False,False,False,False,False,0,False,False,False,False,85,20.788,332,1776,23.808,True,3.968,3.968,3.968,3.968,3.968,3.968,,False,False,2.916,111.4,111.3,111.3,,2,,,5,5950.1,881.50,,Idle,,25,,5,,12,Go Home,False,False,False,False,False,False,False,False,False,False,False,False,-7.2802622461493,112.791965757271,3.7,28.6,1640.4,True,1,1,False,False,False,False,,True,False,False,Course Lock,328,,9.8,89,,,,,Calm,False,False,Linux,0.0.1,DJI FPV,37QBJ3G00B020K,3F2TJ1429200MP,37RBHB600B03LB,37WPJ3CAA10285,341.2,4.1,278.8,24.69358,14.092722,0,409,DJI FPV,37QBJ3G00B020K,3F2TJ1429200MP,37RBHB600B03LB,37WPHCPAA104CB,DJI Fly,Linux,0.0.1,EA20D610-F35C-36B4-B270-AD954241374F,37QBJ3G00B020K,3F2TJ1429200MP,,37RBHB600B03LB,37WPHCPAA104CB,,,,,,
6/27/2025,3:34:36.75 AM,0m 1.4s,1.4,-7.2802557143636,112.791974198402,0,0,0.3,13,0.4,0,0,0,0,0,0,0,0,-19.2,1.4,-137.1,222.9,,Starting Motors,Other,Takeoff (RC Assisted),22,5,True,,DJI FPV,False,False,,Smart,RC,True,True,False,,,True,,False,False,False,False,False,False,False,False,False,False,0,Free,0,1.2,-136.8,223.2,False,False,False,False,False,True,,True,Normal,100,100,1023,1130,1396,1187,2,False,False,False,False,False,0,False,False,False,False,85,20.788,332,1776,23.808,True,3.968,3.968,3.968,3.968,3.968,3.968,,False,False,2.916,111.4,111.3,111.3,,2,,,5,5950.1,881.50,,Idle,,25,,5,,12,Go Home,False,False,False,False,False,False,False,False,False,False,False,False,-7.2802622461493,112.791965757271,3.8,28.6,1640.4,True,1,1,False,False,False,False,,True,False,False,Course Lock,328,,9.8,89,,,,,Calm,False,False,Linux,0.0.1,DJI FPV,37QBJ3G00B020K,3F2TJ1429200MP,37RBHB600B03LB,37WPJ3CAA10285,341.2,4.1,278.8,24.69358,14.092722,0,409,DJI FPV,37QBJ3G00B020K,3F2TJ1429200MP,37RBHB600B03LB,37WPHCPAA104CB,DJI Fly,Linux,0.0.1,EA20D610-F35C-36B4-B270-AD954241374F,37QBJ3G00B020K,3F2TJ1429200MP,,37RBHB600B03LB,37WPHCPAA104CB,,,,,,
6/27/2025,3:34:36.95 AM,0m 1.6s,1.6,-7.2802554605928,112.791974277101,0,0,0.3,13,0.5,0,0,0,0,0,0,0,0,-19.2,1.4,-137.1,222.9,,Manual Takeoff,Other,Takeoff (RC Assisted),22,5,True,,DJI FPV,False,False,,Smart,RC,True,True,False,,,True,,False,False,False,False,False,False,False,False,False,False,0,Free,0,1.2,-136.8,223.2,False,False,False,False,False,True,,True,Normal,100,100,1021,1581,1544,1007,2,False,False,False,False,False,0,False,False,False,False,85,20.788,332,1776,23.808,True,3.968,3.968,3.968,3.968,3.968,3.968,,False,False,2.916,111.4,111.3,111.3,,2,,,5,5950.1,881.50,,Idle,,25,,5,,12,Go Home,False,False,False,False,False,False,False,False,False,False,False,False,-7.2802622461493,112.791965757271,3.9,28.6,1640.4,True,1,1,False,False,False,False,,True,False,False,Course Lock,328,,9.8,89,,,,,Calm,False,False,Linux,0.0.1,DJI FPV,37QBJ3G00B020K,3F2TJ1429200MP,37RBHB600B03LB,37WPJ3CAA10285,341.2,4.1,278.8,24.69358,14.092722,0,409,DJI FPV,37QBJ3G00B020K,3F2TJ1429200MP,37RBHB600B03LB,37WPHCPAA104CB,DJI Fly,Linux,0.0.1,EA20D610-F35C-36B4-B270-AD954241374F,37QBJ3G00B020K,3F2TJ1429200MP,,37RBHB600B03LB,37WPHCPAA104CB,,,,,Flight mode changed to Manual Takeoff.,
6/27/2025,3:34:37.15 AM,0m 1.8s,1.8,-7.2802552105603,112.791974360902,0,0,0.3,13,0.6,0,0,0,0,0,0,0,0,-19.2,1.4,-137.1,222.9,,Manual Takeoff,Other,Takeoff (RC Assisted),22,5,True,,DJI FPV,False,False,,Smart,RC,True,True,False,,,True,,False,False,False,False,False,False,False,False,False,False,0,Free,0,1.2,-136.8,223.2,False,False,False,False,False,True,,True,Normal,100,100,1024,1655,1521,1005,2,False,False,False,False,False,0,False,False,False,False,85,20.788,332,1776,23.808,True,3.968,3.968,3.968,3.968,3.968,3.968,,False,False,2.916,111.4,111.3,111.3,,2,,,5,5950.1,881.50,,Idle,,25,,5,,12,Go Home,False,False,False,False,False,False,False,False,False,False,False,False,-7.2802622461493,112.791965757271,4.0,28.6,1640.4,True,1,1,False,False,False,False,,True,False,False,Course Lock,328,,9.8,89,,,,,Calm,False,False,Linux,0.0.1,DJI FPV,37QBJ3G00B020K,3F2TJ1429200MP,37RBHB600B03LB,37WPJ3CAA10285,341.2,4.1,278.8,24.69358,14.092722,0,409,DJI FPV,37QBJ3G00B020K,3F2TJ1429200MP,37RBHB600B03LB,37WPHCPAA104CB,DJI Fly,Linux,0.0.1,EA20D610-F35C-36B4-B270-AD954241374F,37QBJ3G00B020K,3F2TJ1429200MP,,37RBHB600B03LB,37WPHCPAA104CB,,,,,,
6/27/2025,3:34:37.35 AM,0m 2.0s,2.0,-7.2802551604843,112.791974439893,0,0,0.3,13,0.6,0,0,0,0,0,0,0,0,-19.1,1.4,-137.1,222.9,,Manual Takeoff,Other,Takeoff (RC Assisted),22,5,True,,DJI FPV,False,False,,Smart,RC,True,True,False,,,True,,False,False,False,False,False,False,False,False,False,False,0,Free,0,1.3,-137.1,222.9,False,False,False,False,False,True,,True,Normal,100,100,1019,1589,1536,1006,2,False,False,False,False,False,0,False,False,False,False,85,20.788,332,1776,23.808,True,3.968,3.968,3.968,3.968,3.968,3.968,,False,False,2.916,111.4,111.3,111.3,,2,,,5,5950.1,881.50,,Idle,,25,,5,,12,Go Home,False,False,False,False,False,False,False,False,False,False,False,False,-7.2802622461493,112.791965757271,4.0,28.6,1640.4,True,1,1,False,False,False,False,,True,False,False,Course Lock,328,,9.8,89,,,,,Calm,False,False,Linux,0.0.1,DJI FPV,37QBJ3G00B020K,3F2TJ1429200MP,37RBHB600B03LB,37WPJ3CAA10285,341.2,4.1,278.8,24.69358,14.092722,0,409,DJI FPV,37QBJ3G00B020K,3F2TJ1429200MP,37RBHB600B03LB,37WPHCPAA104CB,DJI Fly,Linux,0.0.1,EA20D610-F35C-36B4-B270-AD954241374F,37QBJ3G00B020K,3F2TJ1429200MP,,37RBHB600B03LB,37WPHCPAA104CB,,,,,,
6/27/2025,3:34:37.55 AM,0m 2.2s,2.2,-7.2802552743279,112.791974360578,0,0,0.3,13,0.6,0,0,0,0,0,0,0,0,-17.3,1.4,-137.7,222.3,,Manual Takeoff,Other,Takeoff (RC Assisted),22,5,True,,DJI FPV,False,False,,Smart,RC,True,True,False,,,True,,False,False,False,False,False,False,False,False,False,False,0,Free,0,0.2,-138,222,False,False,False,False,False,True,,True,Normal,100,100,1020,1541,1638,1007,2,False,False,False,False,False,0,False,False,False,False,85,20.788,332,1776,23.719,True,3.953,3.953,3.953,3.953,3.953,3.953,,False,False,2.916,111.4,111.3,111.3,,2,,,5,6169.8,914.05,,Idle,,25,,5,,12,Go Home,False,False,False,False,False,False,False,False,False,False,False,False,-7.2802622461493,112.791965757271,4.0,28.6,1640.4,True,1,1,False,False,False,False,,True,False,False,Course Lock,328,,9.8,89,,,,,Calm,False,False,Linux,0.0.1,DJI FPV,37QBJ3G00B020K,3F2TJ1429200MP,37RBHB600B03LB,37WPJ3CAA10285,341.2,4.1,278.8,24.69358,14.092722,0,409,DJI FPV,37QBJ3G00B020K,3F2TJ1429200MP,37RBHB600B03LB,37WPHCPAA104CB,DJI Fly,Linux,0.0.1,EA20D610-F35C-36B4-B270-AD954241374F,37QBJ3G00B020K,3F2TJ1429200MP,,37RBHB600B03LB,37WPHCPAA104CB,,,,,,
6/27/2025,3:34:37.75 AM,0m 2.4s,2.4,-7.2802553705626,112.791974351022,0,0,0.3,13,0.7,0,0,0,0,0,0,0,0,-10.7,-0.1,-137.8,222.2,,Manual Takeoff,Other,Takeoff (RC Assisted),22,5,True,,DJI FPV,False,False,,Smart,RC,True,True,False,,,True,,False,False,False,False,False,False,False,False,False,False,0,Free,0,-0.6,-137.4,222.6,False,False,False,False,False,True,,True,Normal,100,100,1020,1539,1646,1008,2,False,False,False,False,False,0,False,False,False,False,85,20.788,332,1776,23.719,True,3.953,3.953,3.953,3.953,3.953,3.953,,False,False,2.916,111.4,111.3,111.3,,2,,,5,6169.8,914.05,,Idle,,25,,5,,12,Go Home,False,False,False,False,False,False,False,False,False,False,False,False,-7.2802622461493,112.791965757271,3.9,28.6,1640.4,True,1,1,False,False,False,False,,True,False,False,Course Lock,328,,9.8,89,,,,,Calm,False,False,Linux,0.0.1,DJI FPV,37QBJ3G00B020K,3F2TJ1429200MP,37RBHB600B03LB,37WPJ3CAA10285,341.2,4.1,278.8,24.69358,14.092722,0,409,DJI FPV,37QBJ3G00B020K,3F2TJ1429200MP,37RBHB600B03LB,37WPHCPAA104CB,DJI Fly,Linux,0.0.1,EA20D610-F35C-36B4-B270-AD954241374F,37QBJ3G00B020K,3F2TJ1429200MP,,37RBHB600B03LB,37WPHCPAA104CB,,,,,,
6/27/2025,3:34:37.95 AM,0m 2.6s,2.6,-7.2802555745183,112.791974377066,0,0,0.3,13,0.8,0,0,0,0,0,0,0,0,-6.7,-0.2,-137.2,222.8,,Manual Takeoff,Other,Takeoff (RC Assisted),22,5,True,,DJI FPV,False,False,,Smart,RC,True,True,False,,,True,,False,False,False,False,False,False,False,False,False,False,0,Free,0,-0.5,-137,223,False,False,False,False,False,True,,True,Normal,100,100,1021,1504,1683,1008,2,False,False,False,False,False,0,False,False,False,False,85,20.788,332,1776,23.719,True,3.953,3.953,3.953,3.953,3.953,3.953,,False,False,2.916,111.4,111.3,111.3,,2,,,5,6169.8,914.05,,Idle,,25,,5,,12,Go Home,False,False,False,False,False,False,False,False,False,False,False,False,-7.2802622461493,112.791965757271,3.9,28.6,1640.4,True,1,1,False,False,False,False,,True,False,False,Course Lock,328,,9.8,89,,,,,Calm,False,False,Linux,0.0.1,DJI FPV,37QBJ3G00B020K,3F2TJ1429200MP,37RBHB600B03LB,37WPJ3CAA10285,341.2,4.1,278.8,24.69358,14.092722,0,409,DJI FPV,37QBJ3G00B020K,3F2TJ1429200MP,37RBHB600B03LB,37WPHCPAA104CB,DJI Fly,Linux,0.0.1,EA20D610-F35C-36B4-B270-AD954241374F,37QBJ3G00B020K,3F2TJ1429200MP,,37RBHB600B03LB,37WPHCPAA104CB,,,,,,
6/27/2025,3:34:38.15 AM,0m 2.8s,2.8,-7.2802555692164,112.791974249596,0,0,0.3,13,0.8,0.223694,0.223694,-0.223694,0,0,0,-0.447388,0,-9.1,0,-136.8,223.2,272.4,P-GPS,Other,,22,5,True,,DJI FPV,False,False,,Smart,RC,False,True,False,,,True,,False,False,False,False,False,False,False,False,False,False,0,Free,0,1,-136.8,223.2,False,False,False,False,False,True,,True,Normal,100,100,1021,1460,1655,1007,2,False,False,False,False,False,0,False,False,False,False,85,20.788,332,1776,23.719,True,3.953,3.953,3.953,3.953,3.953,3.953,,False,False,2.916,111.4,111.3,111.3,,2,,,5,6169.8,914.05,,Idle,,25,,5,,12,Go Home,False,False,False,False,False,False,False,False,False,False,False,False,-7.2802622461493,112.791965757271,3.9,28.6,1640.4,True,1,1,False,False,False,False,,True,False,False,Course Lock,328,,9.8,89,,,,,Calm,False,False,Linux,0.0.1,DJI FPV,37QBJ3G00B020K,3F2TJ1429200MP,37RBHB600B03LB,37WPJ3CAA10285,341.2,4.1,278.8,24.69358,14.092722,0,409,DJI FPV,37QBJ3G00B020K,3F2TJ1429200MP,37RBHB600B03LB,37WPHCPAA104CB,DJI Fly,Linux,0.0.1,EA20D610-F35C-36B4-B270-AD954241374F,37QBJ3G00B020K,3F2TJ1429200MP,,37RBHB600B03LB,37WPHCPAA104CB,,,,,Flight mode changed to P-GPS.,
6/27/2025,3:34:38.35 AM,0m 3.0s,3.0,-7.2802562739969,112.791973815096,0.3,0.3,0.3,13,1.1,1.43234,1.43234,-1.11847,0,-0.894776,0,-2.013246,0,-14.1,0.5,-136.9,223.1,211.4,P-GPS,Other,,23,5,True,,DJI FPV,False,False,,Smart,RC,False,True,False,,,True,,False,False,False,False,False,False,False,False,False,False,0,Free,0,0,-137.1,222.9,False,False,False,False,False,True,,True,Normal,100,100,1019,1437,1628,1006,2,False,False,False,False,False,0,False,False,False,False,85,23.218,1528,1816,23.719,False,3.897,3.903,3.897,3.9,3.862,3.759,0.144,True,False,5.916,95.7,95.7,111.3,,2,,,5,6169.8,914.05,,Idle,,25,,5,,12,Go Home,False,False,False,False,False,False,False,False,False,False,False,False,-7.2802622461493,112.791965757271,3.6,28.6,1640.4,True,1,1,False,False,False,False,,True,False,False,Course Lock,328,,9.8,89,,,,,Calm,False,False,Linux,0.0.1,DJI FPV,37QBJ3G00B020K,3F2TJ1429200MP,37RBHB600B03LB,37WPJ3CAA10285,341.2,4.1,278.8,24.69358,14.092722,0,409,DJI FPV,37QBJ3G00B020K,3F2TJ1429200MP,37RBHB600B03LB,37WPHCPAA104CB,DJI Fly,Linux,0.0.1,EA20D610-F35C-36B4-B270-AD954241374F,37QBJ3G00B020K,3F2TJ1429200MP,3F2TJ1429200MP,37RBHB600B03LB,37WPHCPAA104CB,,,,,,
6/27/2025,3:34:38.55 AM,0m 3.2s,3.2,-7.2802577531886,112.791972364017,0.9,0.9,1.6,14,1.9,3.009494,3.009494,-2.23694,0,-2.013246,0,-4.250186,0,-9.9,-0.1,-137.9,222.1,224.2,P-GPS,Other,,22,5,True,,DJI FPV,True,False,,Smart,RC,False,True,False,,,True,,False,False,False,False,False,False,False,False,False,False,0,Free,0,-0.2,-137,223,False,False,False,False,False,True,,True,Normal,100,100,1021,1386,1589,1004,2,False,False,False,False,False,0,False,False,False,False,85,23.218,1528,1816,23.527,False,3.897,3.903,3.897,3.9,3.862,3.759,0.144,True,False,5.916,95.7,95.7,111.3,,1,,,6,6819.3,1010.26,,Idle,,25,,5,,12,Go Home,False,False,False,False,False,False,False,False,False,False,False,False,-7.2802555161436,112.791974277307,1.0,28.6,1640.4,True,1,1,False,False,False,False,,True,False,False,Course Lock,328,,9.8,89,,,,,Calm,False,False,Linux,0.0.1,DJI FPV,37QBJ3G00B020K,3F2TJ1429200MP,37RBHB600B03LB,37WPJ3CAA10285,341.2,4.1,278.8,24.69358,14.092722,0,409,DJI FPV,37QBJ3G00B020K,3F2TJ1429200MP,37RBHB600B03LB,37WPHCPAA104CB,DJI Fly,Linux,0.0.1,EA20D610-F35C-36B4-B270-AD954241374F,37QBJ3G00B020K,3F2TJ1429200MP,3F2TJ1429200MP,37RBHB600B03LB,37WPHCPAA104CB,,,,,Home point updated. RTH altitude adjusted to 100m.,
6/27/2025,3:34:38.75 AM,0m 3.4s,3.4,-7.2802600527573,112.791970302641,2.6,2.6,3.2,15,3.0,3.95755,3.95755,-2.908022,0,-2.684328,0,-7.158208,0,-8.5,0.1,-135.2,224.8,221.6,P-GPS,Other,,22,5,True,,DJI FPV,True,False,,Smart,RC,False,True,False,,,True,,False,False,False,False,False,False,False,False,False,False,0,Free,0,-0.1,-136.9,223.1,False,False,False,False,False,True,,True,Normal,100,100,1019,1299,1558,1004,2,False,False,False,False,False,0,False,False,False,False,85,23.218,1528,1816,23.527,False,3.897,3.903,3.897,3.9,3.862,3.759,0.144,True,False,5.916,95.7,95.7,111.3,,1,,,6,6819.3,1010.26,,Idle,,25,,5,,12,Go Home,False,False,False,False,False,False,False,False,False,False,False,False,-7.2802555161436,112.791974277307,2.1,28.6,1640.4,True,1,1,False,False,False,False,,True,False,False,Course Lock,328,,9.8,89,,,,,Calm,False,False,Linux,0.0.1,DJI FPV,37QBJ3G00B020K,3F2TJ1429200MP,37RBHB600B03LB,37WPJ3CAA10285,341.2,4.1,278.8,24.69358,14.092722,0,409,DJI FPV,37QBJ3G00B020K,3F2TJ1429200MP,37RBHB600B03LB,37WPHCPAA104CB,DJI Fly,Linux,0.0.1,EA20D610-F35C-36B4-B270-AD954241374F,37QBJ3G00B020K,3F2TJ1429200MP,3F2TJ1429200MP,37RBHB600B03LB,37WPHCPAA104CB,,,,,,
6/27/2025,3:34:38.95 AM,0m 3.6s,3.6,-7.2802626347745,112.791967561967,5.2,5.2,6.2,18,4.3,4.745266,4.745266,-3.35541,0,-3.35541,0,-10.06623,0,-5.7,-0.1,-135,225,226.4,P-GPS,Other,,22,5,True,,DJI FPV,True,False,,Smart,RC,False,True,False,,,True,,False,False,False,False,False,False,False,False,False,False,0,Free,0,-0.7,-136.8,223.2,False,False,False,False,False,True,,True,Normal,100,100,1018,1214,1402,1006,2,False,False,False,False,False,0,False,False,False,False,85,23.218,1528,1816,23.527,False,3.897,3.903,3.897,3.9,3.862,3.759,0.144,True,False,5.916,95.7,95.7,111.3,,1,,,6,6819.3,1010.26,,Idle,,25,,5,,12,Go Home,False,False,False,False,False,False,False,False,False,False,False,False,-7.2802555161436,112.791974277307,3.5,28.6,1640.4,True,1,1,False,False,False,False,,True,False,False,Course Lock,328,,9.8,89,,,,,Calm,False,False,Linux,0.0.1,DJI FPV,37QBJ3G00B020K,3F2TJ1429200MP,37RBHB600B03LB,37WPJ3CAA10285,341.2,4.1,278.8,24.69358,14.092722,0,409,DJI FPV,37QBJ3G00B020K,3F2TJ1429200MP,37RBHB600B03LB,37WPHCPAA104CB,DJI Fly,Linux,0.0.1,EA20D610-F35C-36B4-B270-AD954241374F,37QBJ3G00B020K,3F2TJ1429200MP,3F2TJ1429200MP,37RBHB600B03LB,37WPHCPAA104CB,,,,,,
6/27/2025,3:34:39.15 AM,0m 3.8s,3.8,-7.2802653903412,112.791964943335,8.2,8.2,9.8,21,5.7,4.905992,4.905992,-3.579104,0,-3.35541,0,-11.855782,0,-4.1,-0.1,-136.1,223.9,223.3,P-GPS,Other,,22,5,True,,DJI FPV,True,False,,Smart,RC,False,True,False,,,True,,False,False,False,False,False,False,False,False,False,False,0,Free,0,-0.6,-136.8,223.2,False,False,False,False,False,True,,True,Normal,100,100,1018,1085,1213,1007,2,False,False,False,False,False,0,False,False,False,False,85,23.218,1528,1816,23.527,False,3.897,3.903,3.897,3.9,3.862,3.759,0.144,True,False,5.916,95.7,95.7,111.3,,1,,,6,6819.3,1010.26,,Idle,,25,,5,,12,Go Home,False,False,False,False,False,False,False,False,False,False,False,False,-7.2802555161436,112.791974277307,4.9,28.6,1640.4,True,1,1,False,False,False,False,,True,False,False,Course Lock,328,,9.8,89,,,,,Calm,False,False,Linux,0.0.1,DJI FPV,37QBJ3G00B020K,3F2TJ1429200MP,37RBHB600B03LB,37WPJ3CAA10285,341.2,4.1,278.8,24.69358,14.092722,0,409,DJI FPV,37QBJ3G00B020K,3F2TJ1429200MP,37RBHB600B03LB,37WPHCPAA104CB,DJI Fly,Linux,0.0.1,EA20D610-F35C-36B4-B270-AD954241374F,37QBJ3G00B020K,3F2TJ1429200MP,3F2TJ1429200MP,37RBHB600B03LB,37WPHCPAA104CB,,,,,Home point updated. RTH altitude adjusted to 100m.; Forward ambient light too low. Obstacle avoidance unavailable. Fly with caution.,
6/27/2025,3:34:39.35 AM,0m 4.0s,4.0,-7.2802685979741,112.791962086191,11.8,11.8,13.4,24,7.3,5.222189,5.222189,-3.802798,0,-3.579104,0,-11.1847,0,0,-0.3,-135.8,224.2,221.4,P-GPS,Other,,22,5,True,,DJI FPV,True,False,,Smart,RC,False,True,False,,,True,,False,False,False,False,False,False,False,False,False,False,0,Free,0,-0.6,-136.8,223.2,False,False,False,False,False,True,,True,Normal,100,100,1018,1022,1052,1007,2,False,False,False,False,False,0,False,False,False,False,85,23.084,1524,1816,23.527,False,3.82,3.835,3.836,3.858,3.864,3.871,0.144,False,False,15.304,95.7,95.7,111.3,,1,,,6,6819.3,1010.26,,Idle,,25,,5,,12,Go Home,False,False,False,False,False,False,False,False,False,False,False,False,-7.2802555161436,112.791974277307,6.4,28.6,1640.4,True,1,1,False,False,False,False,,True,False,False,Course Lock,328,,9.8,89,,,,,Calm,False,False,Linux,0.0.1,DJI FPV,37QBJ3G00B020K,3F2TJ1429200MP,37RBHB600B03LB,37WPJ3CAA10285,341.2,4.1,278.8,24.69358,14.092722,0,409,DJI FPV,37QBJ3G00B020K,3F2TJ1429200MP,37RBHB600B03LB,37WPHCPAA104CB,DJI Fly,Linux,0.0.1,EA20D610-F35C-36B4-B270-AD954241374F,37QBJ3G00B020K,3F2TJ1429200MP,3F2TJ1429200MP,37RBHB600B03LB,37WPHCPAA104CB,,,,,,
6/27/2025,3:34:39.55 AM,0m 4.2s,4.2,-7.2802722657028,112.791958711111,15.4,15.4,16.4,28,9.1,5.061617,5.222189,-3.579104,0,-3.579104,0,-9.618842,0,9.1,-0.1,-135.6,224.4,222.3,P-GPS,Other,,22,5,True,,DJI FPV,True,False,,Smart,RC,False,True,False,,,True,,False,False,False,False,False,False,False,False,False,False,0,Free,0,-0.6,-136.4,223.6,False,False,False,False,False,True,,True,Normal,100,100,1020,1018,1018,1006,2,False,False,False,False,False,0,False,False,False,False,85,23.084,1524,1816,23.222,False,3.82,3.835,3.836,3.858,3.864,3.871,0.144,False,False,15.304,95.7,95.7,111.3,,6,1,,7,9950.8,1474.19,,Idle,,25,,5,,12,Go Home,False,False,False,False,False,False,False,False,False,False,False,False,-7.2802555161436,112.791974277307,8.3,28.6,1640.4,True,1,1,False,False,False,False,,True,False,False,Course Lock,328,,9.8,89,,,,,Calm,False,False,Linux,0.0.1,DJI FPV,37QBJ3G00B020K,3F2TJ1429200MP,37RBHB600B03LB,37WPJ3CAA10285,341.2,4.1,278.8,24.69358,14.092722,0,409,DJI FPV,37QBJ3G00B020K,3F2TJ1429200MP,37RBHB600B03LB,37WPHCPAA104CB,DJI Fly,Linux,0.0.1,EA20D610-F35C-36B4-B270-AD954241374F,37QBJ3G00B020K,3F2TJ1429200MP,3F2TJ1429200MP,37RBHB600B03LB,37WPHCPAA104CB,,,,,,
6/27/2025,3:34:39.75 AM,0m 4.4s,4.4,-7.2802752632075,112.791955528621,18.0,18.0,19.3,31,10.7,4.112564,5.222189,-2.908022,0,-2.908022,0,-7.381902,0,22.8,-0.3,-135.7,224.3,226.4,P-GPS,Other,,24,5,True,,DJI FPV,True,False,,Smart,RC,False,True,False,,,True,,False,False,False,False,False,False,False,False,False,False,0,Free,0,-0.9,-136.3,223.7,False,False,False,False,False,True,,True,Normal,100,100,1017,1076,1047,1007,2,False,False,False,False,False,0,False,False,False,False,85,23.084,1524,1816,23.222,False,3.82,3.835,3.836,3.858,3.864,3.871,0.144,False,False,15.304,95.7,95.7,111.3,,6,1,,7,9950.8,1474.19,,Idle,,25,,5,,12,Go Home,False,False,False,False,False,False,False,False,False,False,False,False,-7.2802555161436,112.791974277307,9.8,28.6,1640.4,True,1,1,False,False,False,False,,True,False,False,Course Lock,328,,9.8,89,,,,,Calm,False,False,Linux,0.0.1,DJI FPV,37QBJ3G00B020K,3F2TJ1429200MP,37RBHB600B03LB,37WPJ3CAA10285,341.2,4.1,278.8,24.69358,14.092722,0,409,DJI FPV,37QBJ3G00B020K,3F2TJ1429200MP,37RBHB600B03LB,37WPHCPAA104CB,DJI Fly,Linux,0.0.1,EA20D610-F35C-36B4-B270-AD954241374F,37QBJ3G00B020K,3F2TJ1429200MP,3F2TJ1429200MP,37RBHB600B03LB,37WPHCPAA104CB,,,,,,
6/27/2025,3:34:39.95 AM,0m 4.6s,4.6,-7.280277278552,112.791953446369,20.0,20.0,21.3,33,11.7,3.16351,5.222189,-2.23694,0,-2.23694,0,-5.144962,0,24.5,-0.7,-135.9,224.1,225.7,P-GPS,Other,,24,5,True,,DJI FPV,True,False,,Smart,RC,False,True,False,,,True,,False,False,False,False,False,False,False,False,False,False,0,Free,0,-1.4,-136.3,223.7,False,False,False,False,False,True,,True,Normal,100,100,857,1323,1399,1005,2,False,False,False,False,False,0,False,False,False,False,85,23.084,1524,1816,23.222,False,3.82,3.835,3.836,3.858,3.864,3.871,0.144,False,False,15.304,95.7,95.7,111.3,,6,1,,7,9950.8,1474.19,,Idle,,25,,5,,12,Go Home,False,False,False,False,False,False,False,False,False,False,False,False,-7.2802555161436,112.791974277307,10.9,28.6,1640.4,True,1,1,False,False,False,False,,True,False,False,Course Lock,328,,9.8,89,,,,,Calm,False,False,Linux,0.0.1,DJI FPV,37QBJ3G00B020K,3F2TJ1429200MP,37RBHB600B03LB,37WPJ3CAA10285,341.2,4.1,278.8,24.69358,14.092722,0,409,DJI FPV,37QBJ3G00B020K,3F2TJ1429200MP,37RBHB600B03LB,37WPHCPAA104CB,DJI Fly,Linux,0.0.1,EA20D610-F35C-36B4-B270-AD954241374F,37QBJ3G00B020K,3F2TJ1429200MP,3F2TJ1429200MP,37RBHB600B03LB,37WPHCPAA104CB,,,,,,
6/27/2025,3:34:40.15 AM,0m 4.8s,4.8,-7.2802788019804,112.791951884603,21.3,21.3,22.6,34,12.5,2.062356,5.222189,-1.342164,0,-1.565858,0,-3.131716,0,15.8,-1,-135.6,224.4,225.4,P-GPS,Other,,24,5,True,,DJI FPV,True,False,,Smart,RC,False,True,False,,,True,,False,False,False,False,False,False,False,False,False,False,0,Free,0,-4.6,-136.6,223.4,False,False,False,False,False,True,,True,Normal,100,100,1007,1187,1283,1002,2,False,False,False,False,False,0,False,False,False,False,85,23.084,1524,1816,23.222,False,3.82,3.835,3.836,3.858,3.864,3.871,0.144,False,False,15.304,95.7,95.7,111.3,,6,1,,7,9950.8,1474.19,,Idle,,25,,5,,12,Go Home,False,False,False,False,False,False,False,False,False,False,False,False,-7.2802555161436,112.791974277307,11.7,28.6,1640.4,True,1,1,False,False,False,False,,True,False,False,Course Lock,328,,9.8,89,,,,,Calm,False,False,Linux,0.0.1,DJI FPV,37QBJ3G00B020K,3F2TJ1429200MP,37RBHB600B03LB,37WPJ3CAA10285,341.2,4.1,278.8,24.69358,14.092722,0,409,DJI FPV,37QBJ3G00B020K,3F2TJ1429200MP,37RBHB600B03LB,37WPHCPAA104CB,DJI Fly,Linux,0.0.1,EA20D610-F35C-36B4-B270-AD954241374F,37QBJ3G00B020K,3F2TJ1429200MP,3F2TJ1429200MP,37RBHB600B03LB,37WPHCPAA104CB,,,,,Ambient light too low. Obstacle avoidance unavailable.; Home point updated. RTH altitude adjusted to 100m.; Forward ambient light too low. Obstacle avoidance unavailable. Fly with caution.; Downward ambient light too low. Obstacle avoidance unavailable. Fly with caution.,
6/27/2025,3:34:40.35 AM,0m 5.0s,5.0,-7.2802801119556,112.791950730802,22.3,22.3,23.9,35,13.2,1.43234,5.222189,-1.11847,0,-0.894776,0,-4.250186,0,-0.8,-5.3,-134.8,225.2,221.1,P-GPS,Other,,24,5,True,,DJI FPV,True,False,,Smart,RC,False,True,False,,,True,,False,False,False,False,False,False,False,False,False,False,0,Free,0,-3.2,-136.7,223.3,False,False,False,False,False,True,,True,Normal,100,100,1021,1019,1286,824,2,False,False,False,False,False,0,False,False,False,False,85,23.198,1524,1816,23.222,False,3.905,3.909,3.891,3.859,3.815,3.819,0.144,False,False,6.9,95.7,95.7,111.3,,6,1,,7,9950.8,1474.19,,Idle,,25,,5,,12,Go Home,False,False,False,False,False,False,False,False,False,False,False,False,-7.2802555161436,112.791974277307,12.3,28.6,1640.4,True,1,1,False,False,False,False,,True,False,False,Course Lock,328,,9.8,89,,,,,Calm,False,False,Linux,0.0.1,DJI FPV,37QBJ3G00B020K,3F2TJ1429200MP,37RBHB600B03LB,37WPJ3CAA10285,341.2,4.1,278.8,24.69358,14.092722,0,409,DJI FPV,37QBJ3G00B020K,3F2TJ1429200MP,37RBHB600B03LB,37WPHCPAA104CB,DJI Fly,Linux,0.0.1,EA20D610-F35C-36B4-B270-AD954241374F,37QBJ3G00B020K,3F2TJ1429200MP,3F2TJ1429200MP,37RBHB600B03LB,37WPHCPAA104CB,,,,,,
6/27/2025,3:34:40.55 AM,0m 5.2s,5.2,-7.2802814979786,112.791949839684,23.6,23.6,24.9,36,13.8,1.61308,5.222189,-1.342164,0,-0.894776,0,-4.026492,0,2.6,-1.1,-135.2,224.8,212.5,P-GPS,Other,,25,5,True,,DJI FPV,True,False,,Smart,RC,False,True,False,,,True,,False,False,False,False,False,False,False,False,False,False,0,Free,0,0,-139,221,False,False,False,False,False,True,,True,Normal,100,100,1020,1018,1260,723,2,False,False,False,False,False,0,False,False,False,False,84,23.198,1524,1816,23.295,False,3.905,3.909,3.891,3.859,3.815,3.819,0.144,False,False,6.9,95.7,95.7,111.3,,9,1,,7,15820.6,2343.79,,Idle,,25,,5,,12,Go Home,False,False,False,False,False,False,False,False,False,False,False,False,-7.2802555161436,112.791974277307,12.9,28.6,1640.4,True,1,1,False,False,False,False,,True,False,False,Course Lock,328,,9.8,89,,,,,Calm,False,False,Linux,0.0.1,DJI FPV,37QBJ3G00B020K,3F2TJ1429200MP,37RBHB600B03LB,37WPJ3CAA10285,341.2,4.1,278.8,24.69358,14.092722,0,409,DJI FPV,37QBJ3G00B020K,3F2TJ1429200MP,37RBHB600B03LB,37WPHCPAA104CB,DJI Fly,Linux,0.0.1,EA20D610-F35C-36B4-B270-AD954241374F,37QBJ3G00B020K,3F2TJ1429200MP,3F2TJ1429200MP,37RBHB600B03LB,37WPHCPAA104CB,,,,,,
6/27/2025,3:34:40.75 AM,0m 5.4s,5.4,-7.2802826212488,112.791949130302,24.9,24.9,25.9,38,14.3,1.000389,5.222189,-0.894776,0,-0.447388,0,-4.250186,0,8.1,0.7,-139.6,220.4,212.0,P-GPS,Other,,24,5,True,,DJI FPV,True,False,,Smart,RC,False,True,False,,,True,,False,False,False,False,False,False,False,False,False,False,0,Free,0,0,-144.4,215.6,False,False,False,False,False,True,,True,Normal,100,100,1016,1168,1369,748,2,False,False,False,False,False,0,False,False,False,False,84,23.198,1524,1816,23.295,False,3.905,3.909,3.891,3.859,3.815,3.819,0.144,False,False,6.9,95.7,95.7,111.3,,9,1,,7,15820.6,2343.79,,Idle,,25,,5,,12,Go Home,False,False,False,False,False,False,False,False,False,False,False,False,-7.2802555161436,112.791974277307,13.4,28.6,1640.4,True,1,1,False,False,False,False,,True,False,False,Course Lock,328,,9.8,89,,,,,Calm,False,False,Linux,0.0.1,DJI FPV,37QBJ3G00B020K,3F2TJ1429200MP,37RBHB600B03LB,37WPJ3CAA10285,341.2,4.1,278.8,24.69358,14.092722,0,409,DJI FPV,37QBJ3G00B020K,3F2TJ1429200MP,37RBHB600B03LB,37WPHCPAA104CB,DJI Fly,Linux,0.0.1,EA20D610-F35C-36B4-B270-AD954241374F,37QBJ3G00B020K,3F2TJ1429200MP,3F2TJ1429200MP,37RBHB600B03LB,37WPHCPAA104CB,,,,,,
6/27/2025,3:34:40.95 AM,0m 5.6s,5.6,-7.2802830310983,112.791948953589,26.2,26.2,27.2,39,14.4,0.500194,5.222189,-0.447388,0,-0.223694,0,-4.697574,0,3.5,0.4,-144.9,215.1,203.1,P-GPS,Other,,24,5,True,,DJI FPV,True,False,,Smart,RC,False,True,False,,,True,,False,False,False,False,False,False,False,False,False,False,0,Free,0,-0.2,-149.3,210.7,False,False,False,False,False,True,,True,Normal,100,100,1018,1277,1377,752,2,False,False,False,False,False,0,False,False,False,False,84,23.198,1524,1816,23.295,False,3.905,3.909,3.891,3.859,3.815,3.819,0.144,False,False,6.9,95.7,95.7,111.3,,9,1,,7,15820.6,2343.79,,Idle,,25,,5,,12,Go Home,False,False,False,False,False,False,False,False,False,False,False,False,-7.2802555161436,112.791974277307,13.5,28.6,1640.4,True,1,1,False,False,False,False,,True,False,False,Course Lock,328,,9.8,89,,,,,Calm,False,False,Linux,0.0.1,DJI FPV,37QBJ3G00B020K,3F2TJ1429200MP,37RBHB600B03LB,37WPJ3CAA10285,341.2,4.1,278.8,24.69358,14.092722,0,409,DJI FPV,37QBJ3G00B020K,3F2TJ1429200MP,37RBHB600B03LB,37WPHCPAA104CB,DJI Fly,Linux,0.0.1,EA20D610-F35C-36B4-B270-AD954241374F,37QBJ3G00B020K,3F2TJ1429200MP,3F2TJ1429200MP,37RBHB600B03LB,37WPHCPAA104CB,,,,,,
6/27/2025,3:34:41.15 AM,0m 5.8s,5.8,-7.2802829845905,112.791949664202,27.5,27.5,28.8,40,14.7,0.500194,5.222189,-0.447388,0,-0.223694,0,-6.039738,0,-5.7,0,-149.8,210.2,86.2,P-GPS,Other,,24,5,True,,DJI FPV,True,False,,Smart,RC,False,True,False,,,True,,False,False,False,False,False,False,False,False,False,False,0,Free,0,-0.4,-154.1,205.9,False,False,False,False,False,True,,True,Normal,100,100,1018,1394,1371,765,2,False,False,False,False,False,0,False,False,False,False,84,23.198,1524,1816,23.295,False,3.905,3.909,3.891,3.859,3.815,3.819,0.144,False,False,6.9,95.7,95.7,111.3,,9,1,,7,15820.6,2343.79,,Idle,,25,,5,,12,Go Home,False,False,False,False,False,False,False,False,False,False,False,False,-7.2802555161436,112.791974277307,13.4,28.6,1640.4,True,1,1,False,False,False,False,,True,False,False,Course Lock,328,,9.8,89,,,,,Calm,False,False,Linux,0.0.1,DJI FPV,37QBJ3G00B020K,3F2TJ1429200MP,37RBHB600B03LB,37WPJ3CAA10285,341.2,4.1,278.8,24.69358,14.092722,0,409,DJI FPV,37QBJ3G00B020K,3F2TJ1429200MP,37RBHB600B03LB,37WPHCPAA104CB,DJI Fly,Linux,0.0.1,EA20D610-F35C-36B4-B270-AD954241374F,37QBJ3G00B020K,3F2TJ1429200MP,3F2TJ1429200MP,37RBHB600B03LB,37WPHCPAA104CB,,,,,Ambient light too low. Obstacle avoidance unavailable.; Home point updated. RTH altitude adjusted to 100m.; Downward ambient light too low. Obstacle avoidance unavailable. Fly with caution.; Forward ambient light too low. Obstacle avoidance unavailable. Fly with caution.,
6/27/2025,3:34:41.35 AM,0m 6.0s,6.0,-7.2802835095499,112.791949446325,29.5,29.5,30.8,42,14.9,1.000389,5.222189,-0.894776,0,-0.447388,0,-6.71082,0,-10.8,-0.4,-153.9,206.1,202.3,P-GPS,Other,,26,5,True,,DJI FPV,True,False,,Smart,RC,False,True,False,,,True,,False,False,False,False,False,False,False,False,False,False,0,Free,0,-0.5,-157.8,202.2,False,False,False,False,False,True,,True,Normal,100,100,1019,1433,1319,804,2,False,False,False,False,False,0,False,False,False,False,84,23.064,1520,1816,23.295,False,3.828,3.84,3.841,3.858,3.854,3.843,0.144,False,False,8.508,95.7,95.7,111.3,,9,1,,7,15820.6,2343.79,,Idle,,25,,5,,12,Go Home,False,False,False,False,False,False,False,False,False,False,False,False,-7.2802555161436,112.791974277307,13.6,28.6,1640.4,True,1,1,False,False,False,False,,True,False,False,Course Lock,328,,9.8,89,,,,,Calm,False,False,Linux,0.0.1,DJI FPV,37QBJ3G00B020K,3F2TJ1429200MP,37RBHB600B03LB,37WPJ3CAA10285,341.2,4.1,278.8,24.69358,14.092722,0,409,DJI FPV,37QBJ3G00B020K,3F2TJ1429200MP,37RBHB600B03LB,37WPHCPAA104CB,DJI Fly,Linux,0.0.1,EA20D610-F35C-36B4-B270-AD954241374F,37QBJ3G00B020K,3F2TJ1429200MP,3F2TJ1429200MP,37RBHB600B03LB,37WPHCPAA104CB,,,,,,
6/27/2025,3:34:41.55 AM,0m 6.2s,6.2,-7.2802844498108,112.791949041698,31.4,31.4,32.4,44,15.3,1.911242,5.222189,-1.789552,0,-0.671082,0,-6.263432,0,-15.5,-0.4,-156.8,203.2,203.1,P-GPS,Other,,27,5,True,,DJI FPV,True,False,,Smart,RC,False,True,False,,,True,,False,False,False,False,False,False,False,False,False,False,0,Free,0,-0.6,-160.8,199.2,False,False,False,False,False,True,,True,Normal,100,100,1020,1439,1202,809,2,False,False,False,False,False,0,False,False,False,False,84,23.064,1520,1816,23.354,False,3.828,3.84,3.841,3.858,3.854,3.843,0.144,False,False,8.508,95.7,95.7,111.3,,9,2,,7,19810.1,2934.83,,Idle,,25,,5,,12,Go Home,False,False,False,False,False,False,False,False,False,False,False,False,-7.2802555161436,112.791974277307,13.9,28.6,1640.4,True,1,1,False,False,False,False,,True,False,False,Course Lock,328,,9.8,89,,,,,Calm,False,False,Linux,0.0.1,DJI FPV,37QBJ3G00B020K,3F2TJ1429200MP,37RBHB600B03LB,37WPJ3CAA10285,341.2,4.1,278.8,24.69358,14.092722,0,409,DJI FPV,37QBJ3G00B020K,3F2TJ1429200MP,37RBHB600B03LB,37WPHCPAA104CB,DJI Fly,Linux,0.0.1,EA20D610-F35C-36B4-B270-AD954241374F,37QBJ3G00B020K,3F2TJ1429200MP,3F2TJ1429200MP,37RBHB600B03LB,37WPHCPAA104CB,,,,,Ambient light too low. Obstacle avoidance unavailable.,
6/27/2025,3:34:41.75 AM,0m 6.4s,6.4,-7.2802860930203,112.791948253233,33.4,33.4,34.1,46,15.9,2.908022,5.222189,-2.684328,0,-1.11847,0,-5.368656,0,-17.3,-1,-160.6,199.4,205.4,P-GPS,Other,,27,5,True,,DJI FPV,True,False,,Smart,RC,False,True,False,,,True,,False,False,False,False,False,False,False,False,False,False,0,Free,0,-1.5,-164.1,195.9,False,False,False,False,False,True,,True,Normal,100,100,1021,1448,1166,787,2,False,False,False,False,False,0,False,False,False,False,84,23.064,1520,1816,23.354,False,3.828,3.84,3.841,3.858,3.854,3.843,0.144,False,False,8.508,95.7,95.7,111.3,,9,2,,7,19810.1,2934.83,,Idle,,25,,5,,12,Go Home,False,False,False,False,False,False,False,False,False,False,False,False,-7.2802555161436,112.791974277307,14.5,28.6,1640.4,True,1,1,False,False,False,False,,True,False,False,Course Lock,328,,9.8,89,,,,,Calm,False,False,Linux,0.0.1,DJI FPV,37QBJ3G00B020K,3F2TJ1429200MP,37RBHB600B03LB,37WPJ3CAA10285,341.2,4.1,278.8,24.69358,14.092722,0,409,DJI FPV,37QBJ3G00B020K,3F2TJ1429200MP,37RBHB600B03LB,37WPHCPAA104CB,DJI Fly,Linux,0.0.1,EA20D610-F35C-36B4-B270-AD954241374F,37QBJ3G00B020K,3F2TJ1429200MP,3F2TJ1429200MP,37RBHB600B03LB,37WPHCPAA104CB,,,,,,
6/27/2025,3:34:41.95 AM,0m 6.6s,6.6,-7.2802883969851,112.791947543213,34.7,34.7,35.4,47,16.8,3.613887,5.222189,-3.35541,0,-1.342164,0,-3.35541,0,-20.3,-1.8,-163.6,196.4,196.9,P-GPS,Other,,27,5,True,,DJI FPV,True,False,,Smart,RC,False,True,False,,,True,,False,False,False,False,False,False,False,False,False,False,0,Free,0,-1.9,-167.1,192.9,False,False,False,False,False,True,,True,Normal,100,100,1021,1469,1290,910,2,False,False,False,False,False,0,False,False,False,False,84,23.064,1520,1816,23.354,False,3.828,3.84,3.841,3.858,3.854,3.843,0.144,False,False,8.508,95.7,95.7,111.3,,9,2,,7,19810.1,2934.83,,Idle,,25,,5,,12,Go Home,False,False,False,False,False,False,False,False,False,False,False,False,-7.2802555161436,112.791974277307,15.4,28.6,1640.4,True,1,1,False,False,False,False,,True,False,False,Course Lock,328,,9.8,89,,,,,Calm,False,False,Linux,0.0.1,DJI FPV,37QBJ3G00B020K,3F2TJ1429200MP,37RBHB600B03LB,37WPJ3CAA10285,341.2,4.1,278.8,24.69358,14.092722,0,409,DJI FPV,37QBJ3G00B020K,3F2TJ1429200MP,37RBHB600B03LB,37WPHCPAA104CB,DJI Fly,Linux,0.0.1,EA20D610-F35C-36B4-B270-AD954241374F,37QBJ3G00B020K,3F2TJ1429200MP,3F2TJ1429200MP,37RBHB600B03LB,37WPHCPAA104CB,,,,,,
6/27/2025,3:34:42.15 AM,0m 6.8s,6.8,-7.2802913415054,112.79194667087,35.4,35.4,36.0,48,17.9,5.164377,5.222189,-4.921268,0,-1.565858,0,-3.35541,0,-19.2,-1.8,-165.6,194.4,196.3,P-GPS,Other,,27,5,True,,DJI FPV,False,False,,Smart,RC,False,True,False,,,True,,False,False,False,False,False,False,False,False,False,False,0,Free,0,-2.1,-168.1,191.9,False,False,False,False,False,True,,True,Normal,100,100,1020,1476,1302,863,2,False,False,False,False,False,0,False,False,False,False,84,23.064,1520,1816,23.354,False,3.828,3.84,3.841,3.858,3.854,3.843,0.144,False,False,8.508,95.7,95.7,111.3,,9,2,,7,19810.1,2934.83,,Idle,,25,,5,,12,Go Home,False,False,False,False,False,False,False,False,False,False,False,False,-7.2802555161436,112.791974277307,16.4,28.6,1640.4,True,1,1,False,False,False,False,,True,False,False,Course Lock,328,,9.8,89,,,,,Calm,False,False,Linux,0.0.1,DJI FPV,37QBJ3G00B020K,3F2TJ1429200MP,37RBHB600B03LB,37WPJ3CAA10285,341.2,4.1,278.8,24.69358,14.092722,0,409,DJI FPV,37QBJ3G00B020K,3F2TJ1429200MP,37RBHB600B03LB,37WPHCPAA104CB,DJI Fly,Linux,0.0.1,EA20D610-F35C-36B4-B270-AD954241374F,37QBJ3G00B020K,3F2TJ1429200MP,3F2TJ1429200MP,37RBHB600B03LB,37WPHCPAA104CB,,,,,Ambient light too low. Obstacle avoidance unavailable.,
6/27/2025,3:34:42.35 AM,0m 7.0s,7.0,-7.2802956377756,112.791945309709,36.7,36.7,36.0,49,19.6,6.456197,6.456197,-6.263432,0,-1.565858,0,-3.35541,0,-15.9,-2.1,-167.3,192.7,197.4,P-GPS,Other,,27,5,True,,DJI FPV,False,False,,Smart,RC,False,True,False,,,True,,False,False,False,False,False,False,False,False,False,False,0,Free,0,-2.4,-169.8,190.2,False,False,False,False,False,True,,True,Normal,100,100,1021,1484,1320,757,2,False,False,False,False,False,0,False,False,False,False,84,23.103,1520,1816,23.354,False,3.838,3.837,3.823,3.85,3.867,3.888,0.144,False,False,8.184,95.7,95.7,111.3,,9,2,,7,19810.1,2934.83,,Idle,,25,,5,,12,Go Home,False,False,False,False,False,False,False,False,False,False,False,False,-7.2802555161436,112.791974277307,18.0,28.6,1640.4,True,1,1,False,False,False,False,,True,False,False,Course Lock,328,,9.8,89,,,,,Calm,False,False,Linux,0.0.1,DJI FPV,37QBJ3G00B020K,3F2TJ1429200MP,37RBHB600B03LB,37WPJ3CAA10285,341.2,4.1,278.8,24.69358,14.092722,0,409,DJI FPV,37QBJ3G00B020K,3F2TJ1429200MP,37RBHB600B03LB,37WPHCPAA104CB,DJI Fly,Linux,0.0.1,EA20D610-F35C-36B4-B270-AD954241374F,37QBJ3G00B020K,3F2TJ1429200MP,3F2TJ1429200MP,37RBHB600B03LB,37WPHCPAA104CB,,,,,,
6/27/2025,3:34:42.55 AM,0m 7.2s,7.2,-7.2803005226619,112.791943965757,37.4,37.4,36.0,50,21.4,7.59572,7.59572,-7.381902,0,-1.789552,0,-4.47388,0,-13.5,-3,-168.8,191.2,195.2,P-GPS,Other,,27,5,True,,DJI FPV,False,False,,Smart,RC,False,True,False,,,True,,False,False,False,False,False,False,False,False,False,False,0,Free,0,-5,-174.7,185.3,False,False,False,False,False,True,,True,Normal,100,100,1020,1473,1381,692,2,False,False,False,False,False,0,False,False,False,False,84,23.103,1520,1816,23.126,False,3.838,3.837,3.823,3.85,3.867,3.888,0.144,False,False,8.184,95.7,95.7,111.3,,14,2,19,8,23121.0,3425.34,,Idle,,25,,5,,12,Go Home,False,False,False,False,False,False,False,False,False,False,False,False,-7.2802555161436,112.791974277307,19.7,28.6,1640.4,True,1,1,False,False,False,False,,True,False,False,Course Lock,328,,9.8,89,,,,,Calm,False,False,Linux,0.0.1,DJI FPV,37QBJ3G00B020K,3F2TJ1429200MP,37RBHB600B03LB,37WPJ3CAA10285,341.2,4.1,278.8,24.69358,14.092722,0,409,DJI FPV,37QBJ3G00B020K,3F2TJ1429200MP,37RBHB600B03LB,37WPHCPAA104CB,DJI Fly,Linux,0.0.1,EA20D610-F35C-36B4-B270-AD954241374F,37QBJ3G00B020K,3F2TJ1429200MP,3F2TJ1429200MP,37RBHB600B03LB,37WPHCPAA104CB,,,,,,
6/27/2025,3:34:42.75 AM,0m 7.4s,7.4,-7.2803066441797,112.791942197304,39.0,39.0,36.0,52,23.7,8.203807,8.203807,-8.052984,0,-1.565858,0,-5.59235,0,-8.2,-6,-174.8,185.2,195.9,P-GPS,Other,,27,5,True,,DJI FPV,False,False,,Smart,RC,False,True,False,,,True,,False,False,False,False,False,False,False,False,False,False,0,Free,-0.1,-7.1,179.2,179.2,False,False,False,False,False,True,,True,Normal,100,100,1019,1454,1468,720,2,False,False,False,False,False,0,False,False,False,False,84,23.103,1520,1816,23.126,False,3.838,3.837,3.823,3.85,3.867,3.888,0.144,False,False,8.184,95.7,95.7,111.3,,14,2,19,8,23121.0,3425.34,,Idle,,25,,5,,12,Go Home,False,False,False,False,False,False,False,False,False,False,False,False,-7.2802555161436,112.791974277307,21.9,28.6,1640.4,True,1,1,False,False,False,False,,True,False,False,Course Lock,328,,9.8,89,,,,,Calm,False,False,Linux,0.0.1,DJI FPV,37QBJ3G00B020K,3F2TJ1429200MP,37RBHB600B03LB,37WPJ3CAA10285,341.2,4.1,278.8,24.69358,14.092722,0,409,DJI FPV,37QBJ3G00B020K,3F2TJ1429200MP,37RBHB600B03LB,37WPHCPAA104CB,DJI Fly,Linux,0.0.1,EA20D610-F35C-36B4-B270-AD954241374F,37QBJ3G00B020K,3F2TJ1429200MP,3F2TJ1429200MP,37RBHB600B03LB,37WPHCPAA104CB,,,,,,
6/27/2025,3:34:42.95 AM,0m 7.6s,7.6,-7.2803130300308,112.791940731151,40.6,40.6,36.0,53,26.1,8.351908,8.351908,-8.276678,0,-1.11847,0,-7.158208,0,-8,-7.1,179.7,179.7,192.8,P-GPS,Other,,28,5,True,,DJI FPV,False,False,,Smart,RC,False,True,False,,,True,,False,False,False,False,False,False,False,False,False,False,0,Free,0,-7.4,174.2,174.2,False,False,False,False,False,True,,True,Normal,100,100,1019,1432,1486,719,2,False,False,False,False,False,0,False,False,False,False,84,23.103,1520,1816,23.126,False,3.838,3.837,3.823,3.85,3.867,3.888,0.144,False,False,8.184,95.7,95.7,111.3,,14,2,19,8,23121.0,3425.34,,Idle,,25,,5,,12,Go Home,False,False,False,False,False,False,False,False,False,False,False,False,-7.2802555161436,112.791974277307,24.2,28.6,1640.4,True,1,1,False,False,False,False,,True,False,False,Course Lock,328,,9.8,89,,,,,Calm,False,False,Linux,0.0.1,DJI FPV,37QBJ3G00B020K,3F2TJ1429200MP,37RBHB600B03LB,37WPJ3CAA10285,341.2,4.1,278.8,24.69358,14.092722,0,409,DJI FPV,37QBJ3G00B020K,3F2TJ1429200MP,37RBHB600B03LB,37WPHCPAA104CB,DJI Fly,Linux,0.0.1,EA20D610-F35C-36B4-B270-AD954241374F,37QBJ3G00B020K,3F2TJ1429200MP,3F2TJ1429200MP,37RBHB600B03LB,37WPHCPAA104CB,,,,,,
6/27/2025,3:34:43.15 AM,0m 7.8s,7.8,-7.2803202800906,112.791939855909,42.9,42.9,36.0,56,28.8,8.726933,8.726933,-8.724066,0,-0.223694,0,-8.724066,0,-8.1,-7.7,174.7,174.7,186.8,P-GPS,Other,,27,5,True,,DJI FPV,False,False,,Smart,RC,False,True,False,,,True,,False,False,False,False,False,False,False,False,False,False,0,Free,-0.1,-8.5,169,169,False,False,False,False,False,True,,True,Normal,100,100,1019,1422,1416,640,2,False,False,False,False,False,0,False,False,False,False,84,23.103,1520,1816,23.126,False,3.838,3.837,3.823,3.85,3.867,3.888,0.144,False,False,8.184,95.7,95.7,111.3,,14,2,19,8,23121.0,3425.34,,Idle,,25,,5,,12,Go Home,False,False,False,False,False,False,False,False,False,False,False,False,-7.2802555161436,112.791974277307,26.7,28.6,1640.4,True,1,1,False,False,False,False,,True,False,False,Course Lock,328,,9.8,89,,,,,Calm,False,False,Linux,0.0.1,DJI FPV,37QBJ3G00B020K,3F2TJ1429200MP,37RBHB600B03LB,37WPJ3CAA10285,341.2,4.1,278.8,24.69358,14.092722,0,409,DJI FPV,37QBJ3G00B020K,3F2TJ1429200MP,37RBHB600B03LB,37WPHCPAA104CB,DJI Fly,Linux,0.0.1,EA20D610-F35C-36B4-B270-AD954241374F,37QBJ3G00B020K,3F2TJ1429200MP,3F2TJ1429200MP,37RBHB600B03LB,37WPHCPAA104CB,,,,,,
6/27/2025,3:34:43.35 AM,0m 8.0s,8.0,-7.2803281850085,112.791939307306,45.6,45.6,36.0,58,31.7,9.174181,9.174181,-9.171454,0,0.223694,0.223694,-9.842536,0,-5.6,-9.3,168.6,168.6,183.9,P-GPS,Other,,28,5,True,,DJI FPV,False,False,,Smart,RC,False,True,False,,,True,,False,False,False,False,False,False,False,False,False,False,0,Free,-0.3,-12.1,161,161,False,False,False,False,False,True,,True,Normal,100,100,1017,1364,1287,504,2,False,False,False,False,False,0,False,False,False,False,84,22.904,1516,1816,23.126,False,3.812,3.816,3.807,3.817,3.82,3.832,0.144,False,False,10.9,95.7,95.7,111.3,,14,2,19,8,23121.0,3425.34,,Idle,,25,,5,,12,Go Home,False,False,False,False,False,False,False,False,False,False,False,False,-7.2802555161436,112.791974277307,29.3,28.6,1640.4,True,1,1,False,False,False,False,,True,False,False,Course Lock,328,,9.8,89,,,,,Calm,False,False,Linux,0.0.1,DJI FPV,37QBJ3G00B020K,3F2TJ1429200MP,37RBHB600B03LB,37WPJ3CAA10285,341.2,4.1,278.8,24.69358,14.092722,0,409,DJI FPV,37QBJ3G00B020K,3F2TJ1429200MP,37RBHB600B03LB,37WPHCPAA104CB,DJI Fly,Linux,0.0.1,EA20D610-F35C-36B4-B270-AD954241374F,37QBJ3G00B020K,3F2TJ1429200MP,3F2TJ1429200MP,37RBHB600B03LB,37WPHCPAA104CB,,,,,,
6/27/2025,3:34:43.55 AM,0m 8.2s,8.2,-7.2803360717387,112.791939645452,48.5,48.5,36.0,61,34.5,9.195973,9.195973,-9.171454,0,0.671082,0.671082,-8.276678,0,-6,-14.6,158.6,158.6,177.5,P-GPS,Other,,26,5,True,,DJI FPV,False,False,,Smart,RC,False,True,False,,,True,,False,False,False,False,False,False,False,False,False,False,0,Free,-0.7,-18.7,146.8,146.8,False,False,False,False,False,True,,True,Normal,100,100,1013,1302,1296,428,2,False,False,False,False,False,0,False,False,False,False,84,22.904,1516,1816,23.104,False,3.812,3.816,3.807,3.817,3.82,3.832,0.144,False,False,10.9,95.7,95.7,111.3,,22,3,20,8,26359.0,3905.05,,Idle,,25,,5,,12,Go Home,False,False,False,False,False,False,False,False,False,False,False,False,-7.2802555161436,112.791974277307,31.9,28.6,1640.4,True,1,1,False,False,False,False,,True,False,False,Course Lock,328,,9.8,89,,,,,Calm,False,False,Linux,0.0.1,DJI FPV,37QBJ3G00B020K,3F2TJ1429200MP,37RBHB600B03LB,37WPJ3CAA10285,341.2,4.1,278.8,24.69358,14.092722,0,409,DJI FPV,37QBJ3G00B020K,3F2TJ1429200MP,37RBHB600B03LB,37WPHCPAA104CB,DJI Fly,Linux,0.0.1,EA20D610-F35C-36B4-B270-AD954241374F,37QBJ3G00B020K,3F2TJ1429200MP,3F2TJ1429200MP,37RBHB600B03LB,37WPHCPAA104CB,,,,,,
6/27/2025,3:34:43.75 AM,0m 8.4s,8.4,-7.2803429362855,112.791940838428,50.8,50.8,36.0,64,37.1,8.863477,9.195973,-8.724066,0,1.565858,1.565858,-6.487126,0,-10.7,-21.7,144.6,144.6,170.2,P-GPS,Other,,27,5,True,,DJI FPV,False,False,,Smart,RC,False,True,False,,,True,,False,False,False,False,False,False,False,False,False,False,0,Free,-1,-23.8,128.8,128.8,False,False,False,False,False,True,,True,Normal,100,100,984,1258,1318,469,2,False,False,False,False,False,0,False,False,False,False,84,22.904,1516,1816,23.104,False,3.812,3.816,3.807,3.817,3.82,3.832,0.144,False,False,10.9,95.7,95.7,111.3,,22,3,20,8,26359.0,3905.05,,Idle,,25,,5,,12,Go Home,False,False,False,False,False,False,False,False,False,False,False,False,-7.2802555161436,112.791974277307,34.1,28.6,1640.4,True,1,1,False,False,False,False,,True,False,False,Course Lock,328,,9.8,89,,,,,Calm,False,False,Linux,0.0.1,DJI FPV,37QBJ3G00B020K,3F2TJ1429200MP,37RBHB600B03LB,37WPJ3CAA10285,341.2,4.1,278.8,24.69358,14.092722,0,409,DJI FPV,37QBJ3G00B020K,3F2TJ1429200MP,37RBHB600B03LB,37WPHCPAA104CB,DJI Fly,Linux,0.0.1,EA20D610-F35C-36B4-B270-AD954241374F,37QBJ3G00B020K,3F2TJ1429200MP,3F2TJ1429200MP,37RBHB600B03LB,37WPHCPAA104CB,,,,,,
6/27/2025,3:34:43.95 AM,0m 8.6s,8.6,-7.2803499261497,112.791942590047,52.8,52.8,36.0,65,39.7,8.432403,9.195973,-7.82929,0,3.131716,3.131716,-5.816044,0,-15.7,-25.4,130.5,130.5,166.0,P-GPS,Other,,28,5,True,,DJI FPV,False,False,,Smart,RC,False,True,False,,,True,,False,False,False,False,False,False,False,False,False,False,0,Free,-0.9,-24.5,113.4,113.4,False,False,False,False,False,True,,True,Normal,100,100,993,1229,1314,473,2,False,False,False,False,False,0,False,False,False,False,84,22.904,1516,1816,23.104,False,3.812,3.816,3.807,3.817,3.82,3.832,0.144,False,False,10.9,95.7,95.7,111.3,,22,3,20,8,26359.0,3905.05,,Idle,,25,,5,,12,Go Home,False,False,False,False,False,False,False,False,False,False,False,False,-7.2802555161436,112.791974277307,36.3,28.6,1640.4,True,1,1,False,False,False,False,,True,False,False,Course Lock,328,,9.8,89,,,,,Calm,False,False,Linux,0.0.1,DJI FPV,37QBJ3G00B020K,3F2TJ1429200MP,37RBHB600B03LB,37WPJ3CAA10285,341.2,4.1,278.8,24.69358,14.092722,0,409,DJI FPV,37QBJ3G00B020K,3F2TJ1429200MP,37RBHB600B03LB,37WPHCPAA104CB,DJI Fly,Linux,0.0.1,EA20D610-F35C-36B4-B270-AD954241374F,37QBJ3G00B020K,3F2TJ1429200MP,3F2TJ1429200MP,37RBHB600B03LB,37WPHCPAA104CB,,,,,,
6/27/2025,3:34:44.15 AM,0m 8.8s,8.8,-7.280355915445,112.791945875413,54.4,54.4,36.0,67,42.2,8.105628,9.195973,-6.263432,0,5.144962,5.144962,-5.59235,0,-16.4,-25.2,115.6,115.6,151.4,P-GPS,Other,,28,5,True,,DJI FPV,False,False,,Smart,RC,False,True,False,,,True,,False,False,False,False,False,False,False,False,False,False,0,Free,-0.9,-24.5,98.3,98.3,False,False,False,False,False,True,,True,Normal,100,100,996,1214,1249,439,2,False,False,False,False,False,0,False,False,False,False,84,22.904,1516,1816,23.104,False,3.812,3.816,3.807,3.817,3.82,3.832,0.144,False,False,10.9,95.7,95.7,111.3,,22,3,20,8,26359.0,3905.05,,Idle,,25,,5,,12,Go Home,False,False,False,False,False,False,False,False,False,False,False,False,-7.2802555161436,112.791974277307,38.0,28.6,1640.4,True,1,1,False,False,False,False,,True,False,False,Course Lock,328,,9.8,89,,,,,Calm,False,False,Linux,0.0.1,DJI FPV,37QBJ3G00B020K,3F2TJ1429200MP,37RBHB600B03LB,37WPJ3CAA10285,341.2,4.1,278.8,24.69358,14.092722,0,409,DJI FPV,37QBJ3G00B020K,3F2TJ1429200MP,37RBHB600B03LB,37WPHCPAA104CB,DJI Fly,Linux,0.0.1,EA20D610-F35C-36B4-B270-AD954241374F,37QBJ3G00B020K,3F2TJ1429200MP,3F2TJ1429200MP,37RBHB600B03LB,37WPHCPAA104CB,,,,,Ambient light too low. Obstacle avoidance unavailable.,
6/27/2025,3:34:44.35 AM,0m 9.0s,9.0,-7.2803603305108,112.791950401587,56.1,56.1,36.0,69,44.5,7.880254,9.195973,-4.47388,0,6.487126,6.487126,-5.368656,0,-16.4,-25.6,99.6,99.6,134.5,P-GPS,Other,,28,5,True,,DJI FPV,False,False,,Smart,RC,False,True,False,,,True,,False,False,False,False,False,False,False,False,False,False,0,Free,-1.3,-26.1,80.1,80.1,False,False,False,False,False,True,,True,Normal,100,100,1009,1225,1193,412,2,False,False,False,False,False,0,False,False,False,False,84,23.082,1512,1816,23.104,False,3.842,3.849,3.841,3.847,3.848,3.855,0.144,False,False,8.512,95.7,95.7,111.3,,22,3,20,8,26359.0,3905.05,,Idle,,25,,5,,12,Go Home,False,False,False,False,False,False,False,False,False,False,False,False,-7.2802555161436,112.791974277307,39.2,28.6,1640.4,True,1,1,False,False,False,False,,True,False,False,Course Lock,328,,9.8,89,,,,,Calm,False,False,Linux,0.0.1,DJI FPV,37QBJ3G00B020K,3F2TJ1429200MP,37RBHB600B03LB,37WPJ3CAA10285,341.2,4.1,278.8,24.69358,14.092722,0,409,DJI FPV,37QBJ3G00B020K,3F2TJ1429200MP,37RBHB600B03LB,37WPHCPAA104CB,DJI Fly,Linux,0.0.1,EA20D610-F35C-36B4-B270-AD954241374F,37QBJ3G00B020K,3F2TJ1429200MP,3F2TJ1429200MP,37RBHB600B03LB,37WPHCPAA104CB,,,,,,
6/27/2025,3:34:44.55 AM,0m 9.2s,9.2,-7.2803638601734,112.791955426208,57.4,57.4,36.0,70,46.7,7.435933,9.195973,-2.684328,0,6.934514,6.934514,-4.026492,0,-19.6,-28.4,82.6,82.6,125.3,P-GPS,Other,,28,5,True,,DJI FPV,False,False,,Smart,RC,False,True,False,,,True,,False,False,False,False,False,False,False,False,False,False,0,Free,-1.4,-28.1,60.2,60.2,False,False,False,False,False,True,,True,Normal,100,100,1010,1238,1168,404,2,False,False,False,False,False,0,False,False,False,False,84,23.082,1512,1816,22.946,False,3.842,3.849,3.841,3.847,3.848,3.855,0.144,False,False,8.512,95.7,95.7,111.3,,26,3,20,8,30079.2,4456.19,,Idle,,25,,5,,12,Go Home,False,False,False,False,False,False,False,False,False,False,False,False,-7.2802555161436,112.791974277307,40.1,28.6,1640.4,True,1,1,False,False,False,False,,True,False,False,Course Lock,328,,9.8,89,,,,,Calm,False,False,Linux,0.0.1,DJI FPV,37QBJ3G00B020K,3F2TJ1429200MP,37RBHB600B03LB,37WPJ3CAA10285,341.2,4.1,278.8,24.69358,14.092722,0,409,DJI FPV,37QBJ3G00B020K,3F2TJ1429200MP,37RBHB600B03LB,37WPHCPAA104CB,DJI Fly,Linux,0.0.1,EA20D610-F35C-36B4-B270-AD954241374F,37QBJ3G00B020K,3F2TJ1429200MP,3F2TJ1429200MP,37RBHB600B03LB,37WPHCPAA104CB,,,,,,
