sep=,
CUSTOM.date [local],CUSTOM.updateTime [local],OSD.flyTime,OSD.flyTime [s],OSD.latitude,OSD.longitude,OSD.height [ft],OSD.heightMax [ft],OSD.vpsHeight [ft],OSD.altitude [ft],OSD.mileage [ft],OSD.hSpeed [MPH],OSD.hSpeedMax [MPH],OSD.xSpeed [MPH],OSD.xSpeedMax [MPH],OSD.ySpeed [MPH],OSD.ySpeedMax [MPH],OSD.zSpeed [MPH],OSD.zSpeedMax [MPH],OSD.pitch,OSD.roll,OSD.yaw,OSD.yaw [360],OSD.directionOfTravel,OSD.flycState,OSD.flycCommand,OSD.flightAction,OSD.gpsNum,OSD.gpsLevel,OSD.isGPSUsed,OSD.nonGPSCause,OSD.droneType,OSD.isSwaveWork,OSD.waveError,OSD.goHomeStatus,OSD.batteryType,OSD.ctrlDevice,OSD.isOnGround,OSD.isMotorOn,OSD.isMotorBlocked,OSD.motorStartFailedCause,OSD.motorFailReason,OSD.isImuPreheated,OSD.imuInitFailReason,OSD.isAcceletorOverRange,OSD.isBarometerDeadInAir,OSD.isCompassError,OSD.isGoHomeHeightModified,OSD.canIOCWork,OSD.isNotEnoughForce,OSD.isOutOfLimit,OSD.isPropellerCatapult,OSD.isVibrating,OSD.isVisionUsed,OSD.voltageWarning,GIMBAL.mode,GIMBAL.pitch,GIMBAL.roll,GIMBAL.yaw,GIMBAL.yaw [360],GIMBAL.isPitchAtLimit,GIMBAL.isRollAtLimit,GIMBAL.isYawAtLimit,GIMBAL.isStuck,CAMERA.isPhoto,CAMERA.isVideo,CAMERA.filename,CAMERA.sdCardIsInserted,CAMERA.sdCardState,RC.downlinkSignal,RC.uplinkSignal,RC.aileron,RC.elevator,RC.throttle,RC.rudder,RC.mode,RC.goHomeDepressed,RC.recordDepressed,RC.shutterDepressed,RC.playbackDepressed,RC.wheelDepressed,RC.wheelOffset,RC.custom1Depressed,RC.custom2Depressed,RC.custom3Depressed,RC.custom4Depressed,BATTERY.chargeLevel,BATTERY.currentPV [V],BATTERY.currentCapacity [mAh],BATTERY.fullCapacity [mAh],BATTERY.voltage [V],BATTERY.isCellVoltageEstimated,BATTERY.cellVoltage1 [V],BATTERY.cellVoltage2 [V],BATTERY.cellVoltage3 [V],BATTERY.cellVoltage4 [V],BATTERY.cellVoltage5 [V],BATTERY.cellVoltage6 [V],BATTERY.maxCellVoltageDeviation,BATTERY.isCellVoltageDeviationHigh,BATTERY.isVoltageLow,BATTERY.current [A],BATTERY.temperature [F],BATTERY.minTemperature [F],BATTERY.maxTemperature [F],BATTERY.usefulTime [s],BATTERY.goHomeTime [s],BATTERY.landTime [s],BATTERY.goHomeBattery,BATTERY.landBattery,BATTERY.safeFlyRadius,BATTERY.volumeConsume,BATTERY.status,BATTERY.goHomeStatus,BATTERY.goHomeCountdown,BATTERY.lowWarning,BATTERY.lowWarningGoHome,BATTERY.seriousLowWarning,BATTERY.seriousLowWarningLanding,BATTERY.timesCharged,MC.failSafeAction,MC.isObstacleAvoidanceEnabled,MC.isCollisionAvoidanceEnabled,MC.isRthObstacleAvoidanceEnabled,MC.isBraking,MC.isAvoidingObstacle,MC.isAvoidingActiveObstacle,MC.isAscentLimitedByObstacle,MC.isLandingConfirmationNeeded,MC.atLowAltitudeLimit,MC.atDistanceLimit,MC.atAirportAltitudeLimit,MC.atAirportBoundary,HOME.latitude,HOME.longitude,HOME.distance [ft],HOME.height [ft],HOME.heightLimit [ft],HOME.isHomeRecord,HOME.goHomeMode,HOME.aircraftHeadDirection,HOME.isDynamicHomePointEnabled,HOME.isReachedLimitDistance,HOME.isReachedLimitHeight,HOME.isCompassCalibrating,HOME.compassCalibrationState,HOME.isMultipleFlightModeEnabled,HOME.isBeginnerMode,HOME.isIOCEnabled,HOME.iocMode,HOME.goHomeHeight [ft],HOME.courseLockAngle,HOME.forceLandingHeight [ft],HOME.dataRecorderFileIndex,WEATHER.windDirection,WEATHER.windRelativeDirection,WEATHER.windSpeed [MPH],WEATHER.maxWindSpeed [MPH],WEATHER.windStrength,WEATHER.isFacingWind,WEATHER.isFlyingIntoWind,RECOVER.appType,RECOVER.appVersion,RECOVER.aircraftName,RECOVER.aircraftSerial,RECOVER.cameraSerial,RECOVER.rcSerial,RECOVER.batterySerial,DETAILS.totalTime [s],DETAILS.totalDistance [ft],DETAILS.maxHeight [ft],DETAILS.maxHorizontalSpeed [MPH],DETAILS.maxVerticalSpeed [MPH],DETAILS.photoNum,DETAILS.videoTime [s],DETAILS.aircraftName,DETAILS.aircraftSerial,DETAILS.cameraSerial,DETAILS.rcSerial,DETAILS.batterySerial,DETAILS.appName,DETAILS.appType,DETAILS.appVersion,DETAILS.guid,SERIAL.flightController,SERIAL.camera,SERIAL.gimbal,SERIAL.rc,SERIAL.battery,SERIAL.battery2,APPGPS.latitude,APPGPS.longitude,APPGPS.accuracy,APP.tip,APP.warning
6/27/2025,3:27:42.37 AM,0m 0.0s,0.0,-7.2802617936755,112.791942750595,0,0,,12,0,0,0,0,0,0,0,0,0,-12,2,-133,227,,Starting Motors,Drop Go Home,Takeoff (RC Assisted),21,5,True,,DJI FPV,False,False,,Smart,RC,True,True,False,,,True,,False,False,False,False,False,False,False,False,False,False,0,Free,0,2.2,-134.7,225.3,False,False,False,False,False,False,,True,Normal,100,100,364,364,364,1684,2,False,False,False,False,False,0,False,False,False,False,,,,,,True,,,,,,,,False,False,,,,,,,,,,,,,Idle,,,,,,12,Go Home,False,False,False,False,False,False,False,False,False,False,False,False,,,,,,False,,,False,False,False,False,,False,False,False,,,,,,,,,,Calm,False,False,Linux,0.0.1,DJI FPV,37QBJ3G00B020K,3F2TJ1429200MP,37RBHB600B03LB,37WPJ3CAA10285,228.2,4.5,232.9,29.972535,11.855782,0,1430,DJI FPV,37QBJ3G00B020K,3F2TJ1429200MP,37RBHB600B03LB,37WPJ3CAA10285,DJI Fly,Linux,0.0.1,7906D37D-D6E0-5396-2C2C-DDFB77D62633,37QBJ3G00B020K,3F2TJ1429200MP,3F2TJ1429200MP,37RBHB600B03LB,37WPJ3CAA10285,,,,,Motors starting.; Flight mode changed to Starting Motors.,Compass error.; Compass error. Fly with caution.
6/27/2025,3:27:42.57 AM,0m 0.2s,0.2,-7.2802625334319,112.791943268266,0,0,,12,0,0,0,0,0,0,0,0,0,-12,2,-133,227,,Starting Motors,Drop Go Home,Takeoff (RC Assisted),21,5,True,,DJI FPV,False,False,,Smart,RC,True,True,False,,,True,,False,False,False,False,False,False,False,False,False,False,0,Free,0,2.2,-134.6,225.4,False,False,False,False,False,False,,True,Normal,100,100,364,364,364,1684,2,False,False,False,False,False,0,False,False,False,False,,,,,,True,,,,,,,,False,False,,,,,,,,,,,,,Idle,,,,,,12,Go Home,False,False,False,False,False,False,False,False,False,False,False,False,,,,,,False,,,False,False,False,False,,False,False,False,,,,,,,,,,Calm,False,False,Linux,0.0.1,DJI FPV,37QBJ3G00B020K,3F2TJ1429200MP,37RBHB600B03LB,37WPJ3CAA10285,228.2,4.5,232.9,29.972535,11.855782,0,1430,DJI FPV,37QBJ3G00B020K,3F2TJ1429200MP,37RBHB600B03LB,37WPJ3CAA10285,DJI Fly,Linux,0.0.1,7906D37D-D6E0-5396-2C2C-DDFB77D62633,37QBJ3G00B020K,3F2TJ1429200MP,3F2TJ1429200MP,37RBHB600B03LB,37WPJ3CAA10285,,,,,,
6/27/2025,3:27:42.77 AM,0m 0.4s,0.4,-7.280262626182,112.791942840228,0,0,,12,0.1,0,0,0,0,0,0,0,0,-12,2,-133,227,,Starting Motors,Drop Go Home,Takeoff (RC Assisted),21,5,True,,DJI FPV,False,False,,Smart,RC,True,True,False,,,True,,False,False,False,False,False,False,False,False,False,False,0,Free,0,2.1,-134.7,225.3,False,False,False,False,False,False,,True,Normal,100,100,1021,1016,1019,1006,2,False,False,False,False,False,0,False,False,False,False,,,,,,True,,,,,,,,False,False,,,,,,,,,,,,,Idle,,,,,,12,Go Home,False,False,False,False,False,False,False,False,False,False,False,False,,,,,,False,,,False,False,False,False,,False,False,False,,,,,,,,,,Calm,False,False,Linux,0.0.1,DJI FPV,37QBJ3G00B020K,3F2TJ1429200MP,37RBHB600B03LB,37WPJ3CAA10285,228.2,4.5,232.9,29.972535,11.855782,0,1430,DJI FPV,37QBJ3G00B020K,3F2TJ1429200MP,37RBHB600B03LB,37WPJ3CAA10285,DJI Fly,Linux,0.0.1,7906D37D-D6E0-5396-2C2C-DDFB77D62633,37QBJ3G00B020K,3F2TJ1429200MP,3F2TJ1429200MP,37RBHB600B03LB,37WPJ3CAA10285,,,,,,
6/27/2025,3:27:42.97 AM,0m 0.6s,0.6,-7.280262929011,112.791942891421,0,0,,12,0.2,0,0,0,0,0,0,0,0,-12,2,-133,227,,Starting Motors,Drop Go Home,Takeoff (RC Assisted),21,5,True,,DJI FPV,False,False,,Smart,RC,True,True,False,,,True,,False,False,False,False,False,False,False,False,False,False,0,Free,0,2.1,-134.7,225.3,False,False,False,False,False,False,,True,Normal,100,100,1020,1017,1017,1006,2,False,False,False,False,False,0,False,False,False,False,,,,,,True,,,,,,,,False,False,,,,,,,,,,,,,Idle,,,,,,12,Go Home,False,False,False,False,False,False,False,False,False,False,False,False,,,,,,False,,,False,False,False,False,,False,False,False,,,,,,,,,,Calm,False,False,Linux,0.0.1,DJI FPV,37QBJ3G00B020K,3F2TJ1429200MP,37RBHB600B03LB,37WPJ3CAA10285,228.2,4.5,232.9,29.972535,11.855782,0,1430,DJI FPV,37QBJ3G00B020K,3F2TJ1429200MP,37RBHB600B03LB,37WPJ3CAA10285,DJI Fly,Linux,0.0.1,7906D37D-D6E0-5396-2C2C-DDFB77D62633,37QBJ3G00B020K,3F2TJ1429200MP,3F2TJ1429200MP,37RBHB600B03LB,37WPJ3CAA10285,,,,,,
6/27/2025,3:27:43.17 AM,0m 0.8s,0.8,-7.2802642789315,112.791943761491,0,0,,12,0.8,0,0,0,0,0,0,0,0,-12,2,-132.9,227.1,,Starting Motors,Drop Go Home,Takeoff (RC Assisted),21,5,True,,DJI FPV,False,False,,Smart,RC,True,True,False,,,True,,False,False,False,False,False,False,False,False,False,False,0,Free,0,2.1,-134.6,225.4,False,False,False,False,False,False,,True,Normal,100,100,1020,1017,1018,1006,2,False,False,False,False,False,0,False,False,False,False,57,,,,22.226,True,3.704,3.704,3.704,3.704,3.704,3.704,,False,False,,,,,,21,,16,5,6345.1,940.02,,Idle,,25,,5,,12,Go Home,False,False,False,False,False,False,False,False,False,False,False,False,-7.2803134598856,112.792006068388,28.8,38.6,1640.4,True,1,1,False,False,False,False,,True,False,False,Course Lock,328,,9.8,88,,,,,Calm,False,False,Linux,0.0.1,DJI FPV,37QBJ3G00B020K,3F2TJ1429200MP,37RBHB600B03LB,37WPJ3CAA10285,228.2,4.5,232.9,29.972535,11.855782,0,1430,DJI FPV,37QBJ3G00B020K,3F2TJ1429200MP,37RBHB600B03LB,37WPJ3CAA10285,DJI Fly,Linux,0.0.1,7906D37D-D6E0-5396-2C2C-DDFB77D62633,37QBJ3G00B020K,3F2TJ1429200MP,3F2TJ1429200MP,37RBHB600B03LB,37WPJ3CAA10285,,,,,Data Recorder File Index is 88.; Set Return to Home (RTH) altitude to 100 m (328 ft).; Set maximum flight altitude to 500 m (1640 ft).,
6/27/2025,3:27:43.37 AM,0m 1.0s,1.0,-7.2802641856203,112.79194381683,0,0,,12,0.8,0,0,0,0,0,0,0,0,-12,2,-132.9,227.1,,Starting Motors,Drop Go Home,Takeoff (RC Assisted),21,5,True,,DJI FPV,False,False,,Smart,RC,True,True,False,,,True,,False,False,False,False,False,False,False,False,False,False,0,Free,0,2.1,-134.7,225.3,False,False,False,False,False,False,,True,Normal,100,100,1020,1018,1017,1006,2,False,False,False,False,False,0,False,False,False,False,57,,,,22.226,True,3.704,3.704,3.704,3.704,3.704,3.704,,False,False,,,,,,21,,16,5,6345.1,940.02,,Idle,,25,,5,,12,Go Home,False,False,False,False,False,False,False,False,False,False,False,False,-7.2803134598856,112.792006068388,28.8,38.6,1640.4,True,1,1,False,False,False,False,,True,False,False,Course Lock,328,,9.8,88,,,,,Calm,False,False,Linux,0.0.1,DJI FPV,37QBJ3G00B020K,3F2TJ1429200MP,37RBHB600B03LB,37WPJ3CAA10285,228.2,4.5,232.9,29.972535,11.855782,0,1430,DJI FPV,37QBJ3G00B020K,3F2TJ1429200MP,37RBHB600B03LB,37WPJ3CAA10285,DJI Fly,Linux,0.0.1,7906D37D-D6E0-5396-2C2C-DDFB77D62633,37QBJ3G00B020K,3F2TJ1429200MP,3F2TJ1429200MP,37RBHB600B03LB,37WPJ3CAA10285,,,,,,
6/27/2025,3:27:43.57 AM,0m 1.2s,1.2,-7.2802651134556,112.791943811339,0,0,,12,1.2,0,0,0,0,0,0,0,0,-12,2,-132.9,227.1,,Starting Motors,Drop Go Home,Takeoff (RC Assisted),21,5,True,,DJI FPV,False,False,,Smart,RC,True,True,False,,,True,,False,False,False,False,False,False,False,False,False,False,0,Free,0,2.1,-134.7,225.3,False,False,False,False,False,False,,True,Normal,100,100,1021,1017,1018,1006,2,False,False,False,False,False,0,False,False,False,False,57,,,,22.226,True,3.704,3.704,3.704,3.704,3.704,3.704,,False,False,,,,,,21,,16,5,6345.1,940.02,,Idle,,25,,5,,12,Go Home,False,False,False,False,False,False,False,False,False,False,False,False,-7.2803134598856,112.792006068388,28.6,38.6,1640.4,True,1,1,False,False,False,False,,True,False,False,Course Lock,328,,9.8,88,,,,,Calm,False,False,Linux,0.0.1,DJI FPV,37QBJ3G00B020K,3F2TJ1429200MP,37RBHB600B03LB,37WPJ3CAA10285,228.2,4.5,232.9,29.972535,11.855782,0,1430,DJI FPV,37QBJ3G00B020K,3F2TJ1429200MP,37RBHB600B03LB,37WPJ3CAA10285,DJI Fly,Linux,0.0.1,7906D37D-D6E0-5396-2C2C-DDFB77D62633,37QBJ3G00B020K,3F2TJ1429200MP,3F2TJ1429200MP,37RBHB600B03LB,37WPJ3CAA10285,,,,,,
6/27/2025,3:27:43.77 AM,0m 1.4s,1.4,-7.2802656847343,112.791943586628,0,0,,12,1.4,0,0,0,0,0,0,0,0,-12,2,-132.9,227.1,,Manual Takeoff,Drop Go Home,Takeoff (RC Assisted),21,5,True,,DJI FPV,False,False,,Smart,RC,True,True,False,,,True,,False,False,False,False,False,False,False,False,False,False,0,Free,0,2.1,-134.6,225.4,False,False,False,False,False,True,,True,Normal,100,100,1020,1017,1017,1006,2,False,False,False,False,False,0,False,False,False,False,57,,,,22.226,True,3.704,3.704,3.704,3.704,3.704,3.704,,False,False,,,,,,21,,16,5,6345.1,940.02,,Idle,,25,,5,,12,Go Home,False,False,False,False,False,False,False,False,False,False,False,False,-7.2803134598856,112.792006068388,28.5,38.6,1640.4,True,1,1,False,False,False,False,,True,False,False,Course Lock,328,,9.8,88,,,,,Calm,False,False,Linux,0.0.1,DJI FPV,37QBJ3G00B020K,3F2TJ1429200MP,37RBHB600B03LB,37WPJ3CAA10285,228.2,4.5,232.9,29.972535,11.855782,0,1430,DJI FPV,37QBJ3G00B020K,3F2TJ1429200MP,37RBHB600B03LB,37WPJ3CAA10285,DJI Fly,Linux,0.0.1,7906D37D-D6E0-5396-2C2C-DDFB77D62633,37QBJ3G00B020K,3F2TJ1429200MP,3F2TJ1429200MP,37RBHB600B03LB,37WPJ3CAA10285,,,,,Motors starting.; Flight mode changed to Manual Takeoff.,Compass error.
6/27/2025,3:27:43.97 AM,0m 1.6s,1.6,-7.2802662825749,112.791943870562,0,0,,12,1.6,0,0,0,0,0,0,0,0,-12,2,-132.9,227.1,,Manual Takeoff,Drop Go Home,Takeoff (RC Assisted),21,5,True,,DJI FPV,False,False,,Smart,RC,True,True,False,,,True,,False,False,False,False,False,False,False,False,False,False,0,Free,0,2.1,-134.6,225.4,False,False,False,False,False,True,,True,Normal,100,100,1020,1017,1018,1006,2,False,False,False,False,False,0,False,False,False,False,57,,,,22.226,True,3.704,3.704,3.704,3.704,3.704,3.704,,False,False,,,,,,21,,16,5,6345.1,940.02,,Idle,,25,,5,,12,Go Home,False,False,False,False,False,False,False,False,False,False,False,False,-7.2803134598856,112.792006068388,28.3,38.6,1640.4,True,1,1,False,False,False,False,,True,False,False,Course Lock,328,,9.8,88,,,,,Calm,False,False,Linux,0.0.1,DJI FPV,37QBJ3G00B020K,3F2TJ1429200MP,37RBHB600B03LB,37WPJ3CAA10285,228.2,4.5,232.9,29.972535,11.855782,0,1430,DJI FPV,37QBJ3G00B020K,3F2TJ1429200MP,37RBHB600B03LB,37WPJ3CAA10285,DJI Fly,Linux,0.0.1,7906D37D-D6E0-5396-2C2C-DDFB77D62633,37QBJ3G00B020K,3F2TJ1429200MP,3F2TJ1429200MP,37RBHB600B03LB,37WPJ3CAA10285,,,,,,
6/27/2025,3:27:44.17 AM,0m 1.8s,1.8,-7.2802668066069,112.791943917398,0,0,,12,1.8,0,0,0,0,0,0,0,0,-12,2,-132.9,227.1,,Manual Takeoff,Drop Go Home,Takeoff (RC Assisted),21,5,True,,DJI FPV,False,False,,Smart,RC,True,True,False,,,True,,False,False,False,False,False,False,False,False,False,False,0,Free,0,2.1,-134.6,225.4,False,False,False,False,False,True,,True,Normal,100,100,1020,1018,1017,1006,2,False,False,False,False,False,0,False,False,False,False,57,,,,22.203,True,3.701,3.701,3.701,3.701,3.701,3.701,,False,False,,,,,,21,,16,5,6453.5,956.08,,Idle,,25,,5,,12,Go Home,False,False,False,False,False,False,False,False,False,False,False,False,-7.2803134598856,112.792006068388,28.2,38.6,1640.4,True,1,1,False,False,False,False,,True,False,False,Course Lock,328,,9.8,88,,,,,Calm,False,False,Linux,0.0.1,DJI FPV,37QBJ3G00B020K,3F2TJ1429200MP,37RBHB600B03LB,37WPJ3CAA10285,228.2,4.5,232.9,29.972535,11.855782,0,1430,DJI FPV,37QBJ3G00B020K,3F2TJ1429200MP,37RBHB600B03LB,37WPJ3CAA10285,DJI Fly,Linux,0.0.1,7906D37D-D6E0-5396-2C2C-DDFB77D62633,37QBJ3G00B020K,3F2TJ1429200MP,3F2TJ1429200MP,37RBHB600B03LB,37WPJ3CAA10285,,,,,,
6/27/2025,3:27:44.37 AM,0m 2.0s,2.0,-7.2802668357773,112.791943585253,0,0,,12,2.0,0,0,0,0,0,0,0,0,-12,2,-132.9,227.1,,Manual Takeoff,Drop Go Home,Takeoff (RC Assisted),21,5,True,,DJI FPV,False,False,,Smart,RC,True,True,False,,,True,,False,False,False,False,False,False,False,False,False,False,0,Free,0,2.1,-134.7,225.3,False,False,False,False,False,True,,True,Normal,100,100,1020,1018,1018,1006,2,False,False,False,False,False,0,False,False,False,False,57,,,,22.203,True,3.701,3.701,3.701,3.701,3.701,3.701,,False,False,,,,,,21,,16,5,6453.5,956.08,,Idle,,25,,5,,12,Go Home,False,False,False,False,False,False,False,False,False,False,False,False,-7.2803134598856,112.792006068388,28.2,38.6,1640.4,True,1,1,False,False,False,False,,True,False,False,Course Lock,328,,9.8,88,,,,,Calm,False,False,Linux,0.0.1,DJI FPV,37QBJ3G00B020K,3F2TJ1429200MP,37RBHB600B03LB,37WPJ3CAA10285,228.2,4.5,232.9,29.972535,11.855782,0,1430,DJI FPV,37QBJ3G00B020K,3F2TJ1429200MP,37RBHB600B03LB,37WPJ3CAA10285,DJI Fly,Linux,0.0.1,7906D37D-D6E0-5396-2C2C-DDFB77D62633,37QBJ3G00B020K,3F2TJ1429200MP,3F2TJ1429200MP,37RBHB600B03LB,37WPJ3CAA10285,,,,,,
6/27/2025,3:27:44.57 AM,0m 2.2s,2.2,-7.2802670999736,112.791943256055,0,0,,12,2.1,0,0,0,0,0,0,0,0,-12,2,-132.9,227.1,,Manual Takeoff,Drop Go Home,Takeoff (RC Assisted),21,5,True,,DJI FPV,False,False,,Smart,RC,True,True,False,,,True,,False,False,False,False,False,False,False,False,False,False,0,Free,0,2.1,-134.7,225.3,False,False,False,False,False,True,,True,Normal,100,100,1020,1018,1018,1006,2,False,False,False,False,False,0,False,False,False,False,57,,,,22.203,True,3.701,3.701,3.701,3.701,3.701,3.701,,False,False,,,,,,21,,16,5,6453.5,956.08,,Idle,,25,,5,,12,Go Home,False,False,False,False,False,False,False,False,False,False,False,False,-7.2803134598856,112.792006068388,28.3,38.6,1640.4,True,1,1,False,False,False,False,,True,False,False,Course Lock,328,,9.8,88,,,,,Calm,False,False,Linux,0.0.1,DJI FPV,37QBJ3G00B020K,3F2TJ1429200MP,37RBHB600B03LB,37WPJ3CAA10285,228.2,4.5,232.9,29.972535,11.855782,0,1430,DJI FPV,37QBJ3G00B020K,3F2TJ1429200MP,37RBHB600B03LB,37WPJ3CAA10285,DJI Fly,Linux,0.0.1,7906D37D-D6E0-5396-2C2C-DDFB77D62633,37QBJ3G00B020K,3F2TJ1429200MP,3F2TJ1429200MP,37RBHB600B03LB,37WPJ3CAA10285,,,,,,
6/27/2025,3:27:44.77 AM,0m 2.4s,2.4,-7.280267003998,112.791943274015,0,0,,12,2.1,0,0,0,0,0,0,0,0,-12,2,-132.9,227.1,,Manual Takeoff,Drop Go Home,Takeoff (RC Assisted),21,5,True,,DJI FPV,False,False,,Smart,RC,True,True,False,,,True,,False,False,False,False,False,False,False,False,False,False,0,Free,0,2.1,-134.7,225.3,False,False,False,False,False,True,,True,Normal,100,100,1021,1017,1017,1007,2,False,False,False,False,False,0,False,False,False,False,57,,,,22.203,True,3.701,3.701,3.701,3.701,3.701,3.701,,False,False,,,,,,21,,16,5,6453.5,956.08,,Idle,,25,,5,,12,Go Home,False,False,False,False,False,False,False,False,False,False,False,False,-7.2803134598856,112.792006068388,28.3,38.6,1640.4,True,1,1,False,False,False,False,,True,False,False,Course Lock,328,,9.8,88,,,,,Calm,False,False,Linux,0.0.1,DJI FPV,37QBJ3G00B020K,3F2TJ1429200MP,37RBHB600B03LB,37WPJ3CAA10285,228.2,4.5,232.9,29.972535,11.855782,0,1430,DJI FPV,37QBJ3G00B020K,3F2TJ1429200MP,37RBHB600B03LB,37WPJ3CAA10285,DJI Fly,Linux,0.0.1,7906D37D-D6E0-5396-2C2C-DDFB77D62633,37QBJ3G00B020K,3F2TJ1429200MP,3F2TJ1429200MP,37RBHB600B03LB,37WPJ3CAA10285,,,,,,
6/27/2025,3:27:44.97 AM,0m 2.6s,2.6,-7.2802669535815,112.79194345303,0,0,,12,2.2,0,0,0,0,0,0,0,0,-12,2,-132.9,227.1,,Manual Takeoff,Drop Go Home,Takeoff (RC Assisted),21,5,True,,DJI FPV,False,False,,Smart,RC,True,True,False,,,True,,False,False,False,False,False,False,False,False,False,False,0,Free,0,2.1,-134.7,225.3,False,False,False,False,False,True,,True,Normal,100,100,1021,1017,1017,1007,2,False,False,False,False,False,0,False,False,False,False,57,,,,22.203,True,3.701,3.701,3.701,3.701,3.701,3.701,,False,False,,,,,,21,,16,5,6453.5,956.08,,Idle,,25,,5,,12,Go Home,False,False,False,False,False,False,False,False,False,False,False,False,-7.2803134598856,112.792006068388,28.3,38.6,1640.4,True,1,1,False,False,False,False,,True,False,False,Course Lock,328,,9.8,88,,,,,Calm,False,False,Linux,0.0.1,DJI FPV,37QBJ3G00B020K,3F2TJ1429200MP,37RBHB600B03LB,37WPJ3CAA10285,228.2,4.5,232.9,29.972535,11.855782,0,1430,DJI FPV,37QBJ3G00B020K,3F2TJ1429200MP,37RBHB600B03LB,37WPJ3CAA10285,DJI Fly,Linux,0.0.1,7906D37D-D6E0-5396-2C2C-DDFB77D62633,37QBJ3G00B020K,3F2TJ1429200MP,3F2TJ1429200MP,37RBHB600B03LB,37WPJ3CAA10285,,,,,,
6/27/2025,3:27:45.17 AM,0m 2.8s,2.8,-7.2802669499149,112.791943608691,0,0,,12,2.3,0,0,0,0,0,0,0,0,-12.1,2,-132.8,227.2,,Manual Takeoff,Drop Go Home,Takeoff (RC Assisted),21,5,True,,DJI FPV,False,False,,Smart,RC,True,True,False,,,True,,False,False,False,False,False,False,False,False,False,False,0,Free,0,2.1,-134.6,225.4,False,False,False,False,False,True,,True,Normal,100,100,1021,1017,1017,1007,2,False,False,False,False,False,0,False,False,False,False,57,,,,22.192,True,3.699,3.699,3.699,3.699,3.699,3.699,,False,False,,,,,,21,,16,5,6694.7,991.81,,Idle,,25,,5,,12,Go Home,False,False,False,False,False,False,False,False,False,False,False,False,-7.2803134598856,112.792006068388,28.2,38.6,1640.4,True,1,1,False,False,False,False,,True,False,False,Course Lock,328,,9.8,88,,,,,Calm,False,False,Linux,0.0.1,DJI FPV,37QBJ3G00B020K,3F2TJ1429200MP,37RBHB600B03LB,37WPJ3CAA10285,228.2,4.5,232.9,29.972535,11.855782,0,1430,DJI FPV,37QBJ3G00B020K,3F2TJ1429200MP,37RBHB600B03LB,37WPJ3CAA10285,DJI Fly,Linux,0.0.1,7906D37D-D6E0-5396-2C2C-DDFB77D62633,37QBJ3G00B020K,3F2TJ1429200MP,3F2TJ1429200MP,37RBHB600B03LB,37WPJ3CAA10285,,,,,,
6/27/2025,3:27:45.37 AM,0m 3.0s,3.0,-7.2802671661448,112.791944276462,0,0,,12,2.5,0,0,0,0,0,0,0,0,-12,2,-132.8,227.2,,Manual Takeoff,Drop Go Home,Takeoff (RC Assisted),21,5,True,,DJI FPV,False,False,,Smart,RC,True,True,False,,,True,,False,False,False,False,False,False,False,False,False,False,0,Free,0,2,-134.6,225.4,False,False,False,False,False,True,,True,Normal,100,100,1021,1018,1018,1006,2,False,False,False,False,False,0,False,False,False,False,57,22.185,1004,1776,22.192,False,3.699,3.694,3.697,3.698,3.698,3.699,0.005,False,False,1.548,103.3,103.2,103.2,,21,,16,5,6694.7,991.81,,Idle,,25,,5,,12,Go Home,False,False,False,False,False,False,False,False,False,False,False,False,-7.2803134598856,112.792006068388,28.0,38.6,1640.4,True,1,1,False,False,False,False,,True,False,False,Course Lock,328,,9.8,88,,,,,Calm,False,False,Linux,0.0.1,DJI FPV,37QBJ3G00B020K,3F2TJ1429200MP,37RBHB600B03LB,37WPJ3CAA10285,228.2,4.5,232.9,29.972535,11.855782,0,1430,DJI FPV,37QBJ3G00B020K,3F2TJ1429200MP,37RBHB600B03LB,37WPJ3CAA10285,DJI Fly,Linux,0.0.1,7906D37D-D6E0-5396-2C2C-DDFB77D62633,37QBJ3G00B020K,3F2TJ1429200MP,3F2TJ1429200MP,37RBHB600B03LB,37WPJ3CAA10285,,,,,,
6/27/2025,3:27:45.57 AM,0m 3.2s,3.2,-7.2802674107142,112.791944892743,0,0,,12,2.8,0,0,0,0,0,0,0,0,-12,2,-132.8,227.2,,Manual Takeoff,Drop Go Home,Takeoff (RC Assisted),21,5,True,,DJI FPV,False,False,,Smart,RC,True,True,False,,,True,,False,False,False,False,False,False,False,False,False,False,0,Free,0,2,-134.7,225.3,False,False,False,False,False,True,,True,Normal,100,100,1021,1018,1018,1007,2,False,False,False,False,False,0,False,False,False,False,57,22.185,1004,1776,22.192,False,3.699,3.694,3.697,3.698,3.698,3.699,0.005,False,False,1.548,103.3,103.2,103.2,,21,,16,5,6694.7,991.81,,Idle,,25,,5,,12,Go Home,False,False,False,False,False,False,False,False,False,False,False,False,-7.2803134598856,112.792006068388,27.7,38.6,1640.4,True,1,1,False,False,False,False,,True,False,False,Course Lock,328,,9.8,88,,,,,Calm,False,False,Linux,0.0.1,DJI FPV,37QBJ3G00B020K,3F2TJ1429200MP,37RBHB600B03LB,37WPJ3CAA10285,228.2,4.5,232.9,29.972535,11.855782,0,1430,DJI FPV,37QBJ3G00B020K,3F2TJ1429200MP,37RBHB600B03LB,37WPJ3CAA10285,DJI Fly,Linux,0.0.1,7906D37D-D6E0-5396-2C2C-DDFB77D62633,37QBJ3G00B020K,3F2TJ1429200MP,3F2TJ1429200MP,37RBHB600B03LB,37WPJ3CAA10285,,,,,,
6/27/2025,3:27:45.77 AM,0m 3.4s,3.4,-7.2802673170131,112.791945624077,0,0,,12,3.0,0,0,0,0,0,0,0,0,-12,2,-132.8,227.2,,Manual Takeoff,Drop Go Home,Takeoff (RC Assisted),21,5,True,,DJI FPV,False,False,,Smart,RC,True,True,False,,,True,,False,False,False,False,False,False,False,False,False,False,0,Free,0,2,-134.7,225.3,False,False,False,False,False,True,,True,Normal,100,100,1021,1018,1018,1006,2,False,False,False,False,False,0,False,False,False,False,57,22.185,1004,1776,22.192,False,3.699,3.694,3.697,3.698,3.698,3.699,0.005,False,False,1.548,103.3,103.2,103.2,,21,,16,5,6694.7,991.81,,Idle,,25,,5,,12,Go Home,False,False,False,False,False,False,False,False,False,False,False,False,-7.2803134598856,112.792006068388,27.6,38.6,1640.4,True,1,1,False,False,False,False,,True,False,False,Course Lock,328,,9.8,88,,,,,Calm,False,False,Linux,0.0.1,DJI FPV,37QBJ3G00B020K,3F2TJ1429200MP,37RBHB600B03LB,37WPJ3CAA10285,228.2,4.5,232.9,29.972535,11.855782,0,1430,DJI FPV,37QBJ3G00B020K,3F2TJ1429200MP,37RBHB600B03LB,37WPJ3CAA10285,DJI Fly,Linux,0.0.1,7906D37D-D6E0-5396-2C2C-DDFB77D62633,37QBJ3G00B020K,3F2TJ1429200MP,3F2TJ1429200MP,37RBHB600B03LB,37WPJ3CAA10285,,,,,,
6/27/2025,3:27:45.97 AM,0m 3.6s,3.6,-7.2802674565731,112.791946159276,0,0,,12,3.2,0,0,0,0,0,0,0,0,-12.1,2,-132.8,227.2,,Manual Takeoff,Drop Go Home,Takeoff (RC Assisted),21,5,True,,DJI FPV,False,False,,Smart,RC,True,True,False,,,True,,False,False,False,False,False,False,False,False,False,False,0,Free,0,2,-134.6,225.4,False,False,False,False,False,True,,True,Normal,100,100,1021,1017,1017,1006,2,False,False,False,False,False,0,False,False,False,False,57,22.185,1004,1776,22.192,False,3.699,3.694,3.697,3.698,3.698,3.699,0.005,False,False,1.548,103.3,103.2,103.2,,21,,16,5,6694.7,991.81,,Idle,,25,,5,,12,Go Home,False,False,False,False,False,False,False,False,False,False,False,False,-7.2803134598856,112.792006068388,27.4,38.6,1640.4,True,1,1,False,False,False,False,,True,False,False,Course Lock,328,,9.8,88,,,,,Calm,False,False,Linux,0.0.1,DJI FPV,37QBJ3G00B020K,3F2TJ1429200MP,37RBHB600B03LB,37WPJ3CAA10285,228.2,4.5,232.9,29.972535,11.855782,0,1430,DJI FPV,37QBJ3G00B020K,3F2TJ1429200MP,37RBHB600B03LB,37WPJ3CAA10285,DJI Fly,Linux,0.0.1,7906D37D-D6E0-5396-2C2C-DDFB77D62633,37QBJ3G00B020K,3F2TJ1429200MP,3F2TJ1429200MP,37RBHB600B03LB,37WPJ3CAA10285,,,,,,
6/27/2025,3:27:46.17 AM,0m 3.8s,3.8,-7.2802676118662,112.791946283849,0,0,,12,3.3,0,0,0,0,0,0,0,0,-12.1,2,-132.8,227.2,,Manual Takeoff,Drop Go Home,Takeoff (RC Assisted),21,5,True,,DJI FPV,False,False,,Smart,RC,True,True,False,,,True,,False,False,False,False,False,False,False,False,False,False,0,Free,0,2,-134.6,225.4,False,False,False,False,False,True,,True,Normal,100,100,1020,1018,1017,1007,2,False,False,False,False,False,0,False,False,False,False,57,22.185,1004,1776,22.185,False,3.699,3.694,3.697,3.698,3.698,3.699,0.005,False,False,1.548,103.3,103.2,103.2,,20,,16,5,6984.0,1034.67,,Idle,,25,,5,,12,Go Home,False,False,False,False,False,False,False,False,False,False,False,False,-7.2803134598856,112.792006068388,27.3,38.6,1640.4,True,1,1,False,False,False,False,,True,False,False,Course Lock,328,,9.8,88,,,,,Calm,False,False,Linux,0.0.1,DJI FPV,37QBJ3G00B020K,3F2TJ1429200MP,37RBHB600B03LB,37WPJ3CAA10285,228.2,4.5,232.9,29.972535,11.855782,0,1430,DJI FPV,37QBJ3G00B020K,3F2TJ1429200MP,37RBHB600B03LB,37WPJ3CAA10285,DJI Fly,Linux,0.0.1,7906D37D-D6E0-5396-2C2C-DDFB77D62633,37QBJ3G00B020K,3F2TJ1429200MP,3F2TJ1429200MP,37RBHB600B03LB,37WPJ3CAA10285,,,,,,
6/27/2025,3:27:46.37 AM,0m 4.0s,4.0,-7.2802677866192,112.791946398458,0,0,,12,3.4,0,0,0,0,0,0,0,0,-12.1,2,-132.8,227.2,,Manual Takeoff,Drop Go Home,Takeoff (RC Assisted),21,5,True,,DJI FPV,False,False,,Smart,RC,True,True,False,,,True,,False,False,False,False,False,False,False,False,False,False,0,Free,0,2,-134.6,225.4,False,False,False,False,False,True,,True,Normal,100,100,1021,1018,1017,1006,2,False,False,False,False,False,0,False,False,False,False,57,22.181,1000,1776,22.185,False,3.698,3.693,3.696,3.698,3.698,3.698,0.005,False,False,1.56,103.3,103.2,103.2,,20,,16,5,6984.0,1034.67,,Idle,,25,,5,,12,Go Home,False,False,False,False,False,False,False,False,False,False,False,False,-7.2803134598856,112.792006068388,27.2,38.6,1640.4,True,1,1,False,False,False,False,,True,False,False,Course Lock,328,,9.8,88,,,,,Calm,False,False,Linux,0.0.1,DJI FPV,37QBJ3G00B020K,3F2TJ1429200MP,37RBHB600B03LB,37WPJ3CAA10285,228.2,4.5,232.9,29.972535,11.855782,0,1430,DJI FPV,37QBJ3G00B020K,3F2TJ1429200MP,37RBHB600B03LB,37WPJ3CAA10285,DJI Fly,Linux,0.0.1,7906D37D-D6E0-5396-2C2C-DDFB77D62633,37QBJ3G00B020K,3F2TJ1429200MP,3F2TJ1429200MP,37RBHB600B03LB,37WPJ3CAA10285,,,,,,
6/27/2025,3:27:46.57 AM,0m 4.2s,4.2,-7.2802678020911,112.791946339998,0,0,,12,3.4,0,0,0,0,0,0,0,0,-12,2,-132.8,227.2,,Manual Takeoff,Drop Go Home,Takeoff (RC Assisted),21,5,True,,DJI FPV,False,False,,Smart,RC,True,True,False,,,True,,False,False,False,False,False,False,False,False,False,False,0,Free,0,2,-134.6,225.4,False,False,False,False,False,True,,True,Normal,100,100,1021,1017,1018,1006,2,False,False,False,False,False,0,False,False,False,False,57,22.181,1000,1776,22.185,False,3.698,3.693,3.696,3.698,3.698,3.698,0.005,False,False,1.56,103.3,103.2,103.2,,20,,16,5,6984.0,1034.67,,Idle,,25,,5,,12,Go Home,False,False,False,False,False,False,False,False,False,False,False,False,-7.2803134598856,112.792006068388,27.2,38.6,1640.4,True,1,1,False,False,False,False,,True,False,False,Course Lock,328,,9.8,88,,,,,Calm,False,False,Linux,0.0.1,DJI FPV,37QBJ3G00B020K,3F2TJ1429200MP,37RBHB600B03LB,37WPJ3CAA10285,228.2,4.5,232.9,29.972535,11.855782,0,1430,DJI FPV,37QBJ3G00B020K,3F2TJ1429200MP,37RBHB600B03LB,37WPJ3CAA10285,DJI Fly,Linux,0.0.1,7906D37D-D6E0-5396-2C2C-DDFB77D62633,37QBJ3G00B020K,3F2TJ1429200MP,3F2TJ1429200MP,37RBHB600B03LB,37WPJ3CAA10285,,,,,,
6/27/2025,3:27:46.77 AM,0m 4.4s,4.4,-7.2802678395244,112.791946277895,0,0,,12,3.4,0,0,0,0,0,0,0,0,-12.1,2,-132.8,227.2,,Manual Takeoff,Drop Go Home,Takeoff (RC Assisted),21,5,True,,DJI FPV,False,False,,Smart,RC,True,True,False,,,True,,False,False,False,False,False,False,False,False,False,False,0,Free,0,2,-134.6,225.4,False,False,False,False,False,True,,True,Normal,100,100,1021,1018,1017,1007,2,False,False,False,False,False,0,False,False,False,False,57,22.181,1000,1776,22.185,False,3.698,3.693,3.696,3.698,3.698,3.698,0.005,False,False,1.56,103.3,103.2,103.2,,20,,16,5,6984.0,1034.67,,Idle,,25,,5,,12,Go Home,False,False,False,False,False,False,False,False,False,False,False,False,-7.2803134598856,112.792006068388,27.2,38.6,1640.4,True,1,1,False,False,False,False,,True,False,False,Course Lock,328,,9.8,88,,,,,Calm,False,False,Linux,0.0.1,DJI FPV,37QBJ3G00B020K,3F2TJ1429200MP,37RBHB600B03LB,37WPJ3CAA10285,228.2,4.5,232.9,29.972535,11.855782,0,1430,DJI FPV,37QBJ3G00B020K,3F2TJ1429200MP,37RBHB600B03LB,37WPJ3CAA10285,DJI Fly,Linux,0.0.1,7906D37D-D6E0-5396-2C2C-DDFB77D62633,37QBJ3G00B020K,3F2TJ1429200MP,3F2TJ1429200MP,37RBHB600B03LB,37WPJ3CAA10285,,,,,,
6/27/2025,3:27:46.97 AM,0m 4.6s,4.6,-7.2802679017205,112.791946425015,0,0,,12,3.5,0,0,0,0,0,0,0,0,-12.1,2,-132.8,227.2,,Manual Takeoff,Drop Go Home,Takeoff (RC Assisted),21,5,True,,DJI FPV,False,False,,Smart,RC,True,True,False,,,True,,False,False,False,False,False,False,False,False,False,False,0,Free,0,2,-134.6,225.4,False,False,False,False,False,True,,True,Normal,100,100,1020,1017,1017,1007,2,False,False,False,False,False,0,False,False,False,False,57,22.181,1000,1776,22.185,False,3.698,3.693,3.696,3.698,3.698,3.698,0.005,False,False,1.56,103.3,103.2,103.2,,20,,16,5,6984.0,1034.67,,Idle,,25,,5,,12,Go Home,False,False,False,False,False,False,False,False,False,False,False,False,-7.2803134598856,112.792006068388,27.2,38.6,1640.4,True,1,1,False,False,False,False,,True,False,False,Course Lock,328,,9.8,88,,,,,Calm,False,False,Linux,0.0.1,DJI FPV,37QBJ3G00B020K,3F2TJ1429200MP,37RBHB600B03LB,37WPJ3CAA10285,228.2,4.5,232.9,29.972535,11.855782,0,1430,DJI FPV,37QBJ3G00B020K,3F2TJ1429200MP,37RBHB600B03LB,37WPJ3CAA10285,DJI Fly,Linux,0.0.1,7906D37D-D6E0-5396-2C2C-DDFB77D62633,37QBJ3G00B020K,3F2TJ1429200MP,3F2TJ1429200MP,37RBHB600B03LB,37WPJ3CAA10285,,,,,,
6/27/2025,3:27:47.17 AM,0m 4.8s,4.8,-7.2802679808749,112.791946593002,0,0,,12,3.6,0,0,0,0,0,0,0,0,-12.1,2,-132.8,227.2,,Manual Takeoff,Drop Go Home,Takeoff (RC Assisted),20,5,True,,DJI FPV,False,False,,Smart,RC,True,True,False,,,True,,False,False,False,False,False,False,False,False,False,False,0,Free,0,2,-134.6,225.4,False,False,False,False,False,True,,True,Normal,100,100,1021,1018,1017,1007,2,False,False,False,False,False,0,False,False,False,False,57,22.181,1000,1776,22.179,False,3.698,3.693,3.696,3.698,3.698,3.698,0.005,False,False,1.56,103.3,103.2,103.2,,20,,16,5,7298.3,1081.23,,Idle,,25,,5,,12,Go Home,False,False,False,False,False,False,False,False,False,False,False,False,-7.2803134598856,112.792006068388,27.1,38.6,1640.4,True,1,1,False,False,False,False,,True,False,False,Course Lock,328,,9.8,88,,,,,Calm,False,False,Linux,0.0.1,DJI FPV,37QBJ3G00B020K,3F2TJ1429200MP,37RBHB600B03LB,37WPJ3CAA10285,228.2,4.5,232.9,29.972535,11.855782,0,1430,DJI FPV,37QBJ3G00B020K,3F2TJ1429200MP,37RBHB600B03LB,37WPJ3CAA10285,DJI Fly,Linux,0.0.1,7906D37D-D6E0-5396-2C2C-DDFB77D62633,37QBJ3G00B020K,3F2TJ1429200MP,3F2TJ1429200MP,37RBHB600B03LB,37WPJ3CAA10285,,,,,,
6/27/2025,3:27:47.37 AM,0m 5.0s,5.0,-7.2802680710292,112.791946740463,0,0,,12,3.6,0,0,0,0,0,0,0,0,-12.1,2,-132.7,227.3,,Manual Takeoff,Drop Go Home,Takeoff (RC Assisted),20,5,True,,DJI FPV,False,False,,Smart,RC,True,True,False,,,True,,False,False,False,False,False,False,False,False,False,False,0,Free,0,2,-134.6,225.4,False,False,False,False,False,True,,True,Normal,100,100,1020,1018,1016,1006,2,False,False,False,False,False,0,False,False,False,False,57,22.178,1000,1776,22.179,False,3.697,3.693,3.696,3.697,3.697,3.698,0.005,False,False,1.556,103.3,103.2,103.2,,20,,16,5,7298.3,1081.23,,Idle,,25,,5,,12,Go Home,False,False,False,False,False,False,False,False,False,False,False,False,-7.2803134598856,112.792006068388,27.1,38.6,1640.4,True,1,1,False,False,False,False,,True,False,False,Course Lock,328,,9.8,88,,,,,Calm,False,False,Linux,0.0.1,DJI FPV,37QBJ3G00B020K,3F2TJ1429200MP,37RBHB600B03LB,37WPJ3CAA10285,228.2,4.5,232.9,29.972535,11.855782,0,1430,DJI FPV,37QBJ3G00B020K,3F2TJ1429200MP,37RBHB600B03LB,37WPJ3CAA10285,DJI Fly,Linux,0.0.1,7906D37D-D6E0-5396-2C2C-DDFB77D62633,37QBJ3G00B020K,3F2TJ1429200MP,3F2TJ1429200MP,37RBHB600B03LB,37WPJ3CAA10285,,,,,,
6/27/2025,3:27:47.57 AM,0m 5.2s,5.2,-7.2802681718323,112.791946919938,0,0,,12,3.7,0,0,0,0,0,0,0,0,-12.1,2,-132.7,227.3,,Manual Takeoff,Drop Go Home,Takeoff (RC Assisted),21,5,True,,DJI FPV,False,False,,Smart,RC,True,True,False,,,True,,False,False,False,False,False,False,False,False,False,False,0,Free,0,2,-134.6,225.4,False,False,False,False,False,True,,True,Normal,100,100,1020,1018,1017,1006,2,False,False,False,False,False,0,False,False,False,False,57,22.178,1000,1776,22.179,False,3.697,3.693,3.696,3.697,3.697,3.698,0.005,False,False,1.556,103.3,103.2,103.2,,20,,16,5,7298.3,1081.23,,Idle,,25,,5,,12,Go Home,False,False,False,False,False,False,False,False,False,False,False,False,-7.2803134598856,112.792006068388,27.0,38.6,1640.4,True,1,1,False,False,False,False,,True,False,False,Course Lock,328,,9.8,88,,,,,Calm,False,False,Linux,0.0.1,DJI FPV,37QBJ3G00B020K,3F2TJ1429200MP,37RBHB600B03LB,37WPJ3CAA10285,228.2,4.5,232.9,29.972535,11.855782,0,1430,DJI FPV,37QBJ3G00B020K,3F2TJ1429200MP,37RBHB600B03LB,37WPJ3CAA10285,DJI Fly,Linux,0.0.1,7906D37D-D6E0-5396-2C2C-DDFB77D62633,37QBJ3G00B020K,3F2TJ1429200MP,3F2TJ1429200MP,37RBHB600B03LB,37WPJ3CAA10285,,,,,,
6/27/2025,3:27:47.77 AM,0m 5.4s,5.4,-7.2802682809282,112.791947260234,0,0,,12,3.8,0,0,0,0,0,0,0,0,-12.1,2,-132.7,227.3,,Manual Takeoff,Drop Go Home,Takeoff (RC Assisted),21,5,True,,DJI FPV,False,False,,Smart,RC,True,True,False,,,True,,False,False,False,False,False,False,False,False,False,False,0,Free,0,2,-134.6,225.4,False,False,False,False,False,True,,True,Normal,100,100,1021,1018,1017,1006,2,False,False,False,False,False,0,False,False,False,False,57,22.178,1000,1776,22.179,False,3.697,3.693,3.696,3.697,3.697,3.698,0.005,False,False,1.556,103.3,103.2,103.2,,20,,16,5,7298.3,1081.23,,Idle,,25,,5,,12,Go Home,False,False,False,False,False,False,False,False,False,False,False,False,-7.2803134598856,112.792006068388,26.9,38.6,1640.4,True,1,1,False,False,False,False,,True,False,False,Course Lock,328,,9.8,88,,,,,Calm,False,False,Linux,0.0.1,DJI FPV,37QBJ3G00B020K,3F2TJ1429200MP,37RBHB600B03LB,37WPJ3CAA10285,228.2,4.5,232.9,29.972535,11.855782,0,1430,DJI FPV,37QBJ3G00B020K,3F2TJ1429200MP,37RBHB600B03LB,37WPJ3CAA10285,DJI Fly,Linux,0.0.1,7906D37D-D6E0-5396-2C2C-DDFB77D62633,37QBJ3G00B020K,3F2TJ1429200MP,3F2TJ1429200MP,37RBHB600B03LB,37WPJ3CAA10285,,,,,,
6/27/2025,3:27:47.97 AM,0m 5.6s,5.6,-7.2802684005614,112.791947427048,0,0,,12,3.9,0,0,0,0,0,0,0,0,-12.1,2,-132.7,227.3,,Manual Takeoff,Drop Go Home,Takeoff (RC Assisted),20,5,True,,DJI FPV,False,False,,Smart,RC,True,True,False,,,True,,False,False,False,False,False,False,False,False,False,False,0,Free,0,2,-134.6,225.4,False,False,False,False,False,True,,True,Normal,100,100,1021,1017,1017,1007,2,False,False,False,False,False,0,False,False,False,False,57,22.178,1000,1776,22.179,False,3.697,3.693,3.696,3.697,3.697,3.698,0.005,False,False,1.556,103.3,103.2,103.2,,20,,16,5,7298.3,1081.23,,Idle,,25,,5,,12,Go Home,False,False,False,False,False,False,False,False,False,False,False,False,-7.2803134598856,112.792006068388,26.8,38.6,1640.4,True,1,1,False,False,False,False,,True,False,False,Course Lock,328,,9.8,88,,,,,Calm,False,False,Linux,0.0.1,DJI FPV,37QBJ3G00B020K,3F2TJ1429200MP,37RBHB600B03LB,37WPJ3CAA10285,228.2,4.5,232.9,29.972535,11.855782,0,1430,DJI FPV,37QBJ3G00B020K,3F2TJ1429200MP,37RBHB600B03LB,37WPJ3CAA10285,DJI Fly,Linux,0.0.1,7906D37D-D6E0-5396-2C2C-DDFB77D62633,37QBJ3G00B020K,3F2TJ1429200MP,3F2TJ1429200MP,37RBHB600B03LB,37WPJ3CAA10285,,,,,,
6/27/2025,3:27:48.17 AM,0m 5.8s,5.8,-7.2802683469879,112.791947600112,0,0,,12,4.0,0,0,0,0,0,0,0,0,-12.1,2,-132.7,227.3,,Manual Takeoff,Drop Go Home,Takeoff (RC Assisted),20,5,True,,DJI FPV,False,False,,Smart,RC,True,True,False,,,True,,False,False,False,False,False,False,False,False,False,False,0,Free,0,2,-134.6,225.4,False,False,False,False,False,True,,True,Normal,100,100,1021,1017,1017,1006,2,False,False,False,False,False,0,False,False,False,False,57,22.178,1000,1776,22.176,False,3.697,3.693,3.696,3.697,3.697,3.698,0.005,False,False,1.556,103.3,103.2,103.2,,20,,16,5,7587.9,1124.14,,Idle,,25,,5,,12,Go Home,False,False,False,False,False,False,False,False,False,False,False,False,-7.2803134598856,112.792006068388,26.8,38.6,1640.4,True,1,1,False,False,False,False,,True,False,False,Course Lock,328,,9.8,88,,,,,Calm,False,False,Linux,0.0.1,DJI FPV,37QBJ3G00B020K,3F2TJ1429200MP,37RBHB600B03LB,37WPJ3CAA10285,228.2,4.5,232.9,29.972535,11.855782,0,1430,DJI FPV,37QBJ3G00B020K,3F2TJ1429200MP,37RBHB600B03LB,37WPJ3CAA10285,DJI Fly,Linux,0.0.1,7906D37D-D6E0-5396-2C2C-DDFB77D62633,37QBJ3G00B020K,3F2TJ1429200MP,3F2TJ1429200MP,37RBHB600B03LB,37WPJ3CAA10285,,,,,,
6/27/2025,3:27:48.37 AM,0m 6.0s,6.0,-7.2802684823586,112.791947786892,0,0,,12,4.0,0,0,0,0,0,0,0,0,-12.1,2,-132.7,227.3,,Manual Takeoff,Drop Go Home,Takeoff (RC Assisted),20,5,True,,DJI FPV,False,False,,Smart,RC,True,True,False,,,True,,False,False,False,False,False,False,False,False,False,False,0,Free,0,2,-134.6,225.4,False,False,False,False,False,True,,True,Normal,100,100,1021,1017,1017,1007,2,False,False,False,False,False,0,False,False,False,False,57,22.175,1000,1776,22.176,False,3.696,3.692,3.695,3.697,3.697,3.698,0.006,False,False,1.552,103.3,103.2,103.2,,20,,16,5,7587.9,1124.14,,Idle,,25,,5,,12,Go Home,False,False,False,False,False,False,False,False,False,False,False,False,-7.2803134598856,112.792006068388,26.7,38.6,1640.4,True,1,1,False,False,False,False,,True,False,False,Course Lock,328,,9.8,88,,,,,Calm,False,False,Linux,0.0.1,DJI FPV,37QBJ3G00B020K,3F2TJ1429200MP,37RBHB600B03LB,37WPJ3CAA10285,228.2,4.5,232.9,29.972535,11.855782,0,1430,DJI FPV,37QBJ3G00B020K,3F2TJ1429200MP,37RBHB600B03LB,37WPJ3CAA10285,DJI Fly,Linux,0.0.1,7906D37D-D6E0-5396-2C2C-DDFB77D62633,37QBJ3G00B020K,3F2TJ1429200MP,3F2TJ1429200MP,37RBHB600B03LB,37WPJ3CAA10285,,,,,,
6/27/2025,3:27:48.57 AM,0m 6.2s,6.2,-7.2802684396738,112.791947965968,0,0,,12,4.1,0,0,0,0,0,0,0,0,-12.1,2,-132.7,227.3,,Manual Takeoff,Drop Go Home,Takeoff (RC Assisted),20,5,True,,DJI FPV,False,False,,Smart,RC,True,True,False,,,True,,False,False,False,False,False,False,False,False,False,False,0,Free,0,2,-134.6,225.4,False,False,False,False,False,True,,True,Normal,100,100,1020,1017,1017,1006,2,False,False,False,False,False,0,False,False,False,False,57,22.175,1000,1776,22.176,False,3.696,3.692,3.695,3.697,3.697,3.698,0.006,False,False,1.552,103.3,103.2,103.2,,20,,16,5,7587.9,1124.14,,Idle,,25,,5,,12,Go Home,False,False,False,False,False,False,False,False,False,False,False,False,-7.2803134598856,112.792006068388,26.6,38.6,1640.4,True,1,1,False,False,False,False,,True,False,False,Course Lock,328,,9.8,88,,,,,Calm,False,False,Linux,0.0.1,DJI FPV,37QBJ3G00B020K,3F2TJ1429200MP,37RBHB600B03LB,37WPJ3CAA10285,228.2,4.5,232.9,29.972535,11.855782,0,1430,DJI FPV,37QBJ3G00B020K,3F2TJ1429200MP,37RBHB600B03LB,37WPJ3CAA10285,DJI Fly,Linux,0.0.1,7906D37D-D6E0-5396-2C2C-DDFB77D62633,37QBJ3G00B020K,3F2TJ1429200MP,3F2TJ1429200MP,37RBHB600B03LB,37WPJ3CAA10285,,,,,,
6/27/2025,3:27:48.77 AM,0m 6.4s,6.4,-7.2802685849308,112.79194814183,0,0,,12,4.2,0,0,0,0,0,0,0,0,-12.1,1.9,-132.7,227.3,,Manual Takeoff,Drop Go Home,Takeoff (RC Assisted),20,5,True,,DJI FPV,False,False,,Smart,RC,True,True,False,,,True,,False,False,False,False,False,False,False,False,False,False,0,Free,0,2,-134.6,225.4,False,False,False,False,False,True,,True,Normal,100,100,1021,1018,1018,1006,2,False,False,False,False,False,0,False,False,False,False,57,22.175,1000,1776,22.176,False,3.696,3.692,3.695,3.697,3.697,3.698,0.006,False,False,1.552,103.3,103.2,103.2,,20,,16,5,7587.9,1124.14,,Idle,,25,,5,,12,Go Home,False,False,False,False,False,False,False,False,False,False,False,False,-7.2803134598856,112.792006068388,26.5,38.6,1640.4,True,1,1,False,False,False,False,,True,False,False,Course Lock,328,,9.8,88,,,,,Calm,False,False,Linux,0.0.1,DJI FPV,37QBJ3G00B020K,3F2TJ1429200MP,37RBHB600B03LB,37WPJ3CAA10285,228.2,4.5,232.9,29.972535,11.855782,0,1430,DJI FPV,37QBJ3G00B020K,3F2TJ1429200MP,37RBHB600B03LB,37WPJ3CAA10285,DJI Fly,Linux,0.0.1,7906D37D-D6E0-5396-2C2C-DDFB77D62633,37QBJ3G00B020K,3F2TJ1429200MP,3F2TJ1429200MP,37RBHB600B03LB,37WPJ3CAA10285,,,,,,
6/27/2025,3:27:48.97 AM,0m 6.6s,6.6,-7.2802685482085,112.791948150977,0,0,,12,4.2,0,0,0,0,0,0,0,0,-12.1,2,-132.7,227.3,,Manual Takeoff,Drop Go Home,Takeoff (RC Assisted),20,5,True,,DJI FPV,False,False,,Smart,RC,True,True,False,,,True,,False,False,False,False,False,False,False,False,False,False,0,Free,0,2,-134.6,225.4,False,False,False,False,False,True,,True,Normal,100,100,1021,1018,1018,1007,2,False,False,False,False,False,0,False,False,False,False,57,22.175,1000,1776,22.176,False,3.696,3.692,3.695,3.697,3.697,3.698,0.006,False,False,1.552,103.3,103.2,103.2,,20,,16,5,7587.9,1124.14,,Idle,,25,,5,,12,Go Home,False,False,False,False,False,False,False,False,False,False,False,False,-7.2803134598856,112.792006068388,26.6,38.6,1640.4,True,1,1,False,False,False,False,,True,False,False,Course Lock,328,,9.8,88,,,,,Calm,False,False,Linux,0.0.1,DJI FPV,37QBJ3G00B020K,3F2TJ1429200MP,37RBHB600B03LB,37WPJ3CAA10285,228.2,4.5,232.9,29.972535,11.855782,0,1430,DJI FPV,37QBJ3G00B020K,3F2TJ1429200MP,37RBHB600B03LB,37WPJ3CAA10285,DJI Fly,Linux,0.0.1,7906D37D-D6E0-5396-2C2C-DDFB77D62633,37QBJ3G00B020K,3F2TJ1429200MP,3F2TJ1429200MP,37RBHB600B03LB,37WPJ3CAA10285,,,,,,
6/27/2025,3:27:49.17 AM,0m 6.8s,6.8,-7.2802685195564,112.791948173534,0,0,,12,4.2,0,0,0,0,0,0,0,0,-12.1,2,-132.7,227.3,,Manual Takeoff,Drop Go Home,Takeoff (RC Assisted),20,5,True,,DJI FPV,False,False,,Smart,RC,True,True,False,,,True,,False,False,False,False,False,False,False,False,False,False,0,Free,0,2,-134.6,225.4,False,False,False,False,False,True,,True,Normal,100,100,1020,1017,1017,1005,2,False,False,False,False,False,0,False,False,False,False,57,22.175,1000,1776,22.191,False,3.696,3.692,3.695,3.697,3.697,3.698,0.006,False,False,1.552,103.3,103.2,103.2,,20,,16,5,7849.1,1162.83,,Idle,,25,,5,,12,Go Home,False,False,False,False,False,False,False,False,False,False,False,False,-7.2803134598856,112.792006068388,26.6,38.6,1640.4,True,1,1,False,False,False,False,,True,False,False,Course Lock,328,,9.8,88,,,,,Calm,False,False,Linux,0.0.1,DJI FPV,37QBJ3G00B020K,3F2TJ1429200MP,37RBHB600B03LB,37WPJ3CAA10285,228.2,4.5,232.9,29.972535,11.855782,0,1430,DJI FPV,37QBJ3G00B020K,3F2TJ1429200MP,37RBHB600B03LB,37WPJ3CAA10285,DJI Fly,Linux,0.0.1,7906D37D-D6E0-5396-2C2C-DDFB77D62633,37QBJ3G00B020K,3F2TJ1429200MP,3F2TJ1429200MP,37RBHB600B03LB,37WPJ3CAA10285,,,,,,
6/27/2025,3:27:49.37 AM,0m 7.0s,7.0,-7.2802686749566,112.791948217767,0,0,,12,4.3,0,0,0,0,0,0,0,0,-12.1,2,-132.7,227.3,,Manual Takeoff,Drop Go Home,Takeoff (RC Assisted),20,5,True,,DJI FPV,False,False,,Smart,RC,True,True,False,,,True,,False,False,False,False,False,False,False,False,False,False,0,Free,0,1.9,-134.6,225.4,False,False,False,False,False,True,,True,Normal,100,100,1020,1018,1018,1006,2,False,False,False,False,False,0,False,False,False,False,57,22.172,1000,1776,22.191,False,3.695,3.692,3.695,3.697,3.696,3.697,0.006,False,False,1.556,103.5,103.2,103.4,,20,,16,5,7849.1,1162.83,,Idle,,25,,5,,12,Go Home,False,False,False,False,False,False,False,False,False,False,False,False,-7.2803134598856,112.792006068388,26.5,38.6,1640.4,True,1,1,False,False,False,False,,True,False,False,Course Lock,328,,9.8,88,,,,,Calm,False,False,Linux,0.0.1,DJI FPV,37QBJ3G00B020K,3F2TJ1429200MP,37RBHB600B03LB,37WPJ3CAA10285,228.2,4.5,232.9,29.972535,11.855782,0,1430,DJI FPV,37QBJ3G00B020K,3F2TJ1429200MP,37RBHB600B03LB,37WPJ3CAA10285,DJI Fly,Linux,0.0.1,7906D37D-D6E0-5396-2C2C-DDFB77D62633,37QBJ3G00B020K,3F2TJ1429200MP,3F2TJ1429200MP,37RBHB600B03LB,37WPJ3CAA10285,,,,,,
6/27/2025,3:27:49.57 AM,0m 7.2s,7.2,-7.2802686492044,112.791948445432,0,0,,12,4.4,0,0,0,0,0,0,0,0,-12.1,2,-132.6,227.4,,Manual Takeoff,Drop Go Home,Takeoff (RC Assisted),20,5,True,,DJI FPV,False,False,,Smart,RC,True,True,False,,,True,,False,False,False,False,False,False,False,False,False,False,0,Free,0,2,-134.5,225.5,False,False,False,False,False,True,,True,Normal,100,100,1020,1017,1019,1005,2,False,False,False,False,False,0,False,False,False,False,57,22.172,1000,1776,22.191,False,3.695,3.692,3.695,3.697,3.696,3.697,0.006,False,False,1.556,103.5,103.2,103.4,,20,,16,5,7849.1,1162.83,,Idle,,25,,5,,12,Go Home,False,False,False,False,False,False,False,False,False,False,False,False,-7.2803134598856,112.792006068388,26.4,38.6,1640.4,True,1,1,False,False,False,False,,True,False,False,Course Lock,328,,9.8,88,,,,,Calm,False,False,Linux,0.0.1,DJI FPV,37QBJ3G00B020K,3F2TJ1429200MP,37RBHB600B03LB,37WPJ3CAA10285,228.2,4.5,232.9,29.972535,11.855782,0,1430,DJI FPV,37QBJ3G00B020K,3F2TJ1429200MP,37RBHB600B03LB,37WPJ3CAA10285,DJI Fly,Linux,0.0.1,7906D37D-D6E0-5396-2C2C-DDFB77D62633,37QBJ3G00B020K,3F2TJ1429200MP,3F2TJ1429200MP,37RBHB600B03LB,37WPJ3CAA10285,,,,,,
6/27/2025,3:27:49.77 AM,0m 7.4s,7.4,-7.2802686237905,112.791948492908,0,0,,12,4.4,0,0,0,0,0,0,0,0,-12.1,2,-132.6,227.4,,Manual Takeoff,Drop Go Home,Takeoff (RC Assisted),20,5,True,,DJI FPV,False,False,,Smart,RC,True,True,False,,,True,,False,False,False,False,False,False,False,False,False,False,0,Free,0,2,-134.5,225.5,False,False,False,False,False,True,,True,Normal,100,100,1020,1016,1024,1006,2,False,False,False,False,False,0,False,False,False,False,57,22.172,1000,1776,22.191,False,3.695,3.692,3.695,3.697,3.696,3.697,0.006,False,False,1.556,103.5,103.2,103.4,,20,,16,5,7849.1,1162.83,,Idle,,25,,5,,12,Go Home,False,False,False,False,False,False,False,False,False,False,False,False,-7.2803134598856,112.792006068388,26.4,38.6,1640.4,True,1,1,False,False,False,False,,True,False,False,Course Lock,328,,9.8,88,,,,,Calm,False,False,Linux,0.0.1,DJI FPV,37QBJ3G00B020K,3F2TJ1429200MP,37RBHB600B03LB,37WPJ3CAA10285,228.2,4.5,232.9,29.972535,11.855782,0,1430,DJI FPV,37QBJ3G00B020K,3F2TJ1429200MP,37RBHB600B03LB,37WPJ3CAA10285,DJI Fly,Linux,0.0.1,7906D37D-D6E0-5396-2C2C-DDFB77D62633,37QBJ3G00B020K,3F2TJ1429200MP,3F2TJ1429200MP,37RBHB600B03LB,37WPJ3CAA10285,,,,,,
6/27/2025,3:27:49.97 AM,0m 7.6s,7.6,-7.2802686065945,112.791948743692,0,0,,12,4.5,0,0,0,0,0,0,0,0,-12.1,2,-132.6,227.4,,Manual Takeoff,Drop Go Home,Takeoff (RC Assisted),20,5,True,,DJI FPV,False,False,,Smart,RC,True,True,False,,,True,,False,False,False,False,False,False,False,False,False,False,0,Free,0,1.9,-134.5,225.5,False,False,False,False,False,True,,True,Normal,100,100,1019,1016,1018,1006,2,False,False,False,False,False,0,False,False,False,False,57,22.172,1000,1776,22.191,False,3.695,3.692,3.695,3.697,3.696,3.697,0.006,False,False,1.556,103.5,103.2,103.4,,20,,16,5,7849.1,1162.83,,Idle,,25,,5,,12,Go Home,False,False,False,False,False,False,False,False,False,False,False,False,-7.2803134598856,112.792006068388,26.4,38.6,1640.4,True,1,1,False,False,False,False,,True,False,False,Course Lock,328,,9.8,88,,,,,Calm,False,False,Linux,0.0.1,DJI FPV,37QBJ3G00B020K,3F2TJ1429200MP,37RBHB600B03LB,37WPJ3CAA10285,228.2,4.5,232.9,29.972535,11.855782,0,1430,DJI FPV,37QBJ3G00B020K,3F2TJ1429200MP,37RBHB600B03LB,37WPJ3CAA10285,DJI Fly,Linux,0.0.1,7906D37D-D6E0-5396-2C2C-DDFB77D62633,37QBJ3G00B020K,3F2TJ1429200MP,3F2TJ1429200MP,37RBHB600B03LB,37WPJ3CAA10285,,,,,,
6/27/2025,3:27:50.17 AM,0m 7.8s,7.8,-7.2802685936734,112.791948802503,0,0,,12,4.5,0,0,0,0,0,0,0,0,-12.1,2,-132.6,227.4,,Manual Takeoff,Drop Go Home,Takeoff (RC Assisted),20,5,True,,DJI FPV,False,False,,Smart,RC,True,True,False,,,True,,False,False,False,False,False,False,False,False,False,False,0,Free,0,1.9,-134.5,225.5,False,False,False,False,False,True,,True,Normal,100,100,687,1208,1428,1010,2,False,False,False,False,False,0,False,False,False,False,57,22.172,1000,1776,22.171,False,3.695,3.692,3.695,3.697,3.696,3.697,0.006,False,False,1.556,103.5,103.2,103.4,,19,,16,5,8087.1,1198.09,,Idle,,25,,5,,12,Go Home,False,False,False,False,False,False,False,False,False,False,False,False,-7.2803134598856,112.792006068388,26.4,38.6,1640.4,True,1,1,False,False,False,False,,True,False,False,Course Lock,328,,9.8,88,,,,,Calm,False,False,Linux,0.0.1,DJI FPV,37QBJ3G00B020K,3F2TJ1429200MP,37RBHB600B03LB,37WPJ3CAA10285,228.2,4.5,232.9,29.972535,11.855782,0,1430,DJI FPV,37QBJ3G00B020K,3F2TJ1429200MP,37RBHB600B03LB,37WPJ3CAA10285,DJI Fly,Linux,0.0.1,7906D37D-D6E0-5396-2C2C-DDFB77D62633,37QBJ3G00B020K,3F2TJ1429200MP,3F2TJ1429200MP,37RBHB600B03LB,37WPJ3CAA10285,,,,,,
6/27/2025,3:27:50.37 AM,0m 8.0s,8.0,-7.2802685844939,112.791949054761,0,0,,12,4.6,0,0,0,0,0,0,0,0,-12.1,2,-132.6,227.4,,Manual Takeoff,Drop Go Home,Takeoff (RC Assisted),20,5,True,,DJI FPV,False,False,,Smart,RC,True,True,False,,,True,,False,False,False,False,False,False,False,False,False,False,0,Free,0,1.9,-134.5,225.5,False,False,False,False,False,True,,True,Normal,100,100,795,1598,1684,1087,2,False,False,False,False,False,0,False,False,False,False,57,22.169,1000,1776,22.171,False,3.695,3.691,3.694,3.697,3.696,3.697,0.006,False,False,1.548,103.5,103.2,103.4,,19,,16,5,8087.1,1198.09,,Idle,,25,,5,,12,Go Home,False,False,False,False,False,False,False,False,False,False,False,False,-7.2803134598856,112.792006068388,26.3,38.6,1640.4,True,1,1,False,False,False,False,,True,False,False,Course Lock,328,,9.8,88,,,,,Calm,False,False,Linux,0.0.1,DJI FPV,37QBJ3G00B020K,3F2TJ1429200MP,37RBHB600B03LB,37WPJ3CAA10285,228.2,4.5,232.9,29.972535,11.855782,0,1430,DJI FPV,37QBJ3G00B020K,3F2TJ1429200MP,37RBHB600B03LB,37WPJ3CAA10285,DJI Fly,Linux,0.0.1,7906D37D-D6E0-5396-2C2C-DDFB77D62633,37QBJ3G00B020K,3F2TJ1429200MP,3F2TJ1429200MP,37RBHB600B03LB,37WPJ3CAA10285,,,,,,
6/27/2025,3:27:50.57 AM,0m 8.2s,8.2,-7.2802684006727,112.791949122582,0,0,,12,4.7,0,0,0,0,0,0,0,0,-12,1.9,-132.6,227.4,,Manual Takeoff,Drop Go Home,Takeoff (RC Assisted),20,5,True,,DJI FPV,False,False,,Smart,RC,True,True,False,,,True,,False,False,False,False,False,False,False,False,False,False,0,Free,0,1.8,-134.5,225.5,False,False,False,False,False,True,,True,Normal,100,100,820,1684,1684,1026,2,False,False,False,False,False,0,False,False,False,False,57,22.169,1000,1776,22.171,False,3.695,3.691,3.694,3.697,3.696,3.697,0.006,False,False,1.548,103.5,103.2,103.4,,19,,16,5,8087.1,1198.09,,Idle,,25,,5,,12,Go Home,False,False,False,False,False,False,False,False,False,False,False,False,-7.2803134598856,112.792006068388,26.3,38.6,1640.4,True,1,1,False,False,False,False,,True,False,False,Course Lock,328,,9.8,88,,,,,Calm,False,False,Linux,0.0.1,DJI FPV,37QBJ3G00B020K,3F2TJ1429200MP,37RBHB600B03LB,37WPJ3CAA10285,228.2,4.5,232.9,29.972535,11.855782,0,1430,DJI FPV,37QBJ3G00B020K,3F2TJ1429200MP,37RBHB600B03LB,37WPJ3CAA10285,DJI Fly,Linux,0.0.1,7906D37D-D6E0-5396-2C2C-DDFB77D62633,37QBJ3G00B020K,3F2TJ1429200MP,3F2TJ1429200MP,37RBHB600B03LB,37WPJ3CAA10285,,,,,,
6/27/2025,3:27:50.77 AM,0m 8.4s,8.4,-7.280268407749,112.791949198443,0,0,,12,4.7,0,0,0,0,0,0,0,0,-11.9,1.8,-132.5,227.5,,Manual Takeoff,Drop Go Home,Takeoff (RC Assisted),20,5,True,,DJI FPV,False,False,,Smart,RC,True,True,False,,,True,,False,False,False,False,False,False,False,False,False,False,0,Free,0,1.3,-134.5,225.5,False,False,False,False,False,True,,True,Normal,100,100,825,1684,1684,1015,2,False,False,False,False,False,0,False,False,False,False,57,22.169,1000,1776,22.171,False,3.695,3.691,3.694,3.697,3.696,3.697,0.006,False,False,1.548,103.5,103.2,103.4,,19,,16,5,8087.1,1198.09,,Idle,,25,,5,,12,Go Home,False,False,False,False,False,False,False,False,False,False,False,False,-7.2803134598856,112.792006068388,26.3,38.6,1640.4,True,1,1,False,False,False,False,,True,False,False,Course Lock,328,,9.8,88,,,,,Calm,False,False,Linux,0.0.1,DJI FPV,37QBJ3G00B020K,3F2TJ1429200MP,37RBHB600B03LB,37WPJ3CAA10285,228.2,4.5,232.9,29.972535,11.855782,0,1430,DJI FPV,37QBJ3G00B020K,3F2TJ1429200MP,37RBHB600B03LB,37WPJ3CAA10285,DJI Fly,Linux,0.0.1,7906D37D-D6E0-5396-2C2C-DDFB77D62633,37QBJ3G00B020K,3F2TJ1429200MP,3F2TJ1429200MP,37RBHB600B03LB,37WPJ3CAA10285,,,,,,
6/27/2025,3:27:50.97 AM,0m 8.6s,8.6,-7.2802682439189,112.791949466666,0,0,,12,4.8,0,0,0,0,0,0,0,0,-10.7,0.8,-132.4,227.6,,Manual Takeoff,Drop Go Home,Takeoff (RC Assisted),20,5,True,,DJI FPV,False,False,,Smart,RC,True,True,False,,,True,,False,False,False,False,False,False,False,False,False,False,0,Free,0,-0.2,-134.5,225.5,False,False,False,False,False,True,,True,Normal,100,100,822,1684,1684,1009,2,False,False,False,False,False,0,False,False,False,False,57,22.169,1000,1776,22.171,False,3.695,3.691,3.694,3.697,3.696,3.697,0.006,False,False,1.548,103.5,103.2,103.4,,19,,16,5,8087.1,1198.09,,Idle,,25,,5,,12,Go Home,False,False,False,False,False,False,False,False,False,False,False,False,-7.2803134598856,112.792006068388,26.2,38.6,1640.4,True,1,1,False,False,False,False,,True,False,False,Course Lock,328,,9.8,88,,,,,Calm,False,False,Linux,0.0.1,DJI FPV,37QBJ3G00B020K,3F2TJ1429200MP,37RBHB600B03LB,37WPJ3CAA10285,228.2,4.5,232.9,29.972535,11.855782,0,1430,DJI FPV,37QBJ3G00B020K,3F2TJ1429200MP,37RBHB600B03LB,37WPJ3CAA10285,DJI Fly,Linux,0.0.1,7906D37D-D6E0-5396-2C2C-DDFB77D62633,37QBJ3G00B020K,3F2TJ1429200MP,3F2TJ1429200MP,37RBHB600B03LB,37WPJ3CAA10285,,,,,,
6/27/2025,3:27:51.17 AM,0m 8.8s,8.8,-7.2802682604274,112.79194976761,0,0,,12,4.9,0,0,0,0,0,0,0,0,-9.2,-0.5,-132.2,227.8,,Manual Takeoff,Drop Go Home,Takeoff (RC Assisted),20,5,True,,DJI FPV,False,False,,Smart,RC,True,True,False,,,True,,False,False,False,False,False,False,False,False,False,False,0,Free,0,-1.2,-135.3,224.7,False,False,False,False,False,True,,True,Normal,100,100,820,1684,1684,1018,2,False,False,False,False,False,0,False,False,False,False,57,22.169,1000,1776,22.124,False,3.695,3.691,3.694,3.697,3.696,3.697,0.006,False,False,1.548,103.5,103.2,103.4,,19,,16,5,8303.3,1230.12,,Idle,,25,,5,,12,Go Home,False,False,False,False,False,False,False,False,False,False,False,False,-7.2803134598856,112.792006068388,26.2,38.6,1640.4,True,1,1,False,False,False,False,,True,False,False,Course Lock,328,,9.8,88,,,,,Calm,False,False,Linux,0.0.1,DJI FPV,37QBJ3G00B020K,3F2TJ1429200MP,37RBHB600B03LB,37WPJ3CAA10285,228.2,4.5,232.9,29.972535,11.855782,0,1430,DJI FPV,37QBJ3G00B020K,3F2TJ1429200MP,37RBHB600B03LB,37WPJ3CAA10285,DJI Fly,Linux,0.0.1,7906D37D-D6E0-5396-2C2C-DDFB77D62633,37QBJ3G00B020K,3F2TJ1429200MP,3F2TJ1429200MP,37RBHB600B03LB,37WPJ3CAA10285,,,,,,
6/27/2025,3:27:51.37 AM,0m 9.0s,9.0,-7.2802683214434,112.791949834674,0,0,,12,4.9,0,0,0,0,0,0,0,0,-9.7,-1.5,-133.7,226.3,,Manual Takeoff,Drop Go Home,Takeoff (RC Assisted),20,5,True,,DJI FPV,False,False,,Smart,RC,True,True,False,,,True,,False,False,False,False,False,False,False,False,False,False,0,Free,0,-2.4,-135.5,224.5,False,False,False,False,False,True,,True,Normal,100,100,843,1684,1684,1080,2,False,False,False,False,False,0,False,False,False,False,57,22.026,1000,1776,22.124,False,3.673,3.669,3.671,3.672,3.67,3.671,0.006,False,False,4.568,103.5,103.2,103.4,,19,,16,5,8303.3,1230.12,,Idle,,25,,5,,12,Go Home,False,False,False,False,False,False,False,False,False,False,False,False,-7.2803134598856,112.792006068388,26.1,38.6,1640.4,True,1,1,False,False,False,False,,True,False,False,Course Lock,328,,9.8,88,,,,,Calm,False,False,Linux,0.0.1,DJI FPV,37QBJ3G00B020K,3F2TJ1429200MP,37RBHB600B03LB,37WPJ3CAA10285,228.2,4.5,232.9,29.972535,11.855782,0,1430,DJI FPV,37QBJ3G00B020K,3F2TJ1429200MP,37RBHB600B03LB,37WPJ3CAA10285,DJI Fly,Linux,0.0.1,7906D37D-D6E0-5396-2C2C-DDFB77D62633,37QBJ3G00B020K,3F2TJ1429200MP,3F2TJ1429200MP,37RBHB600B03LB,37WPJ3CAA10285,,,,,,
6/27/2025,3:27:51.57 AM,0m 9.2s,9.2,-7.2802685174446,112.791949929539,0,0,,12,5.0,0.316351,0.316351,-0.223694,0,-0.223694,0,0,0,-10,-2.5,-132,228,154.3,Manual Takeoff,Drop Go Home,Takeoff (RC Assisted),20,5,True,,DJI FPV,False,False,,Smart,RC,True,True,False,,,True,,False,False,False,False,False,False,False,False,False,False,0,Free,0,-2,-133.6,226.4,False,False,False,False,False,True,,True,Normal,100,100,855,1684,1684,1185,2,False,False,False,False,False,0,False,False,False,False,57,22.026,1000,1776,22.124,False,3.673,3.669,3.671,3.672,3.67,3.671,0.006,False,False,4.568,103.5,103.2,103.4,,19,,16,5,8303.3,1230.12,,Idle,,25,,5,,12,Go Home,False,False,False,False,False,False,False,False,False,False,False,False,-7.2803134598856,112.792006068388,26.1,38.6,1640.4,True,1,1,False,False,False,False,,True,False,False,Course Lock,328,,9.8,88,,,,,Calm,False,False,Linux,0.0.1,DJI FPV,37QBJ3G00B020K,3F2TJ1429200MP,37RBHB600B03LB,37WPJ3CAA10285,228.2,4.5,232.9,29.972535,11.855782,0,1430,DJI FPV,37QBJ3G00B020K,3F2TJ1429200MP,37RBHB600B03LB,37WPJ3CAA10285,DJI Fly,Linux,0.0.1,7906D37D-D6E0-5396-2C2C-DDFB77D62633,37QBJ3G00B020K,3F2TJ1429200MP,3F2TJ1429200MP,37RBHB600B03LB,37WPJ3CAA10285,,,,,,
6/27/2025,3:27:51.77 AM,0m 9.4s,9.4,-7.2802689448243,112.791949725806,0,0,,12,5.2,0.80654,0.80654,-0.447388,0,-0.671082,0,-0.671082,0,-14.4,-1.8,-129.6,230.4,205.3,P-GPS,Drop Go Home,,20,5,True,,DJI FPV,False,False,,Smart,RC,False,True,False,,,True,,False,False,False,False,False,False,False,False,False,False,0,Free,0,-3.1,-131.7,228.3,False,False,False,False,False,True,,True,Normal,100,100,894,1677,1684,1143,2,False,False,False,False,False,0,False,False,False,False,57,22.026,1000,1776,22.124,False,3.673,3.669,3.671,3.672,3.67,3.671,0.006,False,False,4.568,103.5,103.2,103.4,,19,,16,5,8303.3,1230.12,,Idle,,25,,5,,12,Go Home,False,False,False,False,False,False,False,False,False,False,False,False,-7.2803134598856,112.792006068388,26.0,38.6,1640.4,True,1,1,False,False,False,False,,True,False,False,Course Lock,328,,9.8,88,,,,,Calm,False,False,Linux,0.0.1,DJI FPV,37QBJ3G00B020K,3F2TJ1429200MP,37RBHB600B03LB,37WPJ3CAA10285,228.2,4.5,232.9,29.972535,11.855782,0,1430,DJI FPV,37QBJ3G00B020K,3F2TJ1429200MP,37RBHB600B03LB,37WPJ3CAA10285,DJI Fly,Linux,0.0.1,7906D37D-D6E0-5396-2C2C-DDFB77D62633,37QBJ3G00B020K,3F2TJ1429200MP,3F2TJ1429200MP,37RBHB600B03LB,37WPJ3CAA10285,,,,,Flight mode changed to P-GPS.,
