sep=,
CUSTOM.date [local],CUSTOM.updateTime [local],OSD.flyTime,OSD.flyTime [s],OSD.latitude,OSD.longitude,OSD.height [ft],OSD.heightMax [ft],OSD.vpsHeight [ft],OSD.altitude [ft],OSD.mileage [ft],OSD.hSpeed [MPH],OSD.hSpeedMax [MPH],OSD.xSpeed [MPH],OSD.xSpeedMax [MPH],OSD.ySpeed [MPH],OSD.ySpeedMax [MPH],OSD.zSpeed [MPH],OSD.zSpeedMax [MPH],OSD.pitch,OSD.roll,OSD.yaw,OSD.yaw [360],OSD.directionOfTravel,OSD.flycState,OSD.flycCommand,OSD.flightAction,OSD.gpsNum,OSD.gpsLevel,OSD.isGPSUsed,OSD.nonGPSCause,OSD.droneType,OSD.isSwaveWork,OSD.waveError,OSD.goHomeStatus,OSD.batteryType,OSD.ctrlDevice,OSD.isOnGround,OSD.isMotorOn,OSD.isMotorBlocked,OSD.motorStartFailedCause,OSD.motorFailReason,OSD.isImuPreheated,OSD.imuInitFailReason,OSD.isAcceletorOverRange,OSD.isBarometerDeadInAir,OSD.isCompassError,OSD.isGoHomeHeightModified,OSD.canIOCWork,OSD.isNotEnoughForce,OSD.isOutOfLimit,OSD.isPropellerCatapult,OSD.isVibrating,OSD.isVisionUsed,OSD.voltageWarning,GIMBAL.mode,GIMBAL.pitch,GIMBAL.roll,GIMBAL.yaw,GIMBAL.yaw [360],GIMBAL.isPitchAtLimit,GIMBAL.isRollAtLimit,GIMBAL.isYawAtLimit,GIMBAL.isStuck,CAMERA.isPhoto,CAMERA.isVideo,CAMERA.filename,CAMERA.sdCardIsInserted,CAMERA.sdCardState,RC.downlinkSignal,RC.uplinkSignal,RC.aileron,RC.elevator,RC.throttle,RC.rudder,RC.mode,RC.goHomeDepressed,RC.recordDepressed,RC.shutterDepressed,RC.playbackDepressed,RC.wheelDepressed,RC.wheelOffset,RC.custom1Depressed,RC.custom2Depressed,RC.custom3Depressed,RC.custom4Depressed,BATTERY.chargeLevel,BATTERY.currentPV [V],BATTERY.currentCapacity [mAh],BATTERY.fullCapacity [mAh],BATTERY.voltage [V],BATTERY.isCellVoltageEstimated,BATTERY.cellVoltage1 [V],BATTERY.cellVoltage2 [V],BATTERY.cellVoltage3 [V],BATTERY.cellVoltage4 [V],BATTERY.cellVoltage5 [V],BATTERY.cellVoltage6 [V],BATTERY.maxCellVoltageDeviation,BATTERY.isCellVoltageDeviationHigh,BATTERY.isVoltageLow,BATTERY.current [A],BATTERY.temperature [F],BATTERY.minTemperature [F],BATTERY.maxTemperature [F],BATTERY.usefulTime [s],BATTERY.goHomeTime [s],BATTERY.landTime [s],BATTERY.goHomeBattery,BATTERY.landBattery,BATTERY.safeFlyRadius,BATTERY.volumeConsume,BATTERY.status,BATTERY.goHomeStatus,BATTERY.goHomeCountdown,BATTERY.lowWarning,BATTERY.lowWarningGoHome,BATTERY.seriousLowWarning,BATTERY.seriousLowWarningLanding,BATTERY.timesCharged,MC.failSafeAction,MC.isObstacleAvoidanceEnabled,MC.isCollisionAvoidanceEnabled,MC.isRthObstacleAvoidanceEnabled,MC.isBraking,MC.isAvoidingObstacle,MC.isAvoidingActiveObstacle,MC.isAscentLimitedByObstacle,MC.isLandingConfirmationNeeded,MC.atLowAltitudeLimit,MC.atDistanceLimit,MC.atAirportAltitudeLimit,MC.atAirportBoundary,HOME.latitude,HOME.longitude,HOME.distance [ft],HOME.height [ft],HOME.heightLimit [ft],HOME.isHomeRecord,HOME.goHomeMode,HOME.aircraftHeadDirection,HOME.isDynamicHomePointEnabled,HOME.isReachedLimitDistance,HOME.isReachedLimitHeight,HOME.isCompassCalibrating,HOME.compassCalibrationState,HOME.isMultipleFlightModeEnabled,HOME.isBeginnerMode,HOME.isIOCEnabled,HOME.iocMode,HOME.goHomeHeight [ft],HOME.courseLockAngle,HOME.forceLandingHeight [ft],HOME.dataRecorderFileIndex,WEATHER.windDirection,WEATHER.windRelativeDirection,WEATHER.windSpeed [MPH],WEATHER.maxWindSpeed [MPH],WEATHER.windStrength,WEATHER.isFacingWind,WEATHER.isFlyingIntoWind,RECOVER.appType,RECOVER.appVersion,RECOVER.aircraftName,RECOVER.aircraftSerial,RECOVER.cameraSerial,RECOVER.rcSerial,RECOVER.batterySerial,DETAILS.totalTime [s],DETAILS.totalDistance [ft],DETAILS.maxHeight [ft],DETAILS.maxHorizontalSpeed [MPH],DETAILS.maxVerticalSpeed [MPH],DETAILS.photoNum,DETAILS.videoTime [s],DETAILS.aircraftName,DETAILS.aircraftSerial,DETAILS.cameraSerial,DETAILS.rcSerial,DETAILS.batterySerial,DETAILS.appName,DETAILS.appType,DETAILS.appVersion,DETAILS.guid,SERIAL.flightController,SERIAL.camera,SERIAL.gimbal,SERIAL.rc,SERIAL.battery,SERIAL.battery2,APPGPS.latitude,APPGPS.longitude,APPGPS.accuracy,APP.tip,APP.warning
6/27/2025,3:31:40.97 AM,0m 0.0s,0.0,-7.2802657207412,112.791952159805,0,0,,12,0,0,0,0,0,0,0,0,0,-9.9,-2.9,-106.4,253.6,,Starting Motors,Drop Go Home,Takeoff (RC Assisted),21,5,True,,DJI FPV,False,False,,Smart,RC,True,True,False,,,True,,False,False,False,False,False,False,False,False,False,False,0,Free,0,-3.7,-109.9,250.1,False,False,False,False,False,False,,True,Normal,100,100,364,364,364,1684,2,False,False,False,False,False,0,False,False,False,False,,,,,,True,,,,,,,,False,False,,,,,,,,,,,,,Idle,,,,,,12,Go Home,False,False,False,False,False,False,False,False,False,False,False,False,,,,,,False,,,False,False,False,False,,False,False,False,,,,,,,,,,Calm,False,False,Linux,0.0.1,DJI FPV,37QBJ3G00B020K,3F2TJ1429200MP,37RBHB600B03LB,37WPJ3CAA10285,90,0.6,98.4,20.61027,10.961006,0,2044,DJI FPV,37QBJ3G00B020K,3F2TJ1429200MP,37RBHB600B03LB,37WPJ3CAA10285,DJI Fly,Linux,0.0.1,CE5F98D1-4631-A413-8B20-756CE5CF2FB8,37QBJ3G00B020K,3F2TJ1429200MP,3F2TJ1429200MP,37RBHB600B03LB,37WPJ3CAA10285,,,,,Motors starting.; Flight mode changed to Starting Motors.,Compass error.; Compass error. Fly with caution.
6/27/2025,3:31:41.17 AM,0m 0.2s,0.2,-7.2802657119109,112.791952127543,0,0,,12,0,0,0,0,0,0,0,0,0,-10.1,-2.9,-106.5,253.5,,Starting Motors,Drop Go Home,Takeoff (RC Assisted),21,5,True,,DJI FPV,False,False,,Smart,RC,True,True,False,,,True,,False,False,False,False,False,False,False,False,False,False,0,Free,0,-3.7,-109.8,250.2,False,False,False,False,False,False,,True,Normal,100,100,364,364,364,1684,2,False,False,False,False,False,0,False,False,False,False,30,,,,21.308,True,3.551,3.551,3.551,3.551,3.551,3.551,,False,False,,,,,,1,,,5,24901.6,3689.13,,Idle,,25,,5,,12,Go Home,False,False,False,False,False,False,False,False,False,False,False,False,-7.2802687217922,112.79194988971,1.3,34.5,1640.4,True,1,1,False,False,False,False,,True,False,False,Course Lock,328,,9.8,88,,,,,Calm,False,False,Linux,0.0.1,DJI FPV,37QBJ3G00B020K,3F2TJ1429200MP,37RBHB600B03LB,37WPJ3CAA10285,90,0.6,98.4,20.61027,10.961006,0,2044,DJI FPV,37QBJ3G00B020K,3F2TJ1429200MP,37RBHB600B03LB,37WPJ3CAA10285,DJI Fly,Linux,0.0.1,CE5F98D1-4631-A413-8B20-756CE5CF2FB8,37QBJ3G00B020K,3F2TJ1429200MP,3F2TJ1429200MP,37RBHB600B03LB,37WPJ3CAA10285,,,,,Data Recorder File Index is 88.; Set Return to Home (RTH) altitude to 100 m (328 ft).; Set maximum flight altitude to 500 m (1640 ft).,
6/27/2025,3:31:41.37 AM,0m 0.4s,0.4,-7.2802655419296,112.791952281479,0,0,,12,0,0,0,0,0,0,0,0,0,-10.1,-2.9,-106.5,253.5,,Starting Motors,Drop Go Home,Takeoff (RC Assisted),21,5,True,,DJI FPV,False,False,,Smart,RC,True,True,False,,,True,,False,False,False,False,False,False,False,False,False,False,0,Free,0,-3.6,-109.8,250.2,False,False,False,False,False,False,,True,Normal,100,100,364,364,364,1684,2,False,False,False,False,False,0,False,False,False,False,30,,,,21.308,True,3.551,3.551,3.551,3.551,3.551,3.551,,False,False,,,,,,1,,,5,24901.6,3689.13,,Idle,,25,,5,,12,Go Home,False,False,False,False,False,False,False,False,False,False,False,False,-7.2802687217922,112.79194988971,1.4,34.5,1640.4,True,1,1,False,False,False,False,,True,False,False,Course Lock,328,,9.8,88,,,,,Calm,False,False,Linux,0.0.1,DJI FPV,37QBJ3G00B020K,3F2TJ1429200MP,37RBHB600B03LB,37WPJ3CAA10285,90,0.6,98.4,20.61027,10.961006,0,2044,DJI FPV,37QBJ3G00B020K,3F2TJ1429200MP,37RBHB600B03LB,37WPJ3CAA10285,DJI Fly,Linux,0.0.1,CE5F98D1-4631-A413-8B20-756CE5CF2FB8,37QBJ3G00B020K,3F2TJ1429200MP,3F2TJ1429200MP,37RBHB600B03LB,37WPJ3CAA10285,,,,,,
6/27/2025,3:31:41.57 AM,0m 0.6s,0.6,-7.2802653850794,112.791952430877,0,0,,12,0.1,0,0,0,0,0,0,0,0,-10.1,-2.9,-106.5,253.5,,Starting Motors,Drop Go Home,Takeoff (RC Assisted),21,5,True,,DJI FPV,False,False,,Smart,RC,True,True,False,,,True,,False,False,False,False,False,False,False,False,False,False,0,Free,0,-3.6,-109.8,250.2,False,False,False,False,False,False,,True,Normal,100,100,364,584,644,1596,2,False,False,False,False,False,0,False,False,False,False,30,,,,21.308,True,3.551,3.551,3.551,3.551,3.551,3.551,,False,False,,,,,,1,,,5,24901.6,3689.13,,Idle,,25,,5,,12,Go Home,False,False,False,False,False,False,False,False,False,False,False,False,-7.2802687217922,112.79194988971,1.5,34.5,1640.4,True,1,1,False,False,False,False,,True,False,False,Course Lock,328,,9.8,88,,,,,Calm,False,False,Linux,0.0.1,DJI FPV,37QBJ3G00B020K,3F2TJ1429200MP,37RBHB600B03LB,37WPJ3CAA10285,90,0.6,98.4,20.61027,10.961006,0,2044,DJI FPV,37QBJ3G00B020K,3F2TJ1429200MP,37RBHB600B03LB,37WPJ3CAA10285,DJI Fly,Linux,0.0.1,CE5F98D1-4631-A413-8B20-756CE5CF2FB8,37QBJ3G00B020K,3F2TJ1429200MP,3F2TJ1429200MP,37RBHB600B03LB,37WPJ3CAA10285,,,,,,
6/27/2025,3:31:41.77 AM,0m 0.8s,0.8,-7.280265595593,112.791952579426,0,0,,12,0.2,0,0,0,0,0,0,0,0,-10.1,-2.9,-106.4,253.6,,Starting Motors,Drop Go Home,Takeoff (RC Assisted),21,5,True,,DJI FPV,False,False,,Smart,RC,True,True,False,,,True,,False,False,False,False,False,False,False,False,False,False,0,Free,0,-3.6,-109.7,250.3,False,False,False,False,False,False,,True,Normal,100,100,488,966,1031,1088,2,False,False,False,False,False,0,False,False,False,False,30,,,,21.308,True,3.551,3.551,3.551,3.551,3.551,3.551,,False,False,,,,,,1,,,5,24901.6,3689.13,,Idle,,25,,5,,12,Go Home,False,False,False,False,False,False,False,False,False,False,False,False,-7.2802687217922,112.79194988971,1.4,34.5,1640.4,True,1,1,False,False,False,False,,True,False,False,Course Lock,328,,9.8,88,,,,,Calm,False,False,Linux,0.0.1,DJI FPV,37QBJ3G00B020K,3F2TJ1429200MP,37RBHB600B03LB,37WPJ3CAA10285,90,0.6,98.4,20.61027,10.961006,0,2044,DJI FPV,37QBJ3G00B020K,3F2TJ1429200MP,37RBHB600B03LB,37WPJ3CAA10285,DJI Fly,Linux,0.0.1,CE5F98D1-4631-A413-8B20-756CE5CF2FB8,37QBJ3G00B020K,3F2TJ1429200MP,3F2TJ1429200MP,37RBHB600B03LB,37WPJ3CAA10285,,,,,Motors starting.,Compass error.
6/27/2025,3:31:41.97 AM,0m 1.0s,1.0,-7.2802656135858,112.791952543455,0,0,,12,0.2,0,0,0,0,0,0,0,0,-10.1,-2.9,-106.4,253.6,,Starting Motors,Drop Go Home,Takeoff (RC Assisted),21,5,True,,DJI FPV,False,False,,Smart,RC,True,True,False,,,True,,False,False,False,False,False,False,False,False,False,False,0,Free,0,-3.6,-109.8,250.2,False,False,False,False,False,False,,True,Normal,100,100,1019,1017,1017,1006,2,False,False,False,False,False,0,False,False,False,False,30,,,,21.308,True,3.551,3.551,3.551,3.551,3.551,3.551,,False,False,,,,,,1,,,5,24901.6,3689.13,,Idle,,25,,5,,12,Go Home,False,False,False,False,False,False,False,False,False,False,False,False,-7.2802687217922,112.79194988971,1.4,34.5,1640.4,True,1,1,False,False,False,False,,True,False,False,Course Lock,328,,9.8,88,,,,,Calm,False,False,Linux,0.0.1,DJI FPV,37QBJ3G00B020K,3F2TJ1429200MP,37RBHB600B03LB,37WPJ3CAA10285,90,0.6,98.4,20.61027,10.961006,0,2044,DJI FPV,37QBJ3G00B020K,3F2TJ1429200MP,37RBHB600B03LB,37WPJ3CAA10285,DJI Fly,Linux,0.0.1,CE5F98D1-4631-A413-8B20-756CE5CF2FB8,37QBJ3G00B020K,3F2TJ1429200MP,3F2TJ1429200MP,37RBHB600B03LB,37WPJ3CAA10285,,,,,,
6/27/2025,3:31:42.17 AM,0m 1.2s,1.2,-7.2802658061024,112.791952689279,0,0,,12,0.3,0,0,0,0,0,0,0,0,-10.1,-2.9,-106.4,253.6,,Starting Motors,Drop Go Home,Takeoff (RC Assisted),21,5,True,,DJI FPV,False,False,,Smart,RC,True,True,False,,,True,,False,False,False,False,False,False,False,False,False,False,0,Free,0,-3.6,-109.7,250.3,False,False,False,False,False,False,,True,Normal,100,100,1018,1018,1017,1006,2,False,False,False,False,False,0,False,False,False,False,30,,,,21.339,True,3.557,3.557,3.557,3.557,3.557,3.557,,False,False,,,,,,1,,,5,23179.1,3433.95,,Idle,,25,,5,,12,Go Home,False,False,False,False,False,False,False,False,False,False,False,False,-7.2802687217922,112.79194988971,1.4,34.5,1640.4,True,1,1,False,False,False,False,,True,False,False,Course Lock,328,,9.8,88,,,,,Calm,False,False,Linux,0.0.1,DJI FPV,37QBJ3G00B020K,3F2TJ1429200MP,37RBHB600B03LB,37WPJ3CAA10285,90,0.6,98.4,20.61027,10.961006,0,2044,DJI FPV,37QBJ3G00B020K,3F2TJ1429200MP,37RBHB600B03LB,37WPJ3CAA10285,DJI Fly,Linux,0.0.1,CE5F98D1-4631-A413-8B20-756CE5CF2FB8,37QBJ3G00B020K,3F2TJ1429200MP,3F2TJ1429200MP,37RBHB600B03LB,37WPJ3CAA10285,,,,,,
6/27/2025,3:31:42.37 AM,0m 1.4s,1.4,-7.2802658123477,112.791952471342,0,0,,12,0.4,0,0,0,0,0,0,0,0,-10.1,-2.9,-106.4,253.6,,Manual Takeoff,Drop Go Home,Takeoff (RC Assisted),21,5,True,,DJI FPV,False,False,,Smart,RC,True,True,False,,,True,,False,False,False,False,False,False,False,False,False,False,0,Free,0,-3.6,-109.7,250.3,False,False,False,False,False,True,,True,Normal,100,100,1018,1021,1018,1005,2,False,False,False,False,False,0,False,False,False,False,30,,,,21.339,True,3.557,3.557,3.557,3.557,3.557,3.557,,False,False,,,,,,1,,,5,23179.1,3433.95,,Idle,,25,,5,,12,Go Home,False,False,False,False,False,False,False,False,False,False,False,False,-7.2802687217922,112.79194988971,1.4,34.5,1640.4,True,1,1,False,False,False,False,,True,False,False,Course Lock,328,,9.8,88,,,,,Calm,False,False,Linux,0.0.1,DJI FPV,37QBJ3G00B020K,3F2TJ1429200MP,37RBHB600B03LB,37WPJ3CAA10285,90,0.6,98.4,20.61027,10.961006,0,2044,DJI FPV,37QBJ3G00B020K,3F2TJ1429200MP,37RBHB600B03LB,37WPJ3CAA10285,DJI Fly,Linux,0.0.1,CE5F98D1-4631-A413-8B20-756CE5CF2FB8,37QBJ3G00B020K,3F2TJ1429200MP,3F2TJ1429200MP,37RBHB600B03LB,37WPJ3CAA10285,,,,,Flight mode changed to Manual Takeoff.,
6/27/2025,3:31:42.57 AM,0m 1.6s,1.6,-7.2802659906324,112.791952628769,0,0,,12,0.5,0,0,0,0,0,0,0,0,-10.1,-2.8,-106.4,253.6,,Manual Takeoff,Drop Go Home,Takeoff (RC Assisted),21,5,True,,DJI FPV,False,False,,Smart,RC,True,True,False,,,True,,False,False,False,False,False,False,False,False,False,False,0,Free,0,-3.6,-109.7,250.3,False,False,False,False,False,True,,True,Normal,100,100,1023,1646,1017,1006,2,False,False,False,False,False,0,False,False,False,False,30,,,,21.339,True,3.557,3.557,3.557,3.557,3.557,3.557,,False,False,,,,,,1,,,5,23179.1,3433.95,,Idle,,25,,5,,12,Go Home,False,False,False,False,False,False,False,False,False,False,False,False,-7.2802687217922,112.79194988971,1.4,34.5,1640.4,True,1,1,False,False,False,False,,True,False,False,Course Lock,328,,9.8,88,,,,,Calm,False,False,Linux,0.0.1,DJI FPV,37QBJ3G00B020K,3F2TJ1429200MP,37RBHB600B03LB,37WPJ3CAA10285,90,0.6,98.4,20.61027,10.961006,0,2044,DJI FPV,37QBJ3G00B020K,3F2TJ1429200MP,37RBHB600B03LB,37WPJ3CAA10285,DJI Fly,Linux,0.0.1,CE5F98D1-4631-A413-8B20-756CE5CF2FB8,37QBJ3G00B020K,3F2TJ1429200MP,3F2TJ1429200MP,37RBHB600B03LB,37WPJ3CAA10285,,,,,,
6/27/2025,3:31:42.77 AM,0m 1.8s,1.8,-7.2802661540235,112.791952777804,0,0,,12,0.6,0,0,0,0,0,0,0,0,-10.1,-2.8,-106.4,253.6,,Manual Takeoff,Drop Go Home,Takeoff (RC Assisted),21,5,True,,DJI FPV,False,False,,Smart,RC,True,True,False,,,True,,False,False,False,False,False,False,False,False,False,False,0,Free,0,-3.5,-109.7,250.3,False,False,False,False,False,True,,True,Normal,100,100,1020,1684,1017,1005,2,False,False,False,False,False,0,False,False,False,False,30,,,,21.339,True,3.557,3.557,3.557,3.557,3.557,3.557,,False,False,,,,,,1,,,5,23179.1,3433.95,,Idle,,25,,5,,12,Go Home,False,False,False,False,False,False,False,False,False,False,False,False,-7.2802687217922,112.79194988971,1.4,34.5,1640.4,True,1,1,False,False,False,False,,True,False,False,Course Lock,328,,9.8,88,,,,,Calm,False,False,Linux,0.0.1,DJI FPV,37QBJ3G00B020K,3F2TJ1429200MP,37RBHB600B03LB,37WPJ3CAA10285,90,0.6,98.4,20.61027,10.961006,0,2044,DJI FPV,37QBJ3G00B020K,3F2TJ1429200MP,37RBHB600B03LB,37WPJ3CAA10285,DJI Fly,Linux,0.0.1,CE5F98D1-4631-A413-8B20-756CE5CF2FB8,37QBJ3G00B020K,3F2TJ1429200MP,3F2TJ1429200MP,37RBHB600B03LB,37WPJ3CAA10285,,,,,,
6/27/2025,3:31:42.97 AM,0m 2.0s,2.0,-7.2802663068622,112.791952921413,0,0,,12,0.6,0,0,0,0,0,0,0,0,-10.1,-2.8,-106.4,253.6,,Manual Takeoff,Drop Go Home,Takeoff (RC Assisted),21,5,True,,DJI FPV,False,False,,Smart,RC,True,True,False,,,True,,False,False,False,False,False,False,False,False,False,False,0,Free,0,-3.5,-109.7,250.3,False,False,False,False,False,True,,True,Normal,100,100,1018,1684,1017,1005,2,False,False,False,False,False,0,False,False,False,False,30,,,,21.339,True,3.557,3.557,3.557,3.557,3.557,3.557,,False,False,,,,,,1,,,5,23179.1,3433.95,,Idle,,25,,5,,12,Go Home,False,False,False,False,False,False,False,False,False,False,False,False,-7.2802687217922,112.79194988971,1.4,34.5,1640.4,True,1,1,False,False,False,False,,True,False,False,Course Lock,328,,9.8,88,,,,,Calm,False,False,Linux,0.0.1,DJI FPV,37QBJ3G00B020K,3F2TJ1429200MP,37RBHB600B03LB,37WPJ3CAA10285,90,0.6,98.4,20.61027,10.961006,0,2044,DJI FPV,37QBJ3G00B020K,3F2TJ1429200MP,37RBHB600B03LB,37WPJ3CAA10285,DJI Fly,Linux,0.0.1,CE5F98D1-4631-A413-8B20-756CE5CF2FB8,37QBJ3G00B020K,3F2TJ1429200MP,3F2TJ1429200MP,37RBHB600B03LB,37WPJ3CAA10285,,,,,,
6/27/2025,3:31:43.17 AM,0m 2.2s,2.2,-7.2802662710888,112.791952880603,0,0,,12,0.6,0,0,0,0,0,0,0,0,-10.1,-2.8,-106.4,253.6,,Manual Takeoff,Drop Go Home,Takeoff (RC Assisted),21,5,True,,DJI FPV,False,False,,Smart,RC,True,True,False,,,True,,False,False,False,False,False,False,False,False,False,False,0,Free,0,-3.5,-109.6,250.4,False,False,False,False,False,True,,True,Normal,100,100,1017,1513,1018,1005,2,False,False,False,False,False,0,False,False,False,False,30,,,,21.322,True,3.554,3.554,3.554,3.554,3.554,3.554,,False,False,,,,,,1,,,5,21878.0,3241.19,,Idle,,25,,5,,12,Go Home,False,False,False,False,False,False,False,False,False,False,False,False,-7.2802687217922,112.79194988971,1.4,34.5,1640.4,True,1,1,False,False,False,False,,True,False,False,Course Lock,328,,9.8,88,,,,,Calm,False,False,Linux,0.0.1,DJI FPV,37QBJ3G00B020K,3F2TJ1429200MP,37RBHB600B03LB,37WPJ3CAA10285,90,0.6,98.4,20.61027,10.961006,0,2044,DJI FPV,37QBJ3G00B020K,3F2TJ1429200MP,37RBHB600B03LB,37WPJ3CAA10285,DJI Fly,Linux,0.0.1,CE5F98D1-4631-A413-8B20-756CE5CF2FB8,37QBJ3G00B020K,3F2TJ1429200MP,3F2TJ1429200MP,37RBHB600B03LB,37WPJ3CAA10285,,,,,,
6/27/2025,3:31:43.37 AM,0m 2.4s,2.4,-7.2802664120901,112.79195302032,0,0,,12,0.7,0,0,0,0,0,0,0,0,-10.1,-2.8,-106.4,253.6,,Manual Takeoff,Drop Go Home,Takeoff (RC Assisted),22,5,True,,DJI FPV,False,False,,Smart,RC,True,True,False,,,True,,False,False,False,False,False,False,False,False,False,False,0,Free,0,-3.5,-109.6,250.4,False,False,False,False,False,True,,True,Normal,100,100,1020,1099,1017,1005,2,False,False,False,False,False,0,False,False,False,False,30,,,,21.322,True,3.554,3.554,3.554,3.554,3.554,3.554,,False,False,,,,,,1,,,5,21878.0,3241.19,,Idle,,25,,5,,12,Go Home,False,False,False,False,False,False,False,False,False,False,False,False,-7.2802687217922,112.79194988971,1.4,34.5,1640.4,True,1,1,False,False,False,False,,True,False,False,Course Lock,328,,9.8,88,,,,,Calm,False,False,Linux,0.0.1,DJI FPV,37QBJ3G00B020K,3F2TJ1429200MP,37RBHB600B03LB,37WPJ3CAA10285,90,0.6,98.4,20.61027,10.961006,0,2044,DJI FPV,37QBJ3G00B020K,3F2TJ1429200MP,37RBHB600B03LB,37WPJ3CAA10285,DJI Fly,Linux,0.0.1,CE5F98D1-4631-A413-8B20-756CE5CF2FB8,37QBJ3G00B020K,3F2TJ1429200MP,3F2TJ1429200MP,37RBHB600B03LB,37WPJ3CAA10285,,,,,,
6/27/2025,3:31:43.57 AM,0m 2.6s,2.6,-7.2802665438927,112.791952978881,0,0,,12,0.8,0,0,0,0,0,0,0,0,-10.1,-2.8,-106.4,253.6,,Manual Takeoff,Drop Go Home,Takeoff (RC Assisted),22,5,True,,DJI FPV,False,False,,Smart,RC,True,True,False,,,True,,False,False,False,False,False,False,False,False,False,False,0,Free,0,-3.5,-109.6,250.4,False,False,False,False,False,True,,True,Normal,100,100,1020,1018,1017,1005,2,False,False,False,False,False,0,False,False,False,False,30,,,,21.322,True,3.554,3.554,3.554,3.554,3.554,3.554,,False,False,,,,,,1,,,5,21878.0,3241.19,,Idle,,25,,5,,12,Go Home,False,False,False,False,False,False,False,False,False,False,False,False,-7.2802687217922,112.79194988971,1.3,34.5,1640.4,True,1,1,False,False,False,False,,True,False,False,Course Lock,328,,9.8,88,,,,,Calm,False,False,Linux,0.0.1,DJI FPV,37QBJ3G00B020K,3F2TJ1429200MP,37RBHB600B03LB,37WPJ3CAA10285,90,0.6,98.4,20.61027,10.961006,0,2044,DJI FPV,37QBJ3G00B020K,3F2TJ1429200MP,37RBHB600B03LB,37WPJ3CAA10285,DJI Fly,Linux,0.0.1,CE5F98D1-4631-A413-8B20-756CE5CF2FB8,37QBJ3G00B020K,3F2TJ1429200MP,3F2TJ1429200MP,37RBHB600B03LB,37WPJ3CAA10285,,,,,,
6/27/2025,3:31:43.77 AM,0m 2.8s,2.8,-7.2802666494354,112.791952933267,0,0,,12,0.8,0,0,0,0,0,0,0,0,-10.1,-2.8,-106.4,253.6,,Manual Takeoff,Drop Go Home,Takeoff (RC Assisted),22,5,True,,DJI FPV,False,False,,Smart,RC,True,True,False,,,True,,False,False,False,False,False,False,False,False,False,False,0,Free,0,-3.5,-109.6,250.4,False,False,False,False,False,True,,True,Normal,100,100,1020,1017,1017,1005,2,False,False,False,False,False,0,False,False,False,False,30,,,,21.322,True,3.554,3.554,3.554,3.554,3.554,3.554,,False,False,,,,,,1,,,5,21878.0,3241.19,,Idle,,25,,5,,12,Go Home,False,False,False,False,False,False,False,False,False,False,False,False,-7.2802687217922,112.79194988971,1.3,34.5,1640.4,True,1,1,False,False,False,False,,True,False,False,Course Lock,328,,9.8,88,,,,,Calm,False,False,Linux,0.0.1,DJI FPV,37QBJ3G00B020K,3F2TJ1429200MP,37RBHB600B03LB,37WPJ3CAA10285,90,0.6,98.4,20.61027,10.961006,0,2044,DJI FPV,37QBJ3G00B020K,3F2TJ1429200MP,37RBHB600B03LB,37WPJ3CAA10285,DJI Fly,Linux,0.0.1,CE5F98D1-4631-A413-8B20-756CE5CF2FB8,37QBJ3G00B020K,3F2TJ1429200MP,3F2TJ1429200MP,37RBHB600B03LB,37WPJ3CAA10285,,,,,,
6/27/2025,3:31:43.97 AM,0m 3.0s,3.0,-7.2802667689551,112.791952905388,0,0,,12,0.9,0,0,0,0,0,0,0,0,-10.1,-2.8,-106.4,253.6,,Manual Takeoff,Drop Go Home,Takeoff (RC Assisted),22,5,True,,DJI FPV,False,False,,Smart,RC,True,True,False,,,True,,False,False,False,False,False,False,False,False,False,False,0,Free,0,-3.5,-109.6,250.4,False,False,False,False,False,True,,True,Normal,100,100,1019,1017,1017,1005,2,False,False,False,False,False,0,False,False,False,False,30,21.325,532,1776,21.322,False,3.55,3.553,3.555,3.555,3.556,3.557,0.007,False,False,1.472,108,107.9,107.9,,1,,,5,21878.0,3241.19,,Idle,,25,,5,,12,Go Home,False,False,False,False,False,False,False,False,False,False,False,False,-7.2802687217922,112.79194988971,1.3,34.5,1640.4,True,1,1,False,False,False,False,,True,False,False,Course Lock,328,,9.8,88,,,,,Calm,False,False,Linux,0.0.1,DJI FPV,37QBJ3G00B020K,3F2TJ1429200MP,37RBHB600B03LB,37WPJ3CAA10285,90,0.6,98.4,20.61027,10.961006,0,2044,DJI FPV,37QBJ3G00B020K,3F2TJ1429200MP,37RBHB600B03LB,37WPJ3CAA10285,DJI Fly,Linux,0.0.1,CE5F98D1-4631-A413-8B20-756CE5CF2FB8,37QBJ3G00B020K,3F2TJ1429200MP,3F2TJ1429200MP,37RBHB600B03LB,37WPJ3CAA10285,,,,,,
6/27/2025,3:31:44.17 AM,0m 3.2s,3.2,-7.280266710023,112.791952883484,0.3,0.3,,13,0.9,0,0,0,0,0,0,0,0,-10.1,-2.8,-106.4,253.6,,Manual Takeoff,Drop Go Home,Takeoff (RC Assisted),22,5,True,,DJI FPV,False,False,,Smart,RC,True,True,False,,,True,,False,False,False,False,False,False,False,False,False,False,0,Free,0,-3.5,-109.6,250.4,False,False,False,False,False,True,,True,Normal,100,100,1019,1018,1017,1005,2,False,False,False,False,False,0,False,False,False,False,30,21.325,532,1776,21.32,False,3.55,3.553,3.555,3.555,3.556,3.557,0.007,False,False,1.472,108,107.9,107.9,,1,,,5,20807.2,3082.56,,Idle,,25,,5,,12,Go Home,False,False,False,False,False,False,False,False,False,False,False,False,-7.2802687217922,112.79194988971,1.3,34.5,1640.4,True,1,1,False,False,False,False,,True,False,False,Course Lock,328,,9.8,88,,,,,Calm,False,False,Linux,0.0.1,DJI FPV,37QBJ3G00B020K,3F2TJ1429200MP,37RBHB600B03LB,37WPJ3CAA10285,90,0.6,98.4,20.61027,10.961006,0,2044,DJI FPV,37QBJ3G00B020K,3F2TJ1429200MP,37RBHB600B03LB,37WPJ3CAA10285,DJI Fly,Linux,0.0.1,CE5F98D1-4631-A413-8B20-756CE5CF2FB8,37QBJ3G00B020K,3F2TJ1429200MP,3F2TJ1429200MP,37RBHB600B03LB,37WPJ3CAA10285,,,,,,
6/27/2025,3:31:44.37 AM,0m 3.4s,3.4,-7.2802668327554,112.791953038383,0.3,0.3,,13,1.0,0,0,0,0,0,0,0,0,-10.1,-2.8,-106.4,253.6,,Manual Takeoff,Drop Go Home,Takeoff (RC Assisted),22,5,True,,DJI FPV,False,False,,Smart,RC,True,True,False,,,True,,False,False,False,False,False,False,False,False,False,False,0,Free,0,-3.5,-109.5,250.5,False,False,False,False,False,True,,True,Normal,100,100,899,1212,1017,1005,2,False,False,False,False,False,0,False,False,False,False,30,21.325,532,1776,21.32,False,3.55,3.553,3.555,3.555,3.556,3.557,0.007,False,False,1.472,108,107.9,107.9,,1,,,5,20807.2,3082.56,,Idle,,25,,5,,12,Go Home,False,False,False,False,False,False,False,False,False,False,False,False,-7.2802687217922,112.79194988971,1.3,34.5,1640.4,True,1,1,False,False,False,False,,True,False,False,Course Lock,328,,9.8,88,,,,,Calm,False,False,Linux,0.0.1,DJI FPV,37QBJ3G00B020K,3F2TJ1429200MP,37RBHB600B03LB,37WPJ3CAA10285,90,0.6,98.4,20.61027,10.961006,0,2044,DJI FPV,37QBJ3G00B020K,3F2TJ1429200MP,37RBHB600B03LB,37WPJ3CAA10285,DJI Fly,Linux,0.0.1,CE5F98D1-4631-A413-8B20-756CE5CF2FB8,37QBJ3G00B020K,3F2TJ1429200MP,3F2TJ1429200MP,37RBHB600B03LB,37WPJ3CAA10285,,,,,,
6/27/2025,3:31:44.57 AM,0m 3.6s,3.6,-7.2802667762456,112.791953012475,0.3,0.3,,13,1.0,0,0,0,0,0,0,0,0,-10.1,-2.8,-106.4,253.6,,Manual Takeoff,Drop Go Home,Takeoff (RC Assisted),22,5,True,,DJI FPV,False,False,,Smart,RC,True,True,False,,,True,,False,False,False,False,False,False,False,False,False,False,0,Free,0,-3.5,-109.5,250.5,False,False,False,False,False,True,,True,Normal,100,100,860,1510,1684,1006,2,False,False,False,False,False,0,False,False,False,False,30,21.325,532,1776,21.32,False,3.55,3.553,3.555,3.555,3.556,3.557,0.007,False,False,1.472,108,107.9,107.9,,1,,,5,20807.2,3082.56,,Idle,,25,,5,,12,Go Home,False,False,False,False,False,False,False,False,False,False,False,False,-7.2802687217922,112.79194988971,1.3,34.5,1640.4,True,1,1,False,False,False,False,,True,False,False,Course Lock,328,,9.8,88,,,,,Calm,False,False,Linux,0.0.1,DJI FPV,37QBJ3G00B020K,3F2TJ1429200MP,37RBHB600B03LB,37WPJ3CAA10285,90,0.6,98.4,20.61027,10.961006,0,2044,DJI FPV,37QBJ3G00B020K,3F2TJ1429200MP,37RBHB600B03LB,37WPJ3CAA10285,DJI Fly,Linux,0.0.1,CE5F98D1-4631-A413-8B20-756CE5CF2FB8,37QBJ3G00B020K,3F2TJ1429200MP,3F2TJ1429200MP,37RBHB600B03LB,37WPJ3CAA10285,,,,,,
6/27/2025,3:31:44.77 AM,0m 3.8s,3.8,-7.280266914589,112.7919528178,0.6,0.6,,13,1.1,0,0,0,0,0,0,0,0,-10.1,-2.8,-106.4,253.6,,Manual Takeoff,Drop Go Home,Takeoff (RC Assisted),22,5,True,,DJI FPV,False,False,,Smart,RC,True,True,False,,,True,,False,False,False,False,False,False,False,False,False,False,0,Free,0,-3.4,-109.5,250.5,False,False,False,False,False,True,,True,Normal,100,100,959,1684,1684,1180,2,False,False,False,False,False,0,False,False,False,False,30,21.325,532,1776,21.32,False,3.55,3.553,3.555,3.555,3.556,3.557,0.007,False,False,1.472,108,107.9,107.9,,1,,,5,20807.2,3082.56,,Idle,,25,,5,,12,Go Home,False,False,False,False,False,False,False,False,False,False,False,False,-7.2802687217922,112.79194988971,1.2,34.5,1640.4,True,1,1,False,False,False,False,,True,False,False,Course Lock,328,,9.8,88,,,,,Calm,False,False,Linux,0.0.1,DJI FPV,37QBJ3G00B020K,3F2TJ1429200MP,37RBHB600B03LB,37WPJ3CAA10285,90,0.6,98.4,20.61027,10.961006,0,2044,DJI FPV,37QBJ3G00B020K,3F2TJ1429200MP,37RBHB600B03LB,37WPJ3CAA10285,DJI Fly,Linux,0.0.1,CE5F98D1-4631-A413-8B20-756CE5CF2FB8,37QBJ3G00B020K,3F2TJ1429200MP,3F2TJ1429200MP,37RBHB600B03LB,37WPJ3CAA10285,,,,,,
6/27/2025,3:31:44.97 AM,0m 4.0s,4.0,-7.2802670288915,112.791952985922,0.6,0.6,,13,1.1,0,0,0,0,0,0,0,0,-10.2,-2.8,-106.3,253.7,,Manual Takeoff,Drop Go Home,Takeoff (RC Assisted),22,5,True,,DJI FPV,False,False,,Smart,RC,True,True,False,,,True,,False,False,False,False,False,False,False,False,False,False,0,Free,0,-3.3,-109.5,250.5,False,False,False,False,False,True,,True,Normal,100,100,951,1684,1684,1108,2,False,False,False,False,False,0,False,False,False,False,30,21.312,532,1776,21.32,False,3.548,3.551,3.553,3.553,3.553,3.554,0.007,False,False,1.556,108,107.9,107.9,,1,,,5,20807.2,3082.56,,Idle,,25,,5,,12,Go Home,False,False,False,False,False,False,False,False,False,False,False,False,-7.2802687217922,112.79194988971,1.2,34.5,1640.4,True,1,1,False,False,False,False,,True,False,False,Course Lock,328,,9.8,88,,,,,Calm,False,False,Linux,0.0.1,DJI FPV,37QBJ3G00B020K,3F2TJ1429200MP,37RBHB600B03LB,37WPJ3CAA10285,90,0.6,98.4,20.61027,10.961006,0,2044,DJI FPV,37QBJ3G00B020K,3F2TJ1429200MP,37RBHB600B03LB,37WPJ3CAA10285,DJI Fly,Linux,0.0.1,CE5F98D1-4631-A413-8B20-756CE5CF2FB8,37QBJ3G00B020K,3F2TJ1429200MP,3F2TJ1429200MP,37RBHB600B03LB,37WPJ3CAA10285,,,,,,
6/27/2025,3:31:45.17 AM,0m 4.2s,4.2,-7.2802669712616,112.791952968951,0.6,0.6,,13,1.2,0,0,0,0,0,0,-0.223694,0,-10.2,-2.6,-106.2,253.8,,Manual Takeoff,Drop Go Home,Takeoff (RC Assisted),22,5,True,,DJI FPV,False,False,,Smart,RC,True,True,False,,,True,,False,False,False,False,False,False,False,False,False,False,0,Free,0,-2.7,-109.1,250.9,False,False,False,False,False,True,,True,Normal,100,100,975,1684,1684,1106,2,False,False,False,False,False,0,False,False,False,False,30,21.312,532,1776,21.288,False,3.548,3.551,3.553,3.553,3.553,3.554,0.007,False,False,1.556,108,107.9,107.9,,,,,5,19826.7,2937.29,,Idle,,25,,5,,12,Go Home,False,False,False,False,False,False,False,False,False,False,False,False,-7.2802687217922,112.79194988971,1.2,34.5,1640.4,True,1,1,False,False,False,False,,True,False,False,Course Lock,328,,9.8,88,,,,,Calm,False,False,Linux,0.0.1,DJI FPV,37QBJ3G00B020K,3F2TJ1429200MP,37RBHB600B03LB,37WPJ3CAA10285,90,0.6,98.4,20.61027,10.961006,0,2044,DJI FPV,37QBJ3G00B020K,3F2TJ1429200MP,37RBHB600B03LB,37WPJ3CAA10285,DJI Fly,Linux,0.0.1,CE5F98D1-4631-A413-8B20-756CE5CF2FB8,37QBJ3G00B020K,3F2TJ1429200MP,3F2TJ1429200MP,37RBHB600B03LB,37WPJ3CAA10285,,,,,,
6/27/2025,3:31:45.37 AM,0m 4.4s,4.4,-7.2802670807258,112.791953130371,0.9,0.9,,13,1.2,0,0,0,0,0,0,-0.223694,0,-9.7,-1.5,-105.9,254.1,,Manual Takeoff,Drop Go Home,Takeoff (RC Assisted),22,5,True,,DJI FPV,False,False,,Smart,RC,True,True,False,,,True,,False,False,False,False,False,False,False,False,False,False,0,Free,0,-1.3,-108.5,251.5,False,False,False,False,False,True,,True,Normal,100,100,983,1684,1684,1111,2,False,False,False,False,False,0,False,False,False,False,30,21.312,532,1776,21.288,False,3.548,3.551,3.553,3.553,3.553,3.554,0.007,False,False,1.556,108,107.9,107.9,,,,,5,19826.7,2937.29,,Idle,,25,,5,,12,Go Home,False,False,False,False,False,False,False,False,False,False,False,False,-7.2802687217922,112.79194988971,1.3,34.5,1640.4,True,1,1,False,False,False,False,,True,False,False,Course Lock,328,,9.8,88,,,,,Calm,False,False,Linux,0.0.1,DJI FPV,37QBJ3G00B020K,3F2TJ1429200MP,37RBHB600B03LB,37WPJ3CAA10285,90,0.6,98.4,20.61027,10.961006,0,2044,DJI FPV,37QBJ3G00B020K,3F2TJ1429200MP,37RBHB600B03LB,37WPJ3CAA10285,DJI Fly,Linux,0.0.1,CE5F98D1-4631-A413-8B20-756CE5CF2FB8,37QBJ3G00B020K,3F2TJ1429200MP,3F2TJ1429200MP,37RBHB600B03LB,37WPJ3CAA10285,,,,,,
6/27/2025,3:31:45.57 AM,0m 4.6s,4.6,-7.2802671727071,112.791953279298,0.9,0.9,,13,1.3,0,0,0,0,0,0,-0.223694,0,-9.6,-0.1,-105.4,254.6,,Manual Takeoff,Drop Go Home,Takeoff (RC Assisted),22,5,True,,DJI FPV,False,False,,Smart,RC,True,True,False,,,True,,False,False,False,False,False,False,False,False,False,False,0,Free,0,-0.1,-106.3,253.7,False,False,False,False,False,True,,True,Normal,100,100,988,1684,1684,1105,2,False,False,False,False,False,0,False,False,False,False,30,21.312,532,1776,21.288,False,3.548,3.551,3.553,3.553,3.553,3.554,0.007,False,False,1.556,108,107.9,107.9,,,,,5,19826.7,2937.29,,Idle,,25,,5,,12,Go Home,False,False,False,False,False,False,False,False,False,False,False,False,-7.2802687217922,112.79194988971,1.3,34.5,1640.4,True,1,1,False,False,False,False,,True,False,False,Course Lock,328,,9.8,88,,,,,Calm,False,False,Linux,0.0.1,DJI FPV,37QBJ3G00B020K,3F2TJ1429200MP,37RBHB600B03LB,37WPJ3CAA10285,90,0.6,98.4,20.61027,10.961006,0,2044,DJI FPV,37QBJ3G00B020K,3F2TJ1429200MP,37RBHB600B03LB,37WPJ3CAA10285,DJI Fly,Linux,0.0.1,CE5F98D1-4631-A413-8B20-756CE5CF2FB8,37QBJ3G00B020K,3F2TJ1429200MP,3F2TJ1429200MP,37RBHB600B03LB,37WPJ3CAA10285,,,,,,
6/27/2025,3:31:45.77 AM,0m 4.8s,4.8,-7.2802671223912,112.791953177458,0.9,0.9,,13,1.3,0,0,0,0,0,0,-0.223694,0,-10.9,0.5,-102.7,257.3,,Manual Takeoff,Drop Go Home,Takeoff (RC Assisted),22,5,True,,DJI FPV,False,False,,Smart,RC,True,True,False,,,True,,False,False,False,False,False,False,False,False,False,False,0,Free,0,0,-105.2,254.8,False,False,False,False,False,True,,True,Normal,100,100,984,1684,1684,1074,2,False,False,False,False,False,0,False,False,False,False,30,21.312,532,1776,21.288,False,3.548,3.551,3.553,3.553,3.553,3.554,0.007,False,False,1.556,108,107.9,107.9,,,,,5,19826.7,2937.29,,Idle,,25,,5,,12,Go Home,False,False,False,False,False,False,False,False,False,False,False,False,-7.2802687217922,112.79194988971,1.3,34.5,1640.4,True,1,1,False,False,False,False,,True,False,False,Course Lock,328,,9.8,88,,,,,Calm,False,False,Linux,0.0.1,DJI FPV,37QBJ3G00B020K,3F2TJ1429200MP,37RBHB600B03LB,37WPJ3CAA10285,90,0.6,98.4,20.61027,10.961006,0,2044,DJI FPV,37QBJ3G00B020K,3F2TJ1429200MP,37RBHB600B03LB,37WPJ3CAA10285,DJI Fly,Linux,0.0.1,CE5F98D1-4631-A413-8B20-756CE5CF2FB8,37QBJ3G00B020K,3F2TJ1429200MP,3F2TJ1429200MP,37RBHB600B03LB,37WPJ3CAA10285,,,,,,
6/27/2025,3:31:45.97 AM,0m 5.0s,5.0,-7.2802673558942,112.791952824453,1.3,1.3,,14,1.5,0.671082,0.671082,0,0,-0.671082,0,-0.447388,0,-9.7,0.6,-102.9,257.1,236.3,Manual Takeoff,Drop Go Home,,22,5,True,,DJI FPV,False,False,,Smart,RC,False,True,False,,,True,,False,False,False,False,False,False,False,False,False,False,0,Free,0,0,-105.6,254.4,False,False,False,False,False,True,,True,Normal,100,100,990,1684,1684,1061,2,False,False,False,False,False,0,False,False,False,False,30,21.099,528,1776,21.288,False,3.509,3.518,3.519,3.518,3.517,3.518,0.01,False,False,3.788,108,107.9,107.9,,,,,5,19826.7,2937.29,,Idle,,25,,5,,12,Go Home,False,False,False,False,False,False,False,False,False,False,False,False,-7.2802687217922,112.79194988971,1.1,34.5,1640.4,True,1,1,False,False,False,False,,True,False,False,Course Lock,328,,9.8,88,,,,,Calm,False,False,Linux,0.0.1,DJI FPV,37QBJ3G00B020K,3F2TJ1429200MP,37RBHB600B03LB,37WPJ3CAA10285,90,0.6,98.4,20.61027,10.961006,0,2044,DJI FPV,37QBJ3G00B020K,3F2TJ1429200MP,37RBHB600B03LB,37WPJ3CAA10285,DJI Fly,Linux,0.0.1,CE5F98D1-4631-A413-8B20-756CE5CF2FB8,37QBJ3G00B020K,3F2TJ1429200MP,3F2TJ1429200MP,37RBHB600B03LB,37WPJ3CAA10285,,,,,,
6/27/2025,3:31:46.17 AM,0m 5.2s,5.2,-7.280267539362,112.791951690262,1.6,1.6,,14,1.9,1.803478,1.803478,-0.223694,0,-1.789552,0,-1.342164,0,-19.1,-0.1,-102.7,257.3,260.7,P-GPS,Drop Go Home,,22,5,True,,DJI FPV,False,False,,Smart,RC,False,True,False,,,True,,False,False,False,False,False,False,False,False,False,False,0,Free,0,-0.3,-105.3,254.7,False,False,False,False,False,True,,True,Normal,100,100,997,1684,1684,1043,2,False,False,False,False,False,0,False,False,False,False,30,21.099,528,1776,21.052,False,3.509,3.518,3.519,3.518,3.517,3.518,0.01,False,False,3.788,108,107.9,107.9,,,,,6,19152.6,2837.42,,Idle,,25,,5,,12,Go Home,False,False,False,False,False,False,False,False,False,False,False,False,-7.2802673510668,112.791952837561,0.4,34.5,1640.4,True,1,1,False,False,False,False,,True,False,False,Course Lock,328,,9.8,88,,,,,Calm,False,False,Linux,0.0.1,DJI FPV,37QBJ3G00B020K,3F2TJ1429200MP,37RBHB600B03LB,37WPJ3CAA10285,90,0.6,98.4,20.61027,10.961006,0,2044,DJI FPV,37QBJ3G00B020K,3F2TJ1429200MP,37RBHB600B03LB,37WPJ3CAA10285,DJI Fly,Linux,0.0.1,CE5F98D1-4631-A413-8B20-756CE5CF2FB8,37QBJ3G00B020K,3F2TJ1429200MP,3F2TJ1429200MP,37RBHB600B03LB,37WPJ3CAA10285,,,,,Home point updated. RTH altitude adjusted to 100m.; Flight mode changed to P-GPS.,
6/27/2025,3:31:46.37 AM,0m 5.4s,5.4,-7.2802681389417,112.791949391407,2.2,2.2,0.9,15,2.8,3.861557,3.861557,-0.671082,0,-3.802798,0,-3.131716,0,-16.9,0.7,-102.6,257.4,255.2,P-GPS,Drop Go Home,,22,5,True,,DJI FPV,True,False,,Smart,RC,False,True,False,,,True,,False,False,False,False,False,False,False,False,False,False,0,Free,0,-0.2,-105.2,254.8,False,False,False,False,False,True,,True,Normal,100,100,1003,1684,1684,1044,2,False,False,False,False,False,0,False,False,False,False,30,21.099,528,1776,21.052,False,3.509,3.518,3.519,3.518,3.517,3.518,0.01,False,False,3.788,108,107.9,107.9,,,,,6,19152.6,2837.42,,Idle,,25,,5,,12,Go Home,False,False,False,False,False,False,False,False,False,False,False,False,-7.2802673510668,112.791952837561,1.2,34.5,1640.4,True,1,1,False,False,False,False,,True,False,False,Course Lock,328,,9.8,88,,,,,Calm,False,False,Linux,0.0.1,DJI FPV,37QBJ3G00B020K,3F2TJ1429200MP,37RBHB600B03LB,37WPJ3CAA10285,90,0.6,98.4,20.61027,10.961006,0,2044,DJI FPV,37QBJ3G00B020K,3F2TJ1429200MP,37RBHB600B03LB,37WPJ3CAA10285,DJI Fly,Linux,0.0.1,CE5F98D1-4631-A413-8B20-756CE5CF2FB8,37QBJ3G00B020K,3F2TJ1429200MP,3F2TJ1429200MP,37RBHB600B03LB,37WPJ3CAA10285,,,,,,
6/27/2025,3:31:46.57 AM,0m 5.6s,5.6,-7.2802691051656,112.79194569682,3.6,3.6,2.2,16,4.1,5.483925,5.483925,-1.11847,0,-5.368656,0,-5.816044,0,-14.3,0.5,-102.4,257.6,255.2,P-GPS,Drop Go Home,,22,5,True,,DJI FPV,True,False,,Smart,RC,False,True,False,,,True,,False,False,False,False,False,False,False,False,False,False,0,Free,0,0.3,-105,255,False,False,False,False,False,True,,True,Normal,100,100,983,1656,1678,1030,2,False,False,False,False,False,0,False,False,False,False,30,21.099,528,1776,21.052,False,3.509,3.518,3.519,3.518,3.517,3.518,0.01,False,False,3.788,108,107.9,107.9,,,,,6,19152.6,2837.42,,Idle,,25,,5,,12,Go Home,False,False,False,False,False,False,False,False,False,False,False,False,-7.2802673510668,112.791952837561,2.6,34.5,1640.4,True,1,1,False,False,False,False,,True,False,False,Course Lock,328,,9.8,88,,,,,Calm,False,False,Linux,0.0.1,DJI FPV,37QBJ3G00B020K,3F2TJ1429200MP,37RBHB600B03LB,37WPJ3CAA10285,90,0.6,98.4,20.61027,10.961006,0,2044,DJI FPV,37QBJ3G00B020K,3F2TJ1429200MP,37RBHB600B03LB,37WPJ3CAA10285,DJI Fly,Linux,0.0.1,CE5F98D1-4631-A413-8B20-756CE5CF2FB8,37QBJ3G00B020K,3F2TJ1429200MP,3F2TJ1429200MP,37RBHB600B03LB,37WPJ3CAA10285,,,,,,
6/27/2025,3:31:46.77 AM,0m 5.8s,5.8,-7.2802705382199,112.791940697403,5.5,5.5,4.5,18,6.0,7.109106,7.109106,-1.565858,0,-6.934514,0,-8.724066,0,-16.3,1.3,-102.6,257.4,253.8,P-GPS,Drop Go Home,,22,5,True,,DJI FPV,True,False,,Smart,RC,False,True,False,,,True,,False,False,False,False,False,False,False,False,False,False,0,Free,0,0.1,-105,255,False,False,False,False,False,True,,True,Normal,100,100,999,1430,1399,1009,2,False,False,False,False,False,0,False,False,False,False,30,21.099,528,1776,21.052,False,3.509,3.518,3.519,3.518,3.517,3.518,0.01,False,False,3.788,108,107.9,107.9,,,,,6,19152.6,2837.42,,Idle,,25,,5,,12,Go Home,False,False,False,False,False,False,False,False,False,False,False,False,-7.2802673510668,112.791952837561,4.5,34.5,1640.4,True,1,1,False,False,False,False,,True,False,False,Course Lock,328,,9.8,88,,,,,Calm,False,False,Linux,0.0.1,DJI FPV,37QBJ3G00B020K,3F2TJ1429200MP,37RBHB600B03LB,37WPJ3CAA10285,90,0.6,98.4,20.61027,10.961006,0,2044,DJI FPV,37QBJ3G00B020K,3F2TJ1429200MP,37RBHB600B03LB,37WPJ3CAA10285,DJI Fly,Linux,0.0.1,CE5F98D1-4631-A413-8B20-756CE5CF2FB8,37QBJ3G00B020K,3F2TJ1429200MP,3F2TJ1429200MP,37RBHB600B03LB,37WPJ3CAA10285,,,,,,
6/27/2025,3:31:46.97 AM,0m 6.0s,6.0,-7.2802718386406,112.791934507077,8.2,8.2,7.5,21,8.3,8.467933,8.467933,-1.789552,0,-8.276678,0,-10.961006,0,-9.5,0.3,-102.5,257.5,258.0,P-GPS,Drop Go Home,,22,5,True,,DJI FPV,True,False,,Smart,RC,False,True,False,,,True,,False,False,False,False,False,False,False,False,False,False,0,Free,0,-0.6,-105.1,254.9,False,False,False,False,False,True,,True,Normal,100,100,1016,1126,1020,1006,2,False,False,False,False,False,0,False,False,False,False,30,20.667,528,1776,21.052,False,3.433,3.45,3.45,3.444,3.442,3.448,0.017,False,True,16.588,108.1,107.9,108.1,,,,,6,19152.6,2837.42,,Idle,,25,,5,,12,Go Home,False,False,False,False,False,False,False,False,False,False,False,False,-7.2802673510668,112.791952837561,6.8,34.5,1640.4,True,1,1,False,False,False,False,,True,False,False,Course Lock,328,,9.8,88,,,,,Calm,False,False,Linux,0.0.1,DJI FPV,37QBJ3G00B020K,3F2TJ1429200MP,37RBHB600B03LB,37WPJ3CAA10285,90,0.6,98.4,20.61027,10.961006,0,2044,DJI FPV,37QBJ3G00B020K,3F2TJ1429200MP,37RBHB600B03LB,37WPJ3CAA10285,DJI Fly,Linux,0.0.1,CE5F98D1-4631-A413-8B20-756CE5CF2FB8,37QBJ3G00B020K,3F2TJ1429200MP,3F2TJ1429200MP,37RBHB600B03LB,37WPJ3CAA10285,,,,,Home point updated. RTH altitude adjusted to 100m.; Downward ambient light too low. Obstacle avoidance unavailable. Fly with caution.; Forward ambient light too low. Obstacle avoidance unavailable. Fly with caution.,
6/27/2025,3:31:47.17 AM,0m 6.2s,6.2,-7.2802728054298,112.791927702375,11.4,11.4,10.8,24,10.8,8.467933,8.467933,-1.789552,0,-8.276678,0,-10.513618,0,-1,0,-102.4,257.6,261.8,P-GPS,Drop Go Home,,22,5,True,,DJI FPV,True,False,,Smart,RC,False,True,False,,,True,,False,False,False,False,False,False,False,False,False,False,0,Free,0,-0.7,-105,255,False,False,False,False,False,True,,True,Normal,100,100,1017,1021,1018,1006,2,False,False,False,False,False,0,False,False,False,False,30,20.667,528,1776,20.932,False,3.433,3.45,3.45,3.444,3.442,3.448,0.017,False,True,16.588,108.1,107.9,108.1,,7,,,7,21771.8,3225.45,,Idle,,25,,5,,12,Go Home,False,False,False,False,False,False,False,False,False,False,False,False,-7.2802673510668,112.791952837561,9.3,34.5,1640.4,True,1,1,False,False,False,False,,True,False,False,Course Lock,328,,9.8,88,,,,,Calm,False,False,Linux,0.0.1,DJI FPV,37QBJ3G00B020K,3F2TJ1429200MP,37RBHB600B03LB,37WPJ3CAA10285,90,0.6,98.4,20.61027,10.961006,0,2044,DJI FPV,37QBJ3G00B020K,3F2TJ1429200MP,37RBHB600B03LB,37WPJ3CAA10285,DJI Fly,Linux,0.0.1,CE5F98D1-4631-A413-8B20-756CE5CF2FB8,37QBJ3G00B020K,3F2TJ1429200MP,3F2TJ1429200MP,37RBHB600B03LB,37WPJ3CAA10285,,,,,,
6/27/2025,3:31:47.37 AM,0m 6.4s,6.4,-7.2802740150408,112.791921380251,14.4,14.4,14.1,27,13.1,8.031206,8.467933,-1.789552,0,-7.82929,0,-9.171454,0,9.8,0.4,-102.4,257.6,259.0,P-GPS,Drop Go Home,,22,5,True,,DJI FPV,True,False,,Smart,RC,False,True,False,,,True,,False,False,False,False,False,False,False,False,False,False,0,Free,0,0.3,-104.7,255.3,False,False,False,False,False,True,,True,Normal,100,100,1019,1017,1017,995,2,False,False,False,False,False,0,False,False,False,False,30,20.667,528,1776,20.932,False,3.433,3.45,3.45,3.444,3.442,3.448,0.017,False,True,16.588,108.1,107.9,108.1,,7,,,7,21771.8,3225.45,,Idle,,25,,5,,12,Go Home,False,False,False,False,False,False,False,False,False,False,False,False,-7.2802673510668,112.791952837561,11.6,34.5,1640.4,True,1,1,False,False,False,False,,True,False,False,Course Lock,328,,9.8,88,,,,,Calm,False,False,Linux,0.0.1,DJI FPV,37QBJ3G00B020K,3F2TJ1429200MP,37RBHB600B03LB,37WPJ3CAA10285,90,0.6,98.4,20.61027,10.961006,0,2044,DJI FPV,37QBJ3G00B020K,3F2TJ1429200MP,37RBHB600B03LB,37WPJ3CAA10285,DJI Fly,Linux,0.0.1,CE5F98D1-4631-A413-8B20-756CE5CF2FB8,37QBJ3G00B020K,3F2TJ1429200MP,3F2TJ1429200MP,37RBHB600B03LB,37WPJ3CAA10285,,,,,,
6/27/2025,3:31:47.57 AM,0m 6.6s,6.6,-7.2802756304684,112.791915375698,17.0,17.0,16.4,29,15.4,6.891082,8.467933,-1.565858,0,-6.71082,0,-7.381902,0,23.2,1.4,-102.1,257.9,254.8,P-GPS,Drop Go Home,,22,5,True,,DJI FPV,True,False,,Smart,RC,False,True,False,,,True,,False,False,False,False,False,False,False,False,False,False,0,Free,0,0,-107.1,252.9,False,False,False,False,False,True,,True,Normal,100,100,1020,1018,1020,647,2,False,False,False,False,False,0,False,False,False,False,30,20.667,528,1776,20.932,False,3.433,3.45,3.45,3.444,3.442,3.448,0.017,False,True,16.588,108.1,107.9,108.1,,7,,,7,21771.8,3225.45,,Idle,,25,,5,,12,Go Home,False,False,False,False,False,False,False,False,False,False,False,False,-7.2802673510668,112.791952837561,13.8,34.5,1640.4,True,1,1,False,False,False,False,,True,False,False,Course Lock,328,,9.8,88,,,,,Calm,False,False,Linux,0.0.1,DJI FPV,37QBJ3G00B020K,3F2TJ1429200MP,37RBHB600B03LB,37WPJ3CAA10285,90,0.6,98.4,20.61027,10.961006,0,2044,DJI FPV,37QBJ3G00B020K,3F2TJ1429200MP,37RBHB600B03LB,37WPJ3CAA10285,DJI Fly,Linux,0.0.1,CE5F98D1-4631-A413-8B20-756CE5CF2FB8,37QBJ3G00B020K,3F2TJ1429200MP,3F2TJ1429200MP,37RBHB600B03LB,37WPJ3CAA10285,,,,,,
6/27/2025,3:31:47.77 AM,0m 6.8s,6.8,-7.2802767156979,112.791910016738,19.0,19.0,18.3,31,17.4,5.751154,8.467933,-1.342164,0,-5.59235,0,-5.144962,0,24.7,-1.5,-107.8,252.2,258.4,P-GPS,Drop Go Home,,22,5,True,,DJI FPV,True,False,,Smart,RC,False,True,False,,,True,,False,False,False,False,False,False,False,False,False,False,0,Free,0,-5.5,-112.6,247.4,False,False,False,False,False,True,,True,Normal,100,100,1019,1018,1021,625,2,False,False,False,False,False,0,False,False,False,False,30,20.667,528,1776,20.932,False,3.433,3.45,3.45,3.444,3.442,3.448,0.017,False,True,16.588,108.1,107.9,108.1,,7,,,7,21771.8,3225.45,,Idle,,25,,5,,12,Go Home,False,False,False,False,False,False,False,False,False,False,False,False,-7.2802673510668,112.791952837561,15.8,34.5,1640.4,True,1,1,False,False,False,False,,True,False,False,Course Lock,328,,9.8,88,,,,,Calm,False,False,Linux,0.0.1,DJI FPV,37QBJ3G00B020K,3F2TJ1429200MP,37RBHB600B03LB,37WPJ3CAA10285,90,0.6,98.4,20.61027,10.961006,0,2044,DJI FPV,37QBJ3G00B020K,3F2TJ1429200MP,37RBHB600B03LB,37WPJ3CAA10285,DJI Fly,Linux,0.0.1,CE5F98D1-4631-A413-8B20-756CE5CF2FB8,37QBJ3G00B020K,3F2TJ1429200MP,3F2TJ1429200MP,37RBHB600B03LB,37WPJ3CAA10285,,,,,,
6/27/2025,3:31:47.97 AM,0m 7.0s,7.0,-7.2802775535566,112.791905503567,20.3,20.3,19.6,33,19.0,4.394889,8.467933,-1.11847,0,-4.250186,0,-2.684328,0,24.9,-6.9,-116.3,243.7,259.3,P-GPS,Drop Go Home,,22,5,True,,DJI FPV,True,False,,Smart,RC,False,True,False,,,True,,False,False,False,False,False,False,False,False,False,False,0,Free,-0.1,-8.5,-120.1,239.9,False,False,False,False,False,True,,True,Normal,100,100,1019,1017,1022,626,2,False,False,False,False,False,0,False,False,False,False,30,21.096,524,1776,20.932,False,3.504,3.515,3.518,3.519,3.519,3.522,0.018,False,False,9.604,108,107.9,108.1,,7,,,7,21771.8,3225.45,,Idle,,25,,5,,12,Go Home,False,False,False,False,False,False,False,False,False,False,False,False,-7.2802673510668,112.791952837561,17.5,34.5,1640.4,True,1,1,False,False,False,False,,True,False,False,Course Lock,328,,9.8,88,,,,,Calm,False,False,Linux,0.0.1,DJI FPV,37QBJ3G00B020K,3F2TJ1429200MP,37RBHB600B03LB,37WPJ3CAA10285,90,0.6,98.4,20.61027,10.961006,0,2044,DJI FPV,37QBJ3G00B020K,3F2TJ1429200MP,37RBHB600B03LB,37WPJ3CAA10285,DJI Fly,Linux,0.0.1,CE5F98D1-4631-A413-8B20-756CE5CF2FB8,37QBJ3G00B020K,3F2TJ1429200MP,3F2TJ1429200MP,37RBHB600B03LB,37WPJ3CAA10285,,,,,Ambient light too low. Obstacle avoidance unavailable.; Home point updated. RTH altitude adjusted to 100m.; Forward ambient light too low. Obstacle avoidance unavailable. Fly with caution.; Downward ambient light too low. Obstacle avoidance unavailable. Fly with caution.,
6/27/2025,3:31:48.17 AM,0m 7.2s,7.2,-7.2802785370985,112.79190200684,20.6,20.6,20.3,33,20.3,3.042567,8.467933,-0.894776,0,-2.908022,0,-0.894776,0,24.9,-8.9,-125.3,234.7,254.1,P-GPS,Drop Go Home,,22,5,True,,DJI FPV,True,False,,Smart,RC,False,True,False,,,True,,False,False,False,False,False,False,False,False,False,False,0,Free,-0.1,-8.5,-128,232,False,False,False,False,False,True,,True,Normal,100,100,989,1174,1023,702,2,False,False,False,False,False,0,False,False,False,False,30,21.096,524,1776,20.568,False,3.504,3.515,3.518,3.519,3.519,3.522,0.018,False,False,9.604,108,107.9,108.1,,13,1,19,7,28428.4,4211.61,,Idle,,25,,5,,12,Go Home,False,False,False,False,False,False,False,False,False,False,False,False,-7.2802673510668,112.791952837561,18.8,34.5,1640.4,True,1,1,False,False,False,False,,True,False,False,Course Lock,328,,9.8,88,,,,,Calm,False,False,Linux,0.0.1,DJI FPV,37QBJ3G00B020K,3F2TJ1429200MP,37RBHB600B03LB,37WPJ3CAA10285,90,0.6,98.4,20.61027,10.961006,0,2044,DJI FPV,37QBJ3G00B020K,3F2TJ1429200MP,37RBHB600B03LB,37WPJ3CAA10285,DJI Fly,Linux,0.0.1,CE5F98D1-4631-A413-8B20-756CE5CF2FB8,37QBJ3G00B020K,3F2TJ1429200MP,3F2TJ1429200MP,37RBHB600B03LB,37WPJ3CAA10285,,,,,,
6/27/2025,3:31:48.37 AM,0m 7.4s,7.4,-7.2802790028131,112.791899830245,20.9,20.9,20.6,33,21.1,1.414765,8.467933,-0.447388,0,-1.342164,0,-0.223694,0,16.2,-7.7,-130.8,229.2,257.8,P-GPS,Drop Go Home,,22,5,True,,DJI FPV,True,False,,Smart,RC,False,True,False,,,True,,False,False,False,False,False,False,False,False,False,False,0,Free,-0.1,-7.3,-134.5,225.5,False,False,False,False,False,True,,True,Normal,100,100,990,1274,1024,697,2,False,False,False,False,False,0,False,False,False,False,30,21.096,524,1776,20.568,False,3.504,3.515,3.518,3.519,3.519,3.522,0.018,False,False,9.604,108,107.9,108.1,,13,1,19,7,28428.4,4211.61,,Idle,,25,,5,,12,Go Home,False,False,False,False,False,False,False,False,False,False,False,False,-7.2802673510668,112.791952837561,19.6,34.5,1640.4,True,1,1,False,False,False,False,,True,False,False,Course Lock,328,,9.8,88,,,,,Calm,False,False,Linux,0.0.1,DJI FPV,37QBJ3G00B020K,3F2TJ1429200MP,37RBHB600B03LB,37WPJ3CAA10285,90,0.6,98.4,20.61027,10.961006,0,2044,DJI FPV,37QBJ3G00B020K,3F2TJ1429200MP,37RBHB600B03LB,37WPJ3CAA10285,DJI Fly,Linux,0.0.1,CE5F98D1-4631-A413-8B20-756CE5CF2FB8,37QBJ3G00B020K,3F2TJ1429200MP,3F2TJ1429200MP,37RBHB600B03LB,37WPJ3CAA10285,,,,,,
6/27/2025,3:31:48.57 AM,0m 7.6s,7.6,-7.2802792048968,112.791898791998,20.9,20.9,20.3,33,21.5,0.632702,8.467933,-0.447388,0,-0.447388,0,0,0,0.9,-6,-134.9,225.1,258.8,P-GPS,Drop Go Home,,24,5,True,,DJI FPV,True,False,,Smart,RC,False,True,False,,,True,,False,False,False,False,False,False,False,False,False,False,0,Free,-0.1,-5.5,-141.2,218.8,False,False,False,False,False,True,,True,Normal,100,100,1015,1344,1024,609,2,False,False,False,False,False,0,False,False,False,False,30,21.096,524,1776,20.568,False,3.504,3.515,3.518,3.519,3.519,3.522,0.018,False,False,9.604,108,107.9,108.1,,13,1,19,7,28428.4,4211.61,,Idle,,25,,5,,12,Go Home,False,False,False,False,False,False,False,False,False,False,False,False,-7.2802673510668,112.791952837561,20.0,34.5,1640.4,True,1,1,False,False,False,False,,True,False,False,Course Lock,328,,9.8,88,,,,,Calm,False,False,Linux,0.0.1,DJI FPV,37QBJ3G00B020K,3F2TJ1429200MP,37RBHB600B03LB,37WPJ3CAA10285,90,0.6,98.4,20.61027,10.961006,0,2044,DJI FPV,37QBJ3G00B020K,3F2TJ1429200MP,37RBHB600B03LB,37WPJ3CAA10285,DJI Fly,Linux,0.0.1,CE5F98D1-4631-A413-8B20-756CE5CF2FB8,37QBJ3G00B020K,3F2TJ1429200MP,3F2TJ1429200MP,37RBHB600B03LB,37WPJ3CAA10285,,,,,,
6/27/2025,3:31:48.77 AM,0m 7.8s,7.8,-7.2802794165284,112.791898276705,20.9,20.9,20.3,33,21.7,0.922313,8.467933,-0.894776,0,-0.223694,0,0,0,-5.2,-4.2,-141.7,218.3,247.5,P-GPS,Drop Go Home,,23,5,True,,DJI FPV,True,False,,Smart,RC,False,True,False,,,True,,False,False,False,False,False,False,False,False,False,False,0,Free,-0.1,-3.8,-150.1,209.9,False,False,False,False,False,True,,True,Normal,100,100,1016,1358,1023,601,2,False,False,False,False,False,0,False,False,False,False,30,21.096,524,1776,20.568,False,3.504,3.515,3.518,3.519,3.519,3.522,0.018,False,False,9.604,108,107.9,108.1,,13,1,19,7,28428.4,4211.61,,Idle,,25,,5,,12,Go Home,False,False,False,False,False,False,False,False,False,False,False,False,-7.2802673510668,112.791952837561,20.2,34.5,1640.4,True,1,1,False,False,False,False,,True,False,False,Course Lock,328,,9.8,88,,,,,Calm,False,False,Linux,0.0.1,DJI FPV,37QBJ3G00B020K,3F2TJ1429200MP,37RBHB600B03LB,37WPJ3CAA10285,90,0.6,98.4,20.61027,10.961006,0,2044,DJI FPV,37QBJ3G00B020K,3F2TJ1429200MP,37RBHB600B03LB,37WPJ3CAA10285,DJI Fly,Linux,0.0.1,CE5F98D1-4631-A413-8B20-756CE5CF2FB8,37QBJ3G00B020K,3F2TJ1429200MP,3F2TJ1429200MP,37RBHB600B03LB,37WPJ3CAA10285,,,,,Ambient light too low. Obstacle avoidance unavailable.; Home point updated. RTH altitude adjusted to 100m.; Downward ambient light too low. Obstacle avoidance unavailable. Fly with caution.; Forward ambient light too low. Obstacle avoidance unavailable. Fly with caution.,
6/27/2025,3:31:48.97 AM,0m 8.0s,8.0,-7.2802806846967,112.791898236977,20.6,20.9,20.0,33,22.2,1.565858,8.467933,-1.565858,0,0,0,0,0,-4.3,-2.9,-151.1,208.9,181.7,P-GPS,Drop Go Home,,24,5,True,,DJI FPV,True,False,,Smart,RC,False,True,False,,,True,,False,False,False,False,False,False,False,False,False,False,0,Free,0,-2.7,-159.1,200.9,False,False,False,False,False,True,,True,Normal,100,100,1017,1363,1024,604,2,False,False,False,False,False,0,False,False,False,False,30,20.965,520,1776,20.568,False,3.483,3.495,3.496,3.496,3.496,3.499,0.018,False,True,6.228,108.1,107.9,108.1,,13,1,19,7,28428.4,4211.61,,Idle,,25,,5,,12,Go Home,False,False,False,False,False,False,False,False,False,False,False,False,-7.2802673510668,112.791952837561,20.3,34.5,1640.4,True,1,1,False,False,False,False,,True,False,False,Course Lock,328,,9.8,88,,,,,Calm,False,False,Linux,0.0.1,DJI FPV,37QBJ3G00B020K,3F2TJ1429200MP,37RBHB600B03LB,37WPJ3CAA10285,90,0.6,98.4,20.61027,10.961006,0,2044,DJI FPV,37QBJ3G00B020K,3F2TJ1429200MP,37RBHB600B03LB,37WPJ3CAA10285,DJI Fly,Linux,0.0.1,CE5F98D1-4631-A413-8B20-756CE5CF2FB8,37QBJ3G00B020K,3F2TJ1429200MP,3F2TJ1429200MP,37RBHB600B03LB,37WPJ3CAA10285,,,,,,
6/27/2025,3:31:49.17 AM,0m 8.2s,8.2,-7.280281835849,112.791898733157,20.6,20.9,19.6,33,22.7,2.013246,8.467933,-2.013246,0,0,0,0,0,-3.9,-2,-160.3,199.7,156.8,P-GPS,Drop Go Home,,24,5,True,,DJI FPV,True,False,,Smart,RC,False,True,False,,,True,,False,False,False,False,False,False,False,False,False,False,0,Free,0,-2.1,-168.1,191.9,False,False,False,False,False,True,,True,Normal,100,100,1018,1365,1046,609,2,False,False,False,False,False,0,False,False,False,False,30,20.965,520,1776,21.096,False,3.483,3.495,3.496,3.496,3.496,3.499,0.018,False,True,6.228,108.1,107.9,108.1,,14,1,19,7,32180.8,4767.53,,Idle,,25,,5,,12,Go Home,False,False,False,False,False,False,False,False,False,False,False,False,-7.2802673510668,112.791952837561,20.2,34.5,1640.4,True,1,1,False,False,False,False,,True,False,False,Course Lock,328,,9.8,88,,,,,Calm,False,False,Linux,0.0.1,DJI FPV,37QBJ3G00B020K,3F2TJ1429200MP,37RBHB600B03LB,37WPJ3CAA10285,90,0.6,98.4,20.61027,10.961006,0,2044,DJI FPV,37QBJ3G00B020K,3F2TJ1429200MP,37RBHB600B03LB,37WPJ3CAA10285,DJI Fly,Linux,0.0.1,CE5F98D1-4631-A413-8B20-756CE5CF2FB8,37QBJ3G00B020K,3F2TJ1429200MP,3F2TJ1429200MP,37RBHB600B03LB,37WPJ3CAA10285,,,,,,
6/27/2025,3:31:49.37 AM,0m 8.4s,8.4,-7.2802834384583,112.791899131096,20.3,20.9,19.3,33,23.3,2.23694,8.467933,-2.23694,0,0,0,0,0,-4,-1.7,-169.3,190.7,166.1,P-GPS,Drop Go Home,,24,5,True,,DJI FPV,True,False,,Smart,RC,False,True,False,,,True,,False,False,False,False,False,False,False,False,False,False,0,Free,0,-2.1,-177,183,False,False,False,False,False,True,,True,Normal,100,100,1018,1384,1081,588,2,False,False,False,False,False,0,False,False,False,False,30,20.965,520,1776,21.096,False,3.483,3.495,3.496,3.496,3.496,3.499,0.018,False,True,6.228,108.1,107.9,108.1,,14,1,19,7,32180.8,4767.53,,Idle,,25,,5,,12,Go Home,False,False,False,False,False,False,False,False,False,False,False,False,-7.2802673510668,112.791952837561,20.3,34.5,1640.4,True,1,1,False,False,False,False,,True,False,False,Course Lock,328,,9.8,88,,,,,Calm,False,False,Linux,0.0.1,DJI FPV,37QBJ3G00B020K,3F2TJ1429200MP,37RBHB600B03LB,37WPJ3CAA10285,90,0.6,98.4,20.61027,10.961006,0,2044,DJI FPV,37QBJ3G00B020K,3F2TJ1429200MP,37RBHB600B03LB,37WPJ3CAA10285,DJI Fly,Linux,0.0.1,CE5F98D1-4631-A413-8B20-756CE5CF2FB8,37QBJ3G00B020K,3F2TJ1429200MP,3F2TJ1429200MP,37RBHB600B03LB,37WPJ3CAA10285,,,,,,
6/27/2025,3:31:49.57 AM,0m 8.6s,8.6,-7.2802853777574,112.791899474487,20.3,20.9,19.3,33,24.0,2.47078,8.467933,-2.460634,0,0.223694,0.223694,0,0,-4.1,-1.9,-178.6,181.4,170.0,P-GPS,Drop Go Home,,24,5,True,,DJI FPV,True,False,,Smart,RC,False,True,False,,,True,,False,False,False,False,False,False,False,False,False,False,0,Free,0,-2.4,173.1,173.1,False,False,False,False,False,True,,True,Normal,100,100,1018,1388,1091,563,2,False,False,False,False,False,0,False,False,False,False,30,20.965,520,1776,21.096,False,3.483,3.495,3.496,3.496,3.496,3.499,0.018,False,True,6.228,108.1,107.9,108.1,,14,1,19,7,32180.8,4767.53,,Idle,,25,,5,,12,Go Home,False,False,False,False,False,False,False,False,False,False,False,False,-7.2802673510668,112.791952837561,20.3,34.5,1640.4,True,1,1,False,False,False,False,,True,False,False,Course Lock,328,,9.8,88,,,,,Calm,False,False,Linux,0.0.1,DJI FPV,37QBJ3G00B020K,3F2TJ1429200MP,37RBHB600B03LB,37WPJ3CAA10285,90,0.6,98.4,20.61027,10.961006,0,2044,DJI FPV,37QBJ3G00B020K,3F2TJ1429200MP,37RBHB600B03LB,37WPJ3CAA10285,DJI Fly,Linux,0.0.1,CE5F98D1-4631-A413-8B20-756CE5CF2FB8,37QBJ3G00B020K,3F2TJ1429200MP,3F2TJ1429200MP,37RBHB600B03LB,37WPJ3CAA10285,,,,,,
6/27/2025,3:31:49.77 AM,0m 8.8s,8.8,-7.2802874029906,112.791900206074,20.3,20.9,19.3,33,24.8,2.766941,8.467933,-2.684328,0,0.671082,0.671082,0,0,-3.5,-2.6,171.1,171.1,160.2,P-GPS,Drop Go Home,,24,5,True,,DJI FPV,True,False,,Smart,RC,False,True,False,,,True,,False,False,False,False,False,False,False,False,False,False,0,Free,0,-3.2,162.5,162.5,False,False,False,False,False,True,,True,Normal,100,100,1018,1387,1135,583,2,False,False,False,False,False,0,False,False,False,False,30,20.965,520,1776,21.096,False,3.483,3.495,3.496,3.496,3.496,3.499,0.018,False,True,6.228,108.1,107.9,108.1,,14,1,19,7,32180.8,4767.53,,Idle,,25,,5,,12,Go Home,False,False,False,False,False,False,False,False,False,False,False,False,-7.2802673510668,112.791952837561,20.4,34.5,1640.4,True,1,1,False,False,False,False,,True,False,False,Course Lock,328,,9.8,88,,,,,Calm,False,False,Linux,0.0.1,DJI FPV,37QBJ3G00B020K,3F2TJ1429200MP,37RBHB600B03LB,37WPJ3CAA10285,90,0.6,98.4,20.61027,10.961006,0,2044,DJI FPV,37QBJ3G00B020K,3F2TJ1429200MP,37RBHB600B03LB,37WPJ3CAA10285,DJI Fly,Linux,0.0.1,CE5F98D1-4631-A413-8B20-756CE5CF2FB8,37QBJ3G00B020K,3F2TJ1429200MP,3F2TJ1429200MP,37RBHB600B03LB,37WPJ3CAA10285,,,,,Ambient light too low. Obstacle avoidance unavailable.,
6/27/2025,3:31:49.97 AM,0m 9.0s,9.0,-7.2802897728145,112.791901352624,20.3,20.9,19.3,33,25.7,3.042567,8.467933,-2.908022,0,0.894776,0.894776,-0.223694,0,-3.5,-3.5,160.6,160.6,154.3,P-GPS,Drop Go Home,,24,5,True,,DJI FPV,True,False,,Smart,RC,False,True,False,,,True,,False,False,False,False,False,False,False,False,False,False,0,Free,0,-3.8,152.9,152.9,False,False,False,False,False,True,,True,Normal,100,100,1017,1416,1175,604,2,False,False,False,False,False,0,False,False,False,False,30,20.924,520,1776,21.096,False,3.476,3.486,3.489,3.49,3.49,3.493,0.018,False,True,8.368,108.1,107.9,108.1,,14,1,19,7,32180.8,4767.53,,Idle,,25,,5,,12,Go Home,False,False,False,False,False,False,False,False,False,False,False,False,-7.2802673510668,112.791952837561,20.3,34.5,1640.4,True,1,1,False,False,False,False,,True,False,False,Course Lock,328,,9.8,88,,,,,Calm,False,False,Linux,0.0.1,DJI FPV,37QBJ3G00B020K,3F2TJ1429200MP,37RBHB600B03LB,37WPJ3CAA10285,90,0.6,98.4,20.61027,10.961006,0,2044,DJI FPV,37QBJ3G00B020K,3F2TJ1429200MP,37RBHB600B03LB,37WPJ3CAA10285,DJI Fly,Linux,0.0.1,CE5F98D1-4631-A413-8B20-756CE5CF2FB8,37QBJ3G00B020K,3F2TJ1429200MP,3F2TJ1429200MP,37RBHB600B03LB,37WPJ3CAA10285,,,,,,
6/27/2025,3:31:50.17 AM,0m 9.2s,9.2,-7.2802924484172,112.791902375325,20.6,20.9,19.6,33,26.8,3.501364,8.467933,-3.131716,0,1.565858,1.565858,-0.894776,0,-3.7,-4,151.4,151.4,159.2,P-GPS,Drop Go Home,,25,5,True,,DJI FPV,True,False,,Smart,RC,False,True,False,,,True,,False,False,False,False,False,False,False,False,False,False,0,Free,0,-4.1,144.6,144.6,False,False,False,False,False,True,,True,Normal,100,100,1017,1441,1196,725,2,False,False,False,False,False,0,False,False,False,False,30,20.924,520,1776,20.934,False,3.476,3.486,3.489,3.49,3.49,3.493,0.018,False,True,8.368,108.1,107.9,108.1,,14,1,19,7,33363.2,4942.70,,Idle,,25,,5,,12,Go Home,False,False,False,False,False,False,False,False,False,False,False,False,-7.2802673510668,112.791952837561,20.4,34.5,1640.4,True,1,1,False,False,False,False,,True,False,False,Course Lock,328,,9.8,88,,,,,Calm,False,False,Linux,0.0.1,DJI FPV,37QBJ3G00B020K,3F2TJ1429200MP,37RBHB600B03LB,37WPJ3CAA10285,90,0.6,98.4,20.61027,10.961006,0,2044,DJI FPV,37QBJ3G00B020K,3F2TJ1429200MP,37RBHB600B03LB,37WPJ3CAA10285,DJI Fly,Linux,0.0.1,CE5F98D1-4631-A413-8B20-756CE5CF2FB8,37QBJ3G00B020K,3F2TJ1429200MP,3F2TJ1429200MP,37RBHB600B03LB,37WPJ3CAA10285,,,,,,
