sep=,
CUSTOM.date [local],CUSTOM.updateTime [local],OSD.flyTime,OSD.flyTime [s],OSD.latitude,OSD.longitude,OSD.height [ft],OSD.heightMax [ft],OSD.vpsHeight [ft],OSD.altitude [ft],OSD.mileage [ft],OSD.hSpeed [MPH],OSD.hSpeedMax [MPH],OSD.xSpeed [MPH],OSD.xSpeedMax [MPH],OSD.ySpeed [MPH],OSD.ySpeedMax [MPH],OSD.zSpeed [MPH],OSD.zSpeedMax [MPH],OSD.pitch,OSD.roll,OSD.yaw,OSD.yaw [360],OSD.directionOfTravel,OSD.flycState,OSD.flycCommand,OSD.flightAction,OSD.gpsNum,OSD.gpsLevel,OSD.isGPSUsed,OSD.nonGPSCause,OSD.droneType,OSD.isSwaveWork,OSD.waveError,OSD.goHomeStatus,OSD.batteryType,OSD.ctrlDevice,OSD.isOnGround,OSD.isMotorOn,OSD.isMotorBlocked,OSD.motorStartFailedCause,OSD.motorFailReason,OSD.isImuPreheated,OSD.imuInitFailReason,OSD.isAcceletorOverRange,OSD.isBarometerDeadInAir,OSD.isCompassError,OSD.isGoHomeHeightModified,OSD.canIOCWork,OSD.isNotEnoughForce,OSD.isOutOfLimit,OSD.isPropellerCatapult,OSD.isVibrating,OSD.isVisionUsed,OSD.voltageWarning,GIMBAL.mode,GIMBAL.pitch,GIMBAL.roll,GIMBAL.yaw,GIMBAL.yaw [360],GIMBAL.isPitchAtLimit,GIMBAL.isRollAtLimit,GIMBAL.isYawAtLimit,GIMBAL.isStuck,CAMERA.isPhoto,CAMERA.isVideo,CAMERA.filename,CAMERA.sdCardIsInserted,CAMERA.sdCardState,RC.downlinkSignal,RC.uplinkSignal,RC.aileron,RC.elevator,RC.throttle,RC.rudder,RC.mode,RC.goHomeDepressed,RC.recordDepressed,RC.shutterDepressed,RC.playbackDepressed,RC.wheelDepressed,RC.wheelOffset,RC.custom1Depressed,RC.custom2Depressed,RC.custom3Depressed,RC.custom4Depressed,BATTERY.chargeLevel,BATTERY.currentPV [V],BATTERY.currentCapacity [mAh],BATTERY.fullCapacity [mAh],BATTERY.voltage [V],BATTERY.isCellVoltageEstimated,BATTERY.cellVoltage1 [V],BATTERY.cellVoltage2 [V],BATTERY.cellVoltage3 [V],BATTERY.cellVoltage4 [V],BATTERY.cellVoltage5 [V],BATTERY.cellVoltage6 [V],BATTERY.maxCellVoltageDeviation,BATTERY.isCellVoltageDeviationHigh,BATTERY.isVoltageLow,BATTERY.current [A],BATTERY.temperature [F],BATTERY.minTemperature [F],BATTERY.maxTemperature [F],BATTERY.usefulTime [s],BATTERY.goHomeTime [s],BATTERY.landTime [s],BATTERY.goHomeBattery,BATTERY.landBattery,BATTERY.safeFlyRadius,BATTERY.volumeConsume,BATTERY.status,BATTERY.goHomeStatus,BATTERY.goHomeCountdown,BATTERY.lowWarning,BATTERY.lowWarningGoHome,BATTERY.seriousLowWarning,BATTERY.seriousLowWarningLanding,BATTERY.timesCharged,MC.failSafeAction,MC.isObstacleAvoidanceEnabled,MC.isCollisionAvoidanceEnabled,MC.isRthObstacleAvoidanceEnabled,MC.isBraking,MC.isAvoidingObstacle,MC.isAvoidingActiveObstacle,MC.isAscentLimitedByObstacle,MC.isLandingConfirmationNeeded,MC.atLowAltitudeLimit,MC.atDistanceLimit,MC.atAirportAltitudeLimit,MC.atAirportBoundary,HOME.latitude,HOME.longitude,HOME.distance [ft],HOME.height [ft],HOME.heightLimit [ft],HOME.isHomeRecord,HOME.goHomeMode,HOME.aircraftHeadDirection,HOME.isDynamicHomePointEnabled,HOME.isReachedLimitDistance,HOME.isReachedLimitHeight,HOME.isCompassCalibrating,HOME.compassCalibrationState,HOME.isMultipleFlightModeEnabled,HOME.isBeginnerMode,HOME.isIOCEnabled,HOME.iocMode,HOME.goHomeHeight [ft],HOME.courseLockAngle,HOME.forceLandingHeight [ft],HOME.dataRecorderFileIndex,WEATHER.windDirection,WEATHER.windRelativeDirection,WEATHER.windSpeed [MPH],WEATHER.maxWindSpeed [MPH],WEATHER.windStrength,WEATHER.isFacingWind,WEATHER.isFlyingIntoWind,RECOVER.appType,RECOVER.appVersion,RECOVER.aircraftName,RECOVER.aircraftSerial,RECOVER.cameraSerial,RECOVER.rcSerial,RECOVER.batterySerial,DETAILS.totalTime [s],DETAILS.totalDistance [ft],DETAILS.maxHeight [ft],DETAILS.maxHorizontalSpeed [MPH],DETAILS.maxVerticalSpeed [MPH],DETAILS.photoNum,DETAILS.videoTime [s],DETAILS.aircraftName,DETAILS.aircraftSerial,DETAILS.cameraSerial,DETAILS.rcSerial,DETAILS.batterySerial,DETAILS.appName,DETAILS.appType,DETAILS.appVersion,DETAILS.guid,SERIAL.flightController,SERIAL.camera,SERIAL.gimbal,SERIAL.rc,SERIAL.battery,SERIAL.battery2,APPGPS.latitude,APPGPS.longitude,APPGPS.accuracy,APP.tip,APP.warning
5/12/2025,8:01:12.62 AM,0m 0.0s,0.0,-7.2806647594959,112.796856334923,0,0,0.3,10,0,0,0,0,0,0,0,0,0,-11.2,-0.8,-90.7,269.3,,Starting Motors,Other,Takeoff (RC Assisted),20,5,True,,DJI FPV,False,False,,Smart,RC,True,True,False,,,True,,False,False,False,False,False,False,False,False,False,False,0,Free,0,-0.8,-90.5,269.5,False,False,False,False,False,False,,True,Normal,,100,364,364,364,1684,2,False,False,False,False,False,0,False,False,False,False,,,,,,True,,,,,,,,False,False,,,,,,,,,,,,,Idle,,,,,,13,Go Home,False,False,False,False,False,False,False,False,False,False,False,False,,,,,,False,,,False,False,False,False,,False,False,False,,,,,,,,,,Calm,False,False,Linux,0.0.1,DJI FPV,37QBJ3G00B020K,3F2TJ1429200MP,37RBHB600B03LB,37WPHCPAA104CB,530.6,7.6,518.3,30.714528,17.89552,0,0,DJI FPV,37QBJ3G00B020K,3F2TJ1429200MP,37RBHB600B03LB,37WPJ3CAA10285,DJI Fly,Linux,0.0.1,5DE6E7DC-60B8-7E4C-8834-4F71ABBC8BD5,37QBJ3G00B020K,3F2TJ1429200MP,,37RBHB600B03LB,37WPJ3CAA10285,,,,,Motors starting.; Flight mode changed to Starting Motors.,
5/12/2025,8:01:12.82 AM,0m 0.2s,0.2,-7.2806644579545,112.796856015256,0,0,0.3,10,0,0,0,0,0,0,0,0,0,-11.2,-0.8,-90.7,269.3,,Starting Motors,Other,Takeoff (RC Assisted),21,5,True,,DJI FPV,False,False,,Smart,RC,True,True,False,,,True,,False,False,False,False,False,False,False,False,False,False,0,Free,0,-0.8,-90.5,269.5,False,False,False,False,False,False,,True,Normal,100,100,364,364,364,1684,2,False,False,False,False,False,0,False,False,False,False,,,,,,True,,,,,,,,False,False,,,,,,,,,,,,,Idle,,,,,,13,Go Home,False,False,False,False,False,False,False,False,False,False,False,False,,,,,,False,,,False,False,False,False,,False,False,False,,,,,,,,,,Calm,False,False,Linux,0.0.1,DJI FPV,37QBJ3G00B020K,3F2TJ1429200MP,37RBHB600B03LB,37WPHCPAA104CB,530.6,7.6,518.3,30.714528,17.89552,0,0,DJI FPV,37QBJ3G00B020K,3F2TJ1429200MP,37RBHB600B03LB,37WPJ3CAA10285,DJI Fly,Linux,0.0.1,5DE6E7DC-60B8-7E4C-8834-4F71ABBC8BD5,37QBJ3G00B020K,3F2TJ1429200MP,,37RBHB600B03LB,37WPJ3CAA10285,,,,,,
5/12/2025,8:01:13.02 AM,0m 0.4s,0.4,-7.280664009174,112.796855726445,0,0,0.3,10,0.1,0,0,0,0,0,0,0,0,-11.2,-0.8,-90.7,269.3,,Starting Motors,Other,Takeoff (RC Assisted),21,5,True,,DJI FPV,False,False,,Smart,RC,True,True,False,,,True,,False,False,False,False,False,False,False,False,False,False,0,Free,0,-0.8,-90.5,269.5,False,False,False,False,False,False,,True,Normal,100,100,364,364,364,1684,2,False,False,False,False,False,0,False,False,False,False,,,,,,True,,,,,,,,False,False,,,,,,,,,,,,,Idle,,,,,,13,Go Home,False,False,False,False,False,False,False,False,False,False,False,False,,,,,,False,,,False,False,False,False,,False,False,False,,,,,,,,,,Calm,False,False,Linux,0.0.1,DJI FPV,37QBJ3G00B020K,3F2TJ1429200MP,37RBHB600B03LB,37WPHCPAA104CB,530.6,7.6,518.3,30.714528,17.89552,0,0,DJI FPV,37QBJ3G00B020K,3F2TJ1429200MP,37RBHB600B03LB,37WPJ3CAA10285,DJI Fly,Linux,0.0.1,5DE6E7DC-60B8-7E4C-8834-4F71ABBC8BD5,37QBJ3G00B020K,3F2TJ1429200MP,,37RBHB600B03LB,37WPJ3CAA10285,,,,,,
5/12/2025,8:01:13.22 AM,0m 0.6s,0.6,-7.2806639094664,112.796855602588,0,0,0.3,10,0.2,0,0,0,0,0,0,0,0,-11.2,-0.8,-90.7,269.3,,Starting Motors,Other,Takeoff (RC Assisted),21,5,True,,DJI FPV,False,False,,Smart,RC,True,True,False,,,True,,False,False,False,False,False,False,False,False,False,False,0,Free,0,-0.8,-90.5,269.5,False,False,False,False,False,False,,True,Normal,100,100,364,364,364,1684,2,False,False,False,False,False,0,False,False,False,False,,,,,,True,,,,,,,,False,False,,,,,,,,,,,,,Idle,,,,,,13,Go Home,False,False,False,False,False,False,False,False,False,False,False,False,,,,,,False,,,False,False,False,False,,False,False,False,,,,,,,,,,Calm,False,False,Linux,0.0.1,DJI FPV,37QBJ3G00B020K,3F2TJ1429200MP,37RBHB600B03LB,37WPHCPAA104CB,530.6,7.6,518.3,30.714528,17.89552,0,0,DJI FPV,37QBJ3G00B020K,3F2TJ1429200MP,37RBHB600B03LB,37WPJ3CAA10285,DJI Fly,Linux,0.0.1,5DE6E7DC-60B8-7E4C-8834-4F71ABBC8BD5,37QBJ3G00B020K,3F2TJ1429200MP,,37RBHB600B03LB,37WPJ3CAA10285,,,,,,
5/12/2025,8:01:13.42 AM,0m 0.8s,0.8,-7.2806636193141,112.796855468065,0,0,0.3,10,0.3,0,0,0,0,0,0,0,0,-11.2,-0.8,-90.7,269.3,,Starting Motors,Other,Takeoff (RC Assisted),21,5,True,,DJI FPV,False,False,,Smart,RC,True,True,False,,,True,,False,False,False,False,False,False,False,False,False,False,0,Free,0,-0.8,-90.5,269.5,False,False,False,False,False,False,,True,Normal,100,100,364,364,364,1684,2,False,False,False,False,False,0,False,False,False,False,97,,,,24.702,True,4.117,4.117,4.117,4.117,4.117,4.117,,False,False,,,,,,13,,16,5,5118.7,758.34,,Idle,,25,,5,,13,Go Home,False,False,False,False,False,False,False,False,False,False,False,False,-7.2806950986135,112.796894418987,18.1,111.1,1640.4,True,1,1,False,False,False,False,,True,False,False,Course Lock,328,,9.8,83,,,,,Calm,False,False,Linux,0.0.1,DJI FPV,37QBJ3G00B020K,3F2TJ1429200MP,37RBHB600B03LB,37WPHCPAA104CB,530.6,7.6,518.3,30.714528,17.89552,0,0,DJI FPV,37QBJ3G00B020K,3F2TJ1429200MP,37RBHB600B03LB,37WPJ3CAA10285,DJI Fly,Linux,0.0.1,5DE6E7DC-60B8-7E4C-8834-4F71ABBC8BD5,37QBJ3G00B020K,3F2TJ1429200MP,,37RBHB600B03LB,37WPJ3CAA10285,,,,,Data Recorder File Index is 83.; Set Return to Home (RTH) altitude to 100 m (328 ft).; Set maximum flight altitude to 500 m (1640 ft).,
5/12/2025,8:01:13.62 AM,0m 1.0s,1.0,-7.2806631528957,112.796855325078,0,0,0.3,10,0.5,0,0,0,0,0,0,0,0,-11.2,-0.8,-90.7,269.3,,Starting Motors,Other,Takeoff (RC Assisted),21,5,True,,DJI FPV,False,False,,Smart,RC,True,True,False,,,True,,False,False,False,False,False,False,False,False,False,False,0,Free,0,-0.8,-90.5,269.5,False,False,False,False,False,False,,True,Normal,100,100,619,1006,918,1303,2,False,False,False,False,False,0,False,False,False,False,97,,,,24.702,True,4.117,4.117,4.117,4.117,4.117,4.117,,False,False,,,,,,13,,16,5,5118.7,758.34,,Idle,,25,,5,,13,Go Home,False,False,False,False,False,False,False,False,False,False,False,False,-7.2806950986135,112.796894418987,18.3,111.1,1640.4,True,1,1,False,False,False,False,,True,False,False,Course Lock,328,,9.8,83,,,,,Calm,False,False,Linux,0.0.1,DJI FPV,37QBJ3G00B020K,3F2TJ1429200MP,37RBHB600B03LB,37WPHCPAA104CB,530.6,7.6,518.3,30.714528,17.89552,0,0,DJI FPV,37QBJ3G00B020K,3F2TJ1429200MP,37RBHB600B03LB,37WPJ3CAA10285,DJI Fly,Linux,0.0.1,5DE6E7DC-60B8-7E4C-8834-4F71ABBC8BD5,37QBJ3G00B020K,3F2TJ1429200MP,,37RBHB600B03LB,37WPJ3CAA10285,,,,,,
5/12/2025,8:01:13.82 AM,0m 1.2s,1.2,-7.2806628758139,112.796855174011,0,0,0.3,10,0.6,0,0,0,0,0,0,0,0,-11.2,-0.9,-90.7,269.3,,Starting Motors,Other,Takeoff (RC Assisted),21,5,True,,DJI FPV,False,False,,Smart,RC,True,True,False,,,True,,False,False,False,False,False,False,False,False,False,False,0,Free,0,-0.8,-90.5,269.5,False,False,False,False,False,False,,True,Normal,100,100,1020,1018,1019,1007,2,False,False,False,False,False,0,False,False,False,False,97,,,,24.702,True,4.117,4.117,4.117,4.117,4.117,4.117,,False,False,,,,,,13,,16,5,5118.7,758.34,,Idle,,25,,5,,13,Go Home,False,False,False,False,False,False,False,False,False,False,False,False,-7.2806950986135,112.796894418987,18.4,111.1,1640.4,True,1,1,False,False,False,False,,True,False,False,Course Lock,328,,9.8,83,,,,,Calm,False,False,Linux,0.0.1,DJI FPV,37QBJ3G00B020K,3F2TJ1429200MP,37RBHB600B03LB,37WPHCPAA104CB,530.6,7.6,518.3,30.714528,17.89552,0,0,DJI FPV,37QBJ3G00B020K,3F2TJ1429200MP,37RBHB600B03LB,37WPJ3CAA10285,DJI Fly,Linux,0.0.1,5DE6E7DC-60B8-7E4C-8834-4F71ABBC8BD5,37QBJ3G00B020K,3F2TJ1429200MP,,37RBHB600B03LB,37WPJ3CAA10285,,,,,,
5/12/2025,8:01:14.02 AM,0m 1.4s,1.4,-7.2806627718282,112.796855188485,0,0,0.3,10,0.6,0,0,0,0,0,0,0,0,-11.2,-0.8,-90.7,269.3,,Starting Motors,Other,Takeoff (RC Assisted),21,5,True,,DJI FPV,False,False,,Smart,RC,True,True,False,,,True,,False,False,False,False,False,False,False,False,False,False,0,Free,0,-0.8,-90.5,269.5,False,False,False,False,False,False,,True,Normal,100,100,1019,1018,1018,1006,2,False,False,False,False,False,0,False,False,False,False,97,,,,24.702,True,4.117,4.117,4.117,4.117,4.117,4.117,,False,False,,,,,,13,,16,5,5118.7,758.34,,Idle,,25,,5,,13,Go Home,False,False,False,False,False,False,False,False,False,False,False,False,-7.2806950986135,112.796894418987,18.4,111.1,1640.4,True,1,1,False,False,False,False,,True,False,False,Course Lock,328,,9.8,83,,,,,Calm,False,False,Linux,0.0.1,DJI FPV,37QBJ3G00B020K,3F2TJ1429200MP,37RBHB600B03LB,37WPHCPAA104CB,530.6,7.6,518.3,30.714528,17.89552,0,0,DJI FPV,37QBJ3G00B020K,3F2TJ1429200MP,37RBHB600B03LB,37WPJ3CAA10285,DJI Fly,Linux,0.0.1,5DE6E7DC-60B8-7E4C-8834-4F71ABBC8BD5,37QBJ3G00B020K,3F2TJ1429200MP,,37RBHB600B03LB,37WPJ3CAA10285,,,,,,
5/12/2025,8:01:14.22 AM,0m 1.6s,1.6,-7.2806626524729,112.796855180233,0,0,0.3,10,0.7,0,0,0,0,0,0,0,0,-11.2,-0.8,-90.7,269.3,,Manual Takeoff,Other,Takeoff (RC Assisted),21,5,True,,DJI FPV,False,False,,Smart,RC,True,True,False,,,True,,False,False,False,False,False,False,False,False,False,False,0,Free,0,-0.8,-90.5,269.5,False,False,False,False,False,False,,True,Normal,100,100,1021,1021,1024,1008,2,False,False,False,False,False,0,False,False,False,False,97,,,,24.702,True,4.117,4.117,4.117,4.117,4.117,4.117,,False,False,,,,,,13,,16,5,5118.7,758.34,,Idle,,25,,5,,13,Go Home,False,False,False,False,False,False,False,False,False,False,False,False,-7.2806950986135,112.796894418987,18.4,111.1,1640.4,True,1,1,False,False,False,False,,True,False,False,Course Lock,328,,9.8,83,,,,,Calm,False,False,Linux,0.0.1,DJI FPV,37QBJ3G00B020K,3F2TJ1429200MP,37RBHB600B03LB,37WPHCPAA104CB,530.6,7.6,518.3,30.714528,17.89552,0,0,DJI FPV,37QBJ3G00B020K,3F2TJ1429200MP,37RBHB600B03LB,37WPJ3CAA10285,DJI Fly,Linux,0.0.1,5DE6E7DC-60B8-7E4C-8834-4F71ABBC8BD5,37QBJ3G00B020K,3F2TJ1429200MP,,37RBHB600B03LB,37WPJ3CAA10285,,,,,Flight mode changed to Manual Takeoff.,
5/12/2025,8:01:14.42 AM,0m 1.8s,1.8,-7.2806623424748,112.796855152531,0,0,0.3,10,0.8,0,0,0,0,0,0,0,0,-11.2,-0.8,-90.7,269.3,,Manual Takeoff,Other,Takeoff (RC Assisted),21,5,True,,DJI FPV,False,False,,Smart,RC,True,True,False,,,True,,False,False,False,False,False,False,False,False,False,False,0,Free,0,-0.8,-90.5,269.5,False,False,False,False,False,False,,True,Normal,100,100,1019,1095,1088,1009,2,False,False,False,False,False,0,False,False,False,False,97,,,,24.635,True,4.106,4.106,4.106,4.106,4.106,4.106,,False,False,,,,,,14,,16,5,5278.9,782.06,,Idle,,25,,5,,13,Go Home,False,False,False,False,False,False,False,False,False,False,False,False,-7.2806950986135,112.796894418987,18.5,111.1,1640.4,True,1,1,False,False,False,False,,True,False,False,Course Lock,328,,9.8,83,,,,,Calm,False,False,Linux,0.0.1,DJI FPV,37QBJ3G00B020K,3F2TJ1429200MP,37RBHB600B03LB,37WPHCPAA104CB,530.6,7.6,518.3,30.714528,17.89552,0,0,DJI FPV,37QBJ3G00B020K,3F2TJ1429200MP,37RBHB600B03LB,37WPJ3CAA10285,DJI Fly,Linux,0.0.1,5DE6E7DC-60B8-7E4C-8834-4F71ABBC8BD5,37QBJ3G00B020K,3F2TJ1429200MP,,37RBHB600B03LB,37WPJ3CAA10285,,,,,,
5/12/2025,8:01:14.62 AM,0m 2.0s,2.0,-7.2806622067409,112.796855107604,0,0,0.3,10,0.9,0,0,0,0,0,0,0,0,-11.2,-0.8,-90.7,269.3,,Manual Takeoff,Other,Takeoff (RC Assisted),21,5,True,,DJI FPV,False,False,,Smart,RC,True,True,False,,,True,,False,False,False,False,False,False,False,False,False,False,0,Free,0,-0.8,-90.5,269.5,False,False,False,False,False,False,,True,Normal,100,100,1019,1149,1151,1009,2,False,False,False,False,False,0,False,False,False,False,97,,,,24.635,True,4.106,4.106,4.106,4.106,4.106,4.106,,False,False,,,,,,14,,16,5,5278.9,782.06,,Idle,,25,,5,,13,Go Home,False,False,False,False,False,False,False,False,False,False,False,False,-7.2806950986135,112.796894418987,18.6,111.1,1640.4,True,1,1,False,False,False,False,,True,False,False,Course Lock,328,,9.8,83,,,,,Calm,False,False,Linux,0.0.1,DJI FPV,37QBJ3G00B020K,3F2TJ1429200MP,37RBHB600B03LB,37WPHCPAA104CB,530.6,7.6,518.3,30.714528,17.89552,0,0,DJI FPV,37QBJ3G00B020K,3F2TJ1429200MP,37RBHB600B03LB,37WPJ3CAA10285,DJI Fly,Linux,0.0.1,5DE6E7DC-60B8-7E4C-8834-4F71ABBC8BD5,37QBJ3G00B020K,3F2TJ1429200MP,,37RBHB600B03LB,37WPJ3CAA10285,,,,,,
5/12/2025,8:01:14.82 AM,0m 2.2s,2.2,-7.2806618811127,112.796855047079,0,0,0.3,10,1.0,0,0,0,0,0,0,0,0,-11.2,-0.8,-90.7,269.3,,Manual Takeoff,Other,Takeoff (RC Assisted),20,5,True,,DJI FPV,False,False,,Smart,RC,True,True,False,,,True,,False,False,False,False,False,False,False,False,False,False,0,Free,0,-0.8,-90.5,269.5,False,False,False,False,False,False,,True,Normal,100,100,1019,1146,1151,1008,2,False,False,False,False,False,0,False,False,False,False,97,,,,24.635,True,4.106,4.106,4.106,4.106,4.106,4.106,,False,False,,,,,,14,,16,5,5278.9,782.06,,Idle,,25,,5,,13,Go Home,False,False,False,False,False,False,False,False,False,False,False,False,-7.2806950986135,112.796894418987,18.7,111.1,1640.4,True,1,1,False,False,False,False,,True,False,False,Course Lock,328,,9.8,83,,,,,Calm,False,False,Linux,0.0.1,DJI FPV,37QBJ3G00B020K,3F2TJ1429200MP,37RBHB600B03LB,37WPHCPAA104CB,530.6,7.6,518.3,30.714528,17.89552,0,0,DJI FPV,37QBJ3G00B020K,3F2TJ1429200MP,37RBHB600B03LB,37WPJ3CAA10285,DJI Fly,Linux,0.0.1,5DE6E7DC-60B8-7E4C-8834-4F71ABBC8BD5,37QBJ3G00B020K,3F2TJ1429200MP,,37RBHB600B03LB,37WPJ3CAA10285,,,,,,
5/12/2025,8:01:15.02 AM,0m 2.4s,2.4,-7.2806615557945,112.796854619796,0,0,0.3,10,1.2,0,0,0,0,0,0,0,0,-11.2,-0.9,-90.7,269.3,,Manual Takeoff,Other,Takeoff (RC Assisted),20,5,True,,DJI FPV,False,False,,Smart,RC,True,True,False,,,True,,False,False,False,False,False,False,False,False,False,False,0,Free,0,-1.1,-90.5,269.5,False,False,False,False,False,False,,True,Normal,100,100,1018,1145,1156,1008,2,False,False,False,False,False,0,False,False,False,False,97,,,,24.635,True,4.106,4.106,4.106,4.106,4.106,4.106,,False,False,,,,,,14,,16,5,5278.9,782.06,,Idle,,25,,5,,13,Go Home,False,False,False,False,False,False,False,False,False,False,False,False,-7.2806950986135,112.796894418987,18.8,111.1,1640.4,True,1,1,False,False,False,False,,True,False,False,Course Lock,328,,9.8,83,,,,,Calm,False,False,Linux,0.0.1,DJI FPV,37QBJ3G00B020K,3F2TJ1429200MP,37RBHB600B03LB,37WPHCPAA104CB,530.6,7.6,518.3,30.714528,17.89552,0,0,DJI FPV,37QBJ3G00B020K,3F2TJ1429200MP,37RBHB600B03LB,37WPJ3CAA10285,DJI Fly,Linux,0.0.1,5DE6E7DC-60B8-7E4C-8834-4F71ABBC8BD5,37QBJ3G00B020K,3F2TJ1429200MP,,37RBHB600B03LB,37WPJ3CAA10285,,,,,,
5/12/2025,8:01:15.22 AM,0m 2.6s,2.6,-7.2806612377366,112.796854388619,0,0,0.3,10,1.3,0,0,0,0,0,0,0,0,-10.2,-1.1,-90.6,269.4,,Manual Takeoff,Other,Takeoff (RC Assisted),19,5,True,,DJI FPV,False,False,,Smart,RC,True,True,False,,,True,,False,False,False,False,False,False,False,False,False,False,0,Free,0,-1.4,-90.5,269.5,False,False,False,False,False,False,,True,Normal,100,100,1018,1131,1153,1008,2,False,False,False,False,False,0,False,False,False,False,97,,,,24.635,True,4.106,4.106,4.106,4.106,4.106,4.106,,False,False,,,,,,14,,16,5,5278.9,782.06,,Idle,,25,,5,,13,Go Home,False,False,False,False,False,False,False,False,False,False,False,False,-7.2806950986135,112.796894418987,19.0,111.1,1640.4,True,1,1,False,False,False,False,,True,False,False,Course Lock,328,,9.8,83,,,,,Calm,False,False,Linux,0.0.1,DJI FPV,37QBJ3G00B020K,3F2TJ1429200MP,37RBHB600B03LB,37WPHCPAA104CB,530.6,7.6,518.3,30.714528,17.89552,0,0,DJI FPV,37QBJ3G00B020K,3F2TJ1429200MP,37RBHB600B03LB,37WPJ3CAA10285,DJI Fly,Linux,0.0.1,5DE6E7DC-60B8-7E4C-8834-4F71ABBC8BD5,37QBJ3G00B020K,3F2TJ1429200MP,,37RBHB600B03LB,37WPJ3CAA10285,,,,,,
5/12/2025,8:01:15.42 AM,0m 2.8s,2.8,-7.2806609134646,112.796854220728,0,0,0.3,10,1.5,0,0,0,0,0,0,0,0,-4.5,-1.7,-90.5,269.5,,Manual Takeoff,Other,Takeoff (RC Assisted),19,5,True,,DJI FPV,False,False,,Smart,RC,True,True,False,,,True,,False,False,False,False,False,False,False,False,False,False,0,Free,0,-0.6,-89.8,270.2,False,False,False,False,False,False,,True,Normal,100,100,1018,1116,1146,1008,2,False,False,False,False,False,0,False,False,False,False,97,,,,24.596,True,4.099,4.099,4.099,4.099,4.099,4.099,,False,False,,,,,,14,,16,5,5565.7,824.54,,Idle,,25,,5,,13,Go Home,False,False,False,False,False,False,False,False,False,False,False,False,-7.2806950986135,112.796894418987,19.1,111.1,1640.4,True,1,1,False,False,False,False,,True,False,False,Course Lock,328,,9.8,83,,,,,Calm,False,False,Linux,0.0.1,DJI FPV,37QBJ3G00B020K,3F2TJ1429200MP,37RBHB600B03LB,37WPHCPAA104CB,530.6,7.6,518.3,30.714528,17.89552,0,0,DJI FPV,37QBJ3G00B020K,3F2TJ1429200MP,37RBHB600B03LB,37WPJ3CAA10285,DJI Fly,Linux,0.0.1,5DE6E7DC-60B8-7E4C-8834-4F71ABBC8BD5,37QBJ3G00B020K,3F2TJ1429200MP,,37RBHB600B03LB,37WPJ3CAA10285,,,,,,
5/12/2025,8:01:15.62 AM,0m 3.0s,3.0,-7.2806607677125,112.796854294095,0,0,0.3,10,1.5,0,0,0,0,0,0,0,0,-0.9,-0.4,-90.1,269.9,,Manual Takeoff,Other,Takeoff (RC Assisted),19,5,True,,DJI FPV,False,False,,Smart,RC,True,True,False,,,True,,False,False,False,False,False,False,False,False,False,False,0,Free,0,-0.4,-89.8,270.2,False,False,False,False,False,False,,True,Normal,100,100,1019,1106,1148,1009,2,False,False,False,False,False,0,False,False,False,False,97,24.46,1708,1776,24.596,False,4.082,4.075,4.076,4.076,4.075,4.076,0.007,False,False,2.696,86.4,86.3,86.3,,14,,16,5,5565.7,824.54,,Idle,,25,,5,,13,Go Home,False,False,False,False,False,False,False,False,False,False,False,False,-7.2806950986135,112.796894418987,19.1,111.1,1640.4,True,1,1,False,False,False,False,,True,False,False,Course Lock,328,,9.8,83,,,,,Calm,False,False,Linux,0.0.1,DJI FPV,37QBJ3G00B020K,3F2TJ1429200MP,37RBHB600B03LB,37WPHCPAA104CB,530.6,7.6,518.3,30.714528,17.89552,0,0,DJI FPV,37QBJ3G00B020K,3F2TJ1429200MP,37RBHB600B03LB,37WPJ3CAA10285,DJI Fly,Linux,0.0.1,5DE6E7DC-60B8-7E4C-8834-4F71ABBC8BD5,37QBJ3G00B020K,3F2TJ1429200MP,3F2TJ1429200MP,37RBHB600B03LB,37WPJ3CAA10285,,,,,,
5/12/2025,8:01:15.82 AM,0m 3.2s,3.2,-7.2806604295281,112.79685428294,0,0,0.3,10,1.6,0,0,0,0,0,0,0,0,0,-0.6,-90.4,269.6,,Manual Takeoff,Other,Takeoff (RC Assisted),19,5,True,,DJI FPV,False,False,,Smart,RC,True,True,False,,,True,,False,False,False,False,False,False,False,False,False,False,0,Free,0,-0.7,-90.1,269.9,False,False,False,False,False,False,,True,Normal,100,100,1019,1105,1214,1009,2,False,False,False,False,False,0,False,False,False,False,97,24.46,1708,1776,24.596,False,4.082,4.075,4.076,4.076,4.075,4.076,0.007,False,False,2.696,86.4,86.3,86.3,,14,,16,5,5565.7,824.54,,Idle,,25,,5,,13,Go Home,False,False,False,False,False,False,False,False,False,False,False,False,-7.2806950986135,112.796894418987,19.2,111.1,1640.4,True,1,1,False,False,False,False,,True,False,False,Course Lock,328,,9.8,83,,,,,Calm,False,False,Linux,0.0.1,DJI FPV,37QBJ3G00B020K,3F2TJ1429200MP,37RBHB600B03LB,37WPHCPAA104CB,530.6,7.6,518.3,30.714528,17.89552,0,0,DJI FPV,37QBJ3G00B020K,3F2TJ1429200MP,37RBHB600B03LB,37WPJ3CAA10285,DJI Fly,Linux,0.0.1,5DE6E7DC-60B8-7E4C-8834-4F71ABBC8BD5,37QBJ3G00B020K,3F2TJ1429200MP,3F2TJ1429200MP,37RBHB600B03LB,37WPJ3CAA10285,,,,,,
5/12/2025,8:01:16.02 AM,0m 3.4s,3.4,-7.2806602705781,112.796854229248,0,0,0.3,10,1.7,0,0,0,0,0,0,0,0,-0.2,-0.6,-90.5,269.5,,Manual Takeoff,Other,Takeoff (RC Assisted),19,5,True,,DJI FPV,False,False,,Smart,RC,True,True,False,,,True,,False,False,False,False,False,False,False,False,False,False,0,Free,0,0.2,-89.7,270.3,False,False,False,False,False,False,,True,Normal,100,100,1018,1095,1254,1009,2,False,False,False,False,False,0,False,False,False,False,97,24.46,1708,1776,24.596,False,4.082,4.075,4.076,4.076,4.075,4.076,0.007,False,False,2.696,86.4,86.3,86.3,,14,,16,5,5565.7,824.54,,Idle,,25,,5,,13,Go Home,False,False,False,False,False,False,False,False,False,False,False,False,-7.2806950986135,112.796894418987,19.3,111.1,1640.4,True,1,1,False,False,False,False,,True,False,False,Course Lock,328,,9.8,83,,,,,Calm,False,False,Linux,0.0.1,DJI FPV,37QBJ3G00B020K,3F2TJ1429200MP,37RBHB600B03LB,37WPHCPAA104CB,530.6,7.6,518.3,30.714528,17.89552,0,0,DJI FPV,37QBJ3G00B020K,3F2TJ1429200MP,37RBHB600B03LB,37WPJ3CAA10285,DJI Fly,Linux,0.0.1,5DE6E7DC-60B8-7E4C-8834-4F71ABBC8BD5,37QBJ3G00B020K,3F2TJ1429200MP,3F2TJ1429200MP,37RBHB600B03LB,37WPJ3CAA10285,,,,,,
5/12/2025,8:01:16.22 AM,0m 3.6s,3.6,-7.2806601536607,112.796854736704,0,0,0.3,10,1.9,0,0,0,0,0,0,0,0,-0.5,0.6,-90.1,269.9,,Manual Takeoff,Other,Takeoff (RC Assisted),20,5,True,,DJI FPV,False,False,,Smart,RC,True,True,False,,,True,,False,False,False,False,False,False,False,False,False,False,0,Free,0,0.1,-89.5,270.5,False,False,False,False,False,False,,True,Normal,100,100,1018,1095,1256,1009,2,False,False,False,False,False,0,False,False,False,False,97,24.46,1708,1776,24.596,False,4.082,4.075,4.076,4.076,4.075,4.076,0.007,False,False,2.696,86.4,86.3,86.3,,14,,16,5,5565.7,824.54,,Idle,,25,,5,,13,Go Home,False,False,False,False,False,False,False,False,False,False,False,False,-7.2806950986135,112.796894418987,19.2,111.1,1640.4,True,1,1,False,False,False,False,,True,False,False,Course Lock,328,,9.8,83,,,,,Calm,False,False,Linux,0.0.1,DJI FPV,37QBJ3G00B020K,3F2TJ1429200MP,37RBHB600B03LB,37WPHCPAA104CB,530.6,7.6,518.3,30.714528,17.89552,0,0,DJI FPV,37QBJ3G00B020K,3F2TJ1429200MP,37RBHB600B03LB,37WPJ3CAA10285,DJI Fly,Linux,0.0.1,5DE6E7DC-60B8-7E4C-8834-4F71ABBC8BD5,37QBJ3G00B020K,3F2TJ1429200MP,3F2TJ1429200MP,37RBHB600B03LB,37WPJ3CAA10285,,,,,,
5/12/2025,8:01:16.42 AM,0m 3.8s,3.8,-7.2806599990734,112.796854942287,0,0,0.3,10,2.0,0,0,0,0,0,0,-0.671082,0,-0.7,0,-90,270,,P-GPS,Other,,19,5,True,,DJI FPV,False,False,,Smart,RC,False,True,False,,,True,,False,False,False,False,False,False,False,False,False,False,0,Free,0,0.2,-89.5,270.5,False,False,False,False,False,False,,True,Normal,100,100,1018,1094,1248,1009,2,False,False,False,False,False,0,False,False,False,False,97,24.46,1708,1776,24.371,False,4.082,4.075,4.076,4.076,4.075,4.076,0.007,False,False,2.696,86.4,86.3,86.3,,,,,6,6112.6,905.58,,Idle,,25,,5,,13,Go Home,False,False,False,False,False,False,False,False,False,False,False,False,-7.2806600939141,112.796854877876,0.0,111.1,1640.4,True,1,1,False,False,False,False,,True,False,False,Course Lock,328,,9.8,83,,,,,Calm,False,False,Linux,0.0.1,DJI FPV,37QBJ3G00B020K,3F2TJ1429200MP,37RBHB600B03LB,37WPHCPAA104CB,530.6,7.6,518.3,30.714528,17.89552,0,0,DJI FPV,37QBJ3G00B020K,3F2TJ1429200MP,37RBHB600B03LB,37WPJ3CAA10285,DJI Fly,Linux,0.0.1,5DE6E7DC-60B8-7E4C-8834-4F71ABBC8BD5,37QBJ3G00B020K,3F2TJ1429200MP,3F2TJ1429200MP,37RBHB600B03LB,37WPJ3CAA10285,,,,,Home point updated.; Flight mode changed to P-GPS.,
5/12/2025,8:01:16.62 AM,0m 4.0s,4.0,-7.2806602466857,112.796855491637,0.3,0.3,0.3,11,2.2,0,0,0,0,0,0,-1.565858,0,-1,0.3,-90,270,,P-GPS,Other,,20,5,True,,DJI FPV,False,False,,Smart,RC,False,True,False,,,True,,False,False,False,False,False,False,False,False,False,False,0,Free,0,0.2,-89.5,270.5,False,False,False,False,False,False,,True,Normal,100,100,1017,1088,1238,1009,2,False,False,False,False,False,0,False,False,False,False,97,24.171,1708,1776,24.371,False,4.033,4.03,4.028,4.028,4.025,4.028,0.008,False,False,5.116,86.4,86.3,86.3,,,,,6,6112.6,905.58,,Idle,,25,,5,,13,Go Home,False,False,False,False,False,False,False,False,False,False,False,False,-7.2806600939141,112.796854877876,0.2,111.1,1640.4,True,1,1,False,False,False,False,,True,False,False,Course Lock,328,,9.8,83,,,,,Calm,False,False,Linux,0.0.1,DJI FPV,37QBJ3G00B020K,3F2TJ1429200MP,37RBHB600B03LB,37WPHCPAA104CB,530.6,7.6,518.3,30.714528,17.89552,0,0,DJI FPV,37QBJ3G00B020K,3F2TJ1429200MP,37RBHB600B03LB,37WPJ3CAA10285,DJI Fly,Linux,0.0.1,5DE6E7DC-60B8-7E4C-8834-4F71ABBC8BD5,37QBJ3G00B020K,3F2TJ1429200MP,3F2TJ1429200MP,37RBHB600B03LB,37WPJ3CAA10285,,,,,,
5/12/2025,8:01:16.82 AM,0m 4.2s,4.2,-7.2806600917019,112.796855252208,0.9,0.9,1.3,11,2.3,0.223694,0.223694,0,0,-0.223694,0,-2.460634,0,0.5,0.2,-90,270,303.1,P-GPS,Other,,18,5,True,,DJI FPV,True,False,,Smart,RC,False,True,False,,,True,,False,False,False,False,False,False,False,False,False,False,0,Free,0,0,-89.5,270.5,False,False,False,False,False,False,,True,Normal,100,100,1017,1078,1237,1010,2,False,False,False,False,False,0,False,False,False,False,97,24.171,1708,1776,24.371,False,4.033,4.03,4.028,4.028,4.025,4.028,0.008,False,False,5.116,86.4,86.3,86.3,,,,,6,6112.6,905.58,,Idle,,25,,5,,13,Go Home,False,False,False,False,False,False,False,False,False,False,False,False,-7.2806600939141,112.796854877876,0.1,111.1,1640.4,True,1,1,False,False,False,False,,True,False,False,Course Lock,328,,9.8,83,,,,,Calm,False,False,Linux,0.0.1,DJI FPV,37QBJ3G00B020K,3F2TJ1429200MP,37RBHB600B03LB,37WPHCPAA104CB,530.6,7.6,518.3,30.714528,17.89552,0,0,DJI FPV,37QBJ3G00B020K,3F2TJ1429200MP,37RBHB600B03LB,37WPJ3CAA10285,DJI Fly,Linux,0.0.1,5DE6E7DC-60B8-7E4C-8834-4F71ABBC8BD5,37QBJ3G00B020K,3F2TJ1429200MP,3F2TJ1429200MP,37RBHB600B03LB,37WPJ3CAA10285,,,,,,
5/12/2025,8:01:17.02 AM,0m 4.4s,4.4,-7.2806600098655,112.796855034545,1.9,1.9,1.9,12,2.4,0.223694,0.223694,0,0,-0.223694,0,-3.131716,0,0.7,0,-90,270,290.7,P-GPS,Other,,19,5,True,,DJI FPV,True,False,,Smart,RC,False,True,False,,,True,,False,False,False,False,False,False,False,False,False,False,0,Free,0,-0.2,-89.4,270.6,False,False,False,False,False,False,,True,Normal,100,100,1017,1083,1230,1009,2,False,False,False,False,False,0,False,False,False,False,97,24.171,1708,1776,24.371,False,4.033,4.03,4.028,4.028,4.025,4.028,0.008,False,False,5.116,86.4,86.3,86.3,,,,,6,6112.6,905.58,,Idle,,25,,5,,13,Go Home,False,False,False,False,False,False,False,False,False,False,False,False,-7.2806600939141,112.796854877876,0.0,111.1,1640.4,True,1,1,False,False,False,False,,True,False,False,Course Lock,328,,9.8,83,,,,,Calm,False,False,Linux,0.0.1,DJI FPV,37QBJ3G00B020K,3F2TJ1429200MP,37RBHB600B03LB,37WPHCPAA104CB,530.6,7.6,518.3,30.714528,17.89552,0,0,DJI FPV,37QBJ3G00B020K,3F2TJ1429200MP,37RBHB600B03LB,37WPJ3CAA10285,DJI Fly,Linux,0.0.1,5DE6E7DC-60B8-7E4C-8834-4F71ABBC8BD5,37QBJ3G00B020K,3F2TJ1429200MP,3F2TJ1429200MP,37RBHB600B03LB,37WPJ3CAA10285,,,,,,
5/12/2025,8:01:17.22 AM,0m 4.6s,4.6,-7.2806595218852,112.796854189253,2.9,2.9,3.2,13,2.7,0.223694,0.223694,0,0,-0.223694,0,-3.35541,0,1.1,0,-90,270,300.1,P-GPS,Other,,19,5,True,,DJI FPV,True,False,,Smart,RC,False,True,False,,,True,,False,False,False,False,False,False,False,False,False,False,0,Free,0,0,-89.4,270.6,False,False,False,False,False,False,,True,Normal,100,100,1017,1074,1231,1010,2,False,False,False,False,False,0,False,False,False,False,97,24.171,1708,1776,24.371,False,4.033,4.03,4.028,4.028,4.025,4.028,0.008,False,False,5.116,86.4,86.3,86.3,,,,,6,6112.6,905.58,,Idle,,25,,5,,13,Go Home,False,False,False,False,False,False,False,False,False,False,False,False,-7.2806600939141,112.796854877876,0.3,111.1,1640.4,True,1,1,False,False,False,False,,True,False,False,Course Lock,328,,9.8,83,,,,,Calm,False,False,Linux,0.0.1,DJI FPV,37QBJ3G00B020K,3F2TJ1429200MP,37RBHB600B03LB,37WPHCPAA104CB,530.6,7.6,518.3,30.714528,17.89552,0,0,DJI FPV,37QBJ3G00B020K,3F2TJ1429200MP,37RBHB600B03LB,37WPJ3CAA10285,DJI Fly,Linux,0.0.1,5DE6E7DC-60B8-7E4C-8834-4F71ABBC8BD5,37QBJ3G00B020K,3F2TJ1429200MP,3F2TJ1429200MP,37RBHB600B03LB,37WPJ3CAA10285,,,,,,
5/12/2025,8:01:17.42 AM,0m 4.8s,4.8,-7.2806592843341,112.79685379618,3.9,3.9,4.2,14,2.9,0.447388,0.447388,0,0,-0.447388,0,-3.35541,0,1.3,0.1,-90,270,301.3,P-GPS,Other,,20,5,True,,DJI FPV,True,False,,Smart,RC,False,True,False,,,True,,False,False,False,False,False,False,False,False,False,False,0,Free,0,0.1,-89.5,270.5,False,False,False,False,False,False,,True,Normal,100,100,1018,1077,1217,1010,2,False,False,False,False,False,0,False,False,False,False,97,24.171,1708,1776,24.208,False,4.033,4.03,4.028,4.028,4.025,4.028,0.008,False,False,5.116,86.4,86.3,86.3,,,,,6,7886.5,1168.37,,Idle,,25,,5,,13,Go Home,False,False,False,False,False,False,False,False,False,False,False,False,-7.2806600939141,112.796854877876,0.4,111.1,1640.4,True,1,1,False,False,False,False,,True,False,False,Course Lock,328,,9.8,83,,,,,Calm,False,False,Linux,0.0.1,DJI FPV,37QBJ3G00B020K,3F2TJ1429200MP,37RBHB600B03LB,37WPHCPAA104CB,530.6,7.6,518.3,30.714528,17.89552,0,0,DJI FPV,37QBJ3G00B020K,3F2TJ1429200MP,37RBHB600B03LB,37WPJ3CAA10285,DJI Fly,Linux,0.0.1,5DE6E7DC-60B8-7E4C-8834-4F71ABBC8BD5,37QBJ3G00B020K,3F2TJ1429200MP,3F2TJ1429200MP,37RBHB600B03LB,37WPJ3CAA10285,,,,,,
5/12/2025,8:01:17.62 AM,0m 5.0s,5.0,-7.2806587492967,112.796852620804,4.9,4.9,5.2,15,3.4,0.447388,0.447388,0,0,-0.447388,0,-3.131716,0,1.2,0.4,-90,270,294.6,P-GPS,Other,,20,5,True,,DJI FPV,True,False,,Smart,RC,False,True,False,,,True,,False,False,False,False,False,False,False,False,False,False,0,Free,0,0.3,-89.5,270.5,False,False,False,False,False,False,,True,Normal,100,100,1017,1077,1213,1010,2,False,False,False,False,False,0,False,False,False,False,97,24.054,1708,1776,24.208,False,4.007,4.007,4.008,4.01,4.008,4.015,0.008,False,False,8.288,86.4,86.3,86.3,,,,,6,7886.5,1168.37,,Idle,,25,,5,,13,Go Home,False,False,False,False,False,False,False,False,False,False,False,False,-7.2806600939141,112.796854877876,0.9,111.1,1640.4,True,1,1,False,False,False,False,,True,False,False,Course Lock,328,,9.8,83,,,,,Calm,False,False,Linux,0.0.1,DJI FPV,37QBJ3G00B020K,3F2TJ1429200MP,37RBHB600B03LB,37WPHCPAA104CB,530.6,7.6,518.3,30.714528,17.89552,0,0,DJI FPV,37QBJ3G00B020K,3F2TJ1429200MP,37RBHB600B03LB,37WPJ3CAA10285,DJI Fly,Linux,0.0.1,5DE6E7DC-60B8-7E4C-8834-4F71ABBC8BD5,37QBJ3G00B020K,3F2TJ1429200MP,3F2TJ1429200MP,37RBHB600B03LB,37WPJ3CAA10285,,,,,,
5/12/2025,8:01:17.82 AM,0m 5.2s,5.2,-7.2806586118955,112.796851755607,5.9,5.9,6.2,16,3.7,0.447388,0.447388,0,0,-0.447388,0,-2.908022,0,1.1,0.5,-90.2,269.8,279.0,P-GPS,Other,,21,5,True,,DJI FPV,True,False,,Smart,RC,False,True,False,,,True,,False,False,False,False,False,False,False,False,False,False,0,Free,0,0.4,-89.4,270.6,False,False,False,False,False,False,,True,Normal,100,100,1018,1072,1206,1010,2,False,False,False,False,False,0,False,False,False,False,97,24.054,1708,1776,24.208,False,4.007,4.007,4.008,4.01,4.008,4.015,0.008,False,False,8.288,86.4,86.3,86.3,,,,,6,7886.5,1168.37,,Idle,,25,,5,,13,Go Home,False,False,False,False,False,False,False,False,False,False,False,False,-7.2806600939141,112.796854877876,1.2,111.1,1640.4,True,1,1,False,False,False,False,,True,False,False,Course Lock,328,,9.8,83,,,,,Calm,False,False,Linux,0.0.1,DJI FPV,37QBJ3G00B020K,3F2TJ1429200MP,37RBHB600B03LB,37WPHCPAA104CB,530.6,7.6,518.3,30.714528,17.89552,0,0,DJI FPV,37QBJ3G00B020K,3F2TJ1429200MP,37RBHB600B03LB,37WPJ3CAA10285,DJI Fly,Linux,0.0.1,5DE6E7DC-60B8-7E4C-8834-4F71ABBC8BD5,37QBJ3G00B020K,3F2TJ1429200MP,3F2TJ1429200MP,37RBHB600B03LB,37WPJ3CAA10285,,,,,,
5/12/2025,8:01:18.02 AM,0m 5.4s,5.4,-7.2806584255657,112.796851108247,6.8,6.8,7.2,17,3.9,0.447388,0.447388,0,0,-0.447388,0,-2.908022,0,1.2,0.6,-90.3,269.7,286.1,P-GPS,Other,,20,5,True,,DJI FPV,True,False,,Smart,RC,False,True,False,,,True,,False,False,False,False,False,False,False,False,False,False,0,Free,0,0.5,-89.5,270.5,False,False,False,False,False,False,,True,Normal,100,100,1018,1067,1218,1010,2,False,False,False,False,False,0,False,False,False,False,97,24.054,1708,1776,24.208,False,4.007,4.007,4.008,4.01,4.008,4.015,0.008,False,False,8.288,86.4,86.3,86.3,,,,,6,7886.5,1168.37,,Idle,,25,,5,,13,Go Home,False,False,False,False,False,False,False,False,False,False,False,False,-7.2806600939141,112.796854877876,1.4,111.1,1640.4,True,1,1,False,False,False,False,,True,False,False,Course Lock,328,,9.8,83,,,,,Calm,False,False,Linux,0.0.1,DJI FPV,37QBJ3G00B020K,3F2TJ1429200MP,37RBHB600B03LB,37WPHCPAA104CB,530.6,7.6,518.3,30.714528,17.89552,0,0,DJI FPV,37QBJ3G00B020K,3F2TJ1429200MP,37RBHB600B03LB,37WPJ3CAA10285,DJI Fly,Linux,0.0.1,5DE6E7DC-60B8-7E4C-8834-4F71ABBC8BD5,37QBJ3G00B020K,3F2TJ1429200MP,3F2TJ1429200MP,37RBHB600B03LB,37WPJ3CAA10285,,,,,,
5/12/2025,8:01:18.22 AM,0m 5.6s,5.6,-7.2806585677257,112.796850901179,7.5,7.5,7.8,18,4.0,0.447388,0.447388,0,0,-0.447388,0,-2.684328,0,1.3,0.7,-90.2,269.8,235.3,P-GPS,Other,,20,5,True,,DJI FPV,True,False,,Smart,RC,False,True,False,,,True,,False,False,False,False,False,False,False,False,False,False,0,Free,0,0.4,-89.4,270.6,False,False,False,False,False,False,,True,Normal,100,100,1018,1067,1230,1010,2,False,False,False,False,False,0,False,False,False,False,97,24.054,1708,1776,24.208,False,4.007,4.007,4.008,4.01,4.008,4.015,0.008,False,False,8.288,86.4,86.3,86.3,,,,,6,7886.5,1168.37,,Idle,,25,,5,,13,Go Home,False,False,False,False,False,False,False,False,False,False,False,False,-7.2806600939141,112.796854877876,1.5,111.1,1640.4,True,1,1,False,False,False,False,,True,False,False,Course Lock,328,,9.8,83,,,,,Calm,False,False,Linux,0.0.1,DJI FPV,37QBJ3G00B020K,3F2TJ1429200MP,37RBHB600B03LB,37WPHCPAA104CB,530.6,7.6,518.3,30.714528,17.89552,0,0,DJI FPV,37QBJ3G00B020K,3F2TJ1429200MP,37RBHB600B03LB,37WPJ3CAA10285,DJI Fly,Linux,0.0.1,5DE6E7DC-60B8-7E4C-8834-4F71ABBC8BD5,37QBJ3G00B020K,3F2TJ1429200MP,3F2TJ1429200MP,37RBHB600B03LB,37WPJ3CAA10285,,,,,,
5/12/2025,8:01:18.42 AM,0m 5.8s,5.8,-7.280658664241,112.796850164323,8.5,8.5,8.8,19,4.3,0.447388,0.447388,0,0,-0.447388,0,-2.908022,0,1.4,0.6,-90.2,269.8,262.4,P-GPS,Other,,21,5,True,,DJI FPV,True,False,,Smart,RC,False,True,False,,,True,,False,False,False,False,False,False,False,False,False,False,0,Free,0,0.4,-89.5,270.5,False,False,False,False,False,False,,True,Normal,100,100,1017,1070,1232,1009,2,False,False,False,False,False,0,False,False,False,False,97,24.054,1708,1776,24.03,False,4.007,4.007,4.008,4.01,4.008,4.015,0.008,False,False,8.288,86.4,86.3,86.3,,1,,,7,11403.5,1689.41,,Idle,,25,,5,,13,Go Home,False,False,False,False,False,False,False,False,False,False,False,False,-7.2806600939141,112.796854877876,1.7,111.1,1640.4,True,1,1,False,False,False,False,,True,False,False,Course Lock,328,,9.8,83,,,,,Calm,False,False,Linux,0.0.1,DJI FPV,37QBJ3G00B020K,3F2TJ1429200MP,37RBHB600B03LB,37WPHCPAA104CB,530.6,7.6,518.3,30.714528,17.89552,0,0,DJI FPV,37QBJ3G00B020K,3F2TJ1429200MP,37RBHB600B03LB,37WPJ3CAA10285,DJI Fly,Linux,0.0.1,5DE6E7DC-60B8-7E4C-8834-4F71ABBC8BD5,37QBJ3G00B020K,3F2TJ1429200MP,3F2TJ1429200MP,37RBHB600B03LB,37WPJ3CAA10285,,,,,,
5/12/2025,8:01:18.62 AM,0m 6.0s,6.0,-7.2806585646293,112.796849489326,9.1,9.1,9.5,19,4.5,0.447388,0.447388,0,0,-0.447388,0,-2.908022,0,1.3,0.7,-90.2,269.8,278.4,P-GPS,Other,,20,5,True,,DJI FPV,True,False,,Smart,RC,False,True,False,,,True,,False,False,False,False,False,False,False,False,False,False,0,Free,0,0.5,-89.4,270.6,False,False,False,False,False,False,,True,Normal,100,100,1018,1071,1224,1008,2,False,False,False,False,False,0,False,False,False,False,97,24.006,1704,1776,24.03,False,4.002,3.997,3.996,4.003,4.001,4.008,0.012,False,False,7.424,86.4,86.3,86.3,,1,,,7,11403.5,1689.41,,Idle,,25,,5,,13,Go Home,False,False,False,False,False,False,False,False,False,False,False,False,-7.2806600939141,112.796854877876,2.0,111.1,1640.4,True,1,1,False,False,False,False,,True,False,False,Course Lock,328,,9.8,83,,,,,Calm,False,False,Linux,0.0.1,DJI FPV,37QBJ3G00B020K,3F2TJ1429200MP,37RBHB600B03LB,37WPHCPAA104CB,530.6,7.6,518.3,30.714528,17.89552,0,0,DJI FPV,37QBJ3G00B020K,3F2TJ1429200MP,37RBHB600B03LB,37WPJ3CAA10285,DJI Fly,Linux,0.0.1,5DE6E7DC-60B8-7E4C-8834-4F71ABBC8BD5,37QBJ3G00B020K,3F2TJ1429200MP,3F2TJ1429200MP,37RBHB600B03LB,37WPJ3CAA10285,,,,,,
5/12/2025,8:01:18.82 AM,0m 6.2s,6.2,-7.2806586539258,112.796848850649,10.1,10.1,10.4,20,4.8,0.447388,0.447388,0,0,-0.447388,0,-3.131716,0,1.3,0.7,-90.2,269.8,261.9,P-GPS,Other,,20,5,True,,DJI FPV,True,False,,Smart,RC,False,True,False,,,True,,False,False,False,False,False,False,False,False,False,False,0,Free,0,0.5,-89.5,270.5,False,False,False,False,False,False,,True,Normal,100,100,1018,1072,1220,1007,2,False,False,False,False,False,0,False,False,False,False,97,24.006,1704,1776,24.03,False,4.002,3.997,3.996,4.003,4.001,4.008,0.012,False,False,7.424,86.4,86.3,86.3,,1,,,7,11403.5,1689.41,,Idle,,25,,5,,13,Go Home,False,False,False,False,False,False,False,False,False,False,False,False,-7.2806600939141,112.796854877876,2.2,111.1,1640.4,True,1,1,False,False,False,False,,True,False,False,Course Lock,328,,9.8,83,,,,,Calm,False,False,Linux,0.0.1,DJI FPV,37QBJ3G00B020K,3F2TJ1429200MP,37RBHB600B03LB,37WPHCPAA104CB,530.6,7.6,518.3,30.714528,17.89552,0,0,DJI FPV,37QBJ3G00B020K,3F2TJ1429200MP,37RBHB600B03LB,37WPJ3CAA10285,DJI Fly,Linux,0.0.1,5DE6E7DC-60B8-7E4C-8834-4F71ABBC8BD5,37QBJ3G00B020K,3F2TJ1429200MP,3F2TJ1429200MP,37RBHB600B03LB,37WPJ3CAA10285,,,,,,
5/12/2025,8:01:19.02 AM,0m 6.4s,6.4,-7.28065856814,112.796848062306,11.1,11.1,11.4,21,5.1,0.447388,0.447388,0,0,-0.447388,0,-2.908022,0,1.2,0.7,-90.2,269.8,276.2,P-GPS,Other,,20,5,True,,DJI FPV,True,False,,Smart,RC,False,True,False,,,True,,False,False,False,False,False,False,False,False,False,False,0,Free,0,0.7,-89.5,270.5,False,False,False,False,False,False,,True,Normal,100,100,1019,1065,1224,1006,2,False,False,False,False,False,0,False,False,False,False,97,24.006,1704,1776,24.03,False,4.002,3.997,3.996,4.003,4.001,4.008,0.012,False,False,7.424,86.4,86.3,86.3,,1,,,7,11403.5,1689.41,,Idle,,25,,5,,13,Go Home,False,False,False,False,False,False,False,False,False,False,False,False,-7.2806600939141,112.796854877876,2.5,111.1,1640.4,True,1,1,False,False,False,False,,True,False,False,Course Lock,328,,9.8,83,,,,,Calm,False,False,Linux,0.0.1,DJI FPV,37QBJ3G00B020K,3F2TJ1429200MP,37RBHB600B03LB,37WPHCPAA104CB,530.6,7.6,518.3,30.714528,17.89552,0,0,DJI FPV,37QBJ3G00B020K,3F2TJ1429200MP,37RBHB600B03LB,37WPJ3CAA10285,DJI Fly,Linux,0.0.1,5DE6E7DC-60B8-7E4C-8834-4F71ABBC8BD5,37QBJ3G00B020K,3F2TJ1429200MP,3F2TJ1429200MP,37RBHB600B03LB,37WPJ3CAA10285,,,,,,
5/12/2025,8:01:19.22 AM,0m 6.6s,6.6,-7.2806588444161,112.79684785641,12.1,12.1,12.4,22,5.2,0.447388,0.447388,0,0,-0.447388,0,-2.908022,0,0.6,0.9,-90.3,269.7,216.4,P-GPS,Other,,21,5,True,,DJI FPV,True,False,,Smart,RC,False,True,False,,,True,,False,False,False,False,False,False,False,False,False,False,0,Free,0,0.8,-89.5,270.5,False,False,False,False,False,False,,True,Normal,100,100,1018,1064,1252,1007,2,False,False,False,False,False,0,False,False,False,False,97,24.006,1704,1776,24.03,False,4.002,3.997,3.996,4.003,4.001,4.008,0.012,False,False,7.424,86.4,86.3,86.3,,1,,,7,11403.5,1689.41,,Idle,,25,,5,,13,Go Home,False,False,False,False,False,False,False,False,False,False,False,False,-7.2806600939141,112.796854877876,2.5,111.1,1640.4,True,1,1,False,False,False,False,,True,False,False,Course Lock,328,,9.8,83,,,,,Calm,False,False,Linux,0.0.1,DJI FPV,37QBJ3G00B020K,3F2TJ1429200MP,37RBHB600B03LB,37WPHCPAA104CB,530.6,7.6,518.3,30.714528,17.89552,0,0,DJI FPV,37QBJ3G00B020K,3F2TJ1429200MP,37RBHB600B03LB,37WPJ3CAA10285,DJI Fly,Linux,0.0.1,5DE6E7DC-60B8-7E4C-8834-4F71ABBC8BD5,37QBJ3G00B020K,3F2TJ1429200MP,3F2TJ1429200MP,37RBHB600B03LB,37WPJ3CAA10285,,,,,,
5/12/2025,8:01:19.42 AM,0m 6.8s,6.8,-7.2806589072053,112.796847483839,13.1,13.1,13.1,23,5.3,0.447388,0.447388,0,0,-0.447388,0,-3.131716,0,0.5,1.1,-90.2,269.8,260.3,P-GPS,Other,,21,5,True,,DJI FPV,True,False,,Smart,RC,False,True,False,,,True,,False,False,False,False,False,False,False,False,False,False,0,Free,0,0.9,-89.4,270.6,False,False,False,False,False,False,,True,Normal,100,100,1018,1067,1262,1006,2,False,False,False,False,False,0,False,False,False,False,96,24.006,1704,1776,23.977,False,4.002,3.997,3.996,4.003,4.001,4.008,0.012,False,False,7.424,86.4,86.3,86.3,,2,,,7,15111.0,2238.67,,Idle,,25,,5,,13,Go Home,False,False,False,False,False,False,False,False,False,False,False,False,-7.2806600939141,112.796854877876,2.7,111.1,1640.4,True,1,1,False,False,False,False,,True,False,False,Course Lock,328,,9.8,83,,,,,Calm,False,False,Linux,0.0.1,DJI FPV,37QBJ3G00B020K,3F2TJ1429200MP,37RBHB600B03LB,37WPHCPAA104CB,530.6,7.6,518.3,30.714528,17.89552,0,0,DJI FPV,37QBJ3G00B020K,3F2TJ1429200MP,37RBHB600B03LB,37WPJ3CAA10285,DJI Fly,Linux,0.0.1,5DE6E7DC-60B8-7E4C-8834-4F71ABBC8BD5,37QBJ3G00B020K,3F2TJ1429200MP,3F2TJ1429200MP,37RBHB600B03LB,37WPJ3CAA10285,,,,,,
5/12/2025,8:01:19.62 AM,0m 7.0s,7.0,-7.2806591039914,112.796846836954,14.1,14.1,14.1,24,5.6,0.671082,0.671082,0,0,-0.671082,0,-3.579104,0,1,1.1,-90.2,269.8,252.9,P-GPS,Other,,21,5,True,,DJI FPV,True,False,,Smart,RC,False,True,False,,,True,,False,False,False,False,False,False,False,False,False,False,0,Free,0,0.8,-89.5,270.5,False,False,False,False,False,False,,True,Normal,100,100,1018,1058,1264,1006,2,False,False,False,False,False,0,False,False,False,False,96,23.96,1704,1776,23.977,False,3.996,3.995,3.997,3.997,3.985,3.99,0.012,False,False,7.712,86.4,86.3,86.3,,2,,,7,15111.0,2238.67,,Idle,,25,,5,,13,Go Home,False,False,False,False,False,False,False,False,False,False,False,False,-7.2806600939141,112.796854877876,2.9,111.1,1640.4,True,1,1,False,False,False,False,,True,False,False,Course Lock,328,,9.8,83,,,,,Calm,False,False,Linux,0.0.1,DJI FPV,37QBJ3G00B020K,3F2TJ1429200MP,37RBHB600B03LB,37WPHCPAA104CB,530.6,7.6,518.3,30.714528,17.89552,0,0,DJI FPV,37QBJ3G00B020K,3F2TJ1429200MP,37RBHB600B03LB,37WPJ3CAA10285,DJI Fly,Linux,0.0.1,5DE6E7DC-60B8-7E4C-8834-4F71ABBC8BD5,37QBJ3G00B020K,3F2TJ1429200MP,3F2TJ1429200MP,37RBHB600B03LB,37WPJ3CAA10285,,,,,,
5/12/2025,8:01:19.82 AM,0m 7.2s,7.2,-7.2806585330474,112.796845671826,15.0,15.0,15.4,25,6.0,0.447388,0.671082,0,0,-0.447388,0,-3.579104,0,1.2,1,-90.3,269.7,296.2,P-GPS,Other,,21,5,True,,DJI FPV,True,False,,Smart,RC,False,True,False,,,True,,False,False,False,False,False,False,False,False,False,False,0,Free,0,0.8,-89.4,270.6,False,False,False,False,False,False,,True,Normal,100,100,1019,1052,1265,1006,2,False,False,False,False,False,0,False,False,False,False,96,23.96,1704,1776,23.977,False,3.996,3.995,3.997,3.997,3.985,3.99,0.012,False,False,7.712,86.4,86.3,86.3,,2,,,7,15111.0,2238.67,,Idle,,25,,5,,13,Go Home,False,False,False,False,False,False,False,False,False,False,False,False,-7.2806600939141,112.796854877876,3.3,111.1,1640.4,True,1,1,False,False,False,False,,True,False,False,Course Lock,328,,9.8,83,,,,,Calm,False,False,Linux,0.0.1,DJI FPV,37QBJ3G00B020K,3F2TJ1429200MP,37RBHB600B03LB,37WPHCPAA104CB,530.6,7.6,518.3,30.714528,17.89552,0,0,DJI FPV,37QBJ3G00B020K,3F2TJ1429200MP,37RBHB600B03LB,37WPJ3CAA10285,DJI Fly,Linux,0.0.1,5DE6E7DC-60B8-7E4C-8834-4F71ABBC8BD5,37QBJ3G00B020K,3F2TJ1429200MP,3F2TJ1429200MP,37RBHB600B03LB,37WPJ3CAA10285,,,,,,
5/12/2025,8:01:20.02 AM,0m 7.4s,7.4,-7.2806581561146,112.796844948341,16.4,16.4,16.4,27,6.3,0.447388,0.671082,0,0,-0.447388,0,-3.802798,0,1.1,0.9,-90.2,269.8,297.7,P-GPS,Other,,22,5,True,,DJI FPV,True,False,,Smart,RC,False,True,False,,,True,,False,False,False,False,False,False,False,False,False,False,0,Free,0,0.7,-89.4,270.6,False,False,False,False,False,False,,True,Normal,100,100,1018,1054,1252,1005,2,False,False,False,False,False,0,False,False,False,False,96,23.96,1704,1776,23.977,False,3.996,3.995,3.997,3.997,3.985,3.99,0.012,False,False,7.712,86.4,86.3,86.3,,2,,,7,15111.0,2238.67,,Idle,,25,,5,,13,Go Home,False,False,False,False,False,False,False,False,False,False,False,False,-7.2806600939141,112.796854877876,3.6,111.1,1640.4,True,1,1,False,False,False,False,,True,False,False,Course Lock,328,,9.8,83,,,,,Calm,False,False,Linux,0.0.1,DJI FPV,37QBJ3G00B020K,3F2TJ1429200MP,37RBHB600B03LB,37WPHCPAA104CB,530.6,7.6,518.3,30.714528,17.89552,0,0,DJI FPV,37QBJ3G00B020K,3F2TJ1429200MP,37RBHB600B03LB,37WPJ3CAA10285,DJI Fly,Linux,0.0.1,5DE6E7DC-60B8-7E4C-8834-4F71ABBC8BD5,37QBJ3G00B020K,3F2TJ1429200MP,3F2TJ1429200MP,37RBHB600B03LB,37WPJ3CAA10285,,,,,,
5/12/2025,8:01:20.22 AM,0m 7.6s,7.6,-7.2806580045756,112.796844472624,17.3,17.3,17.7,28,6.5,0.447388,0.671082,0,0,-0.447388,0,-3.802798,0,1.1,0.8,-90.3,269.7,287.8,P-GPS,Other,,21,5,True,,DJI FPV,True,False,,Smart,RC,False,True,False,,,True,,False,False,False,False,False,False,False,False,False,False,0,Free,0,0.7,-89.5,270.5,False,False,False,False,False,False,,True,Normal,100,100,1018,1041,1228,1004,2,False,False,False,False,False,0,False,False,False,False,96,23.96,1704,1776,23.977,False,3.996,3.995,3.997,3.997,3.985,3.99,0.012,False,False,7.712,86.4,86.3,86.3,,2,,,7,15111.0,2238.67,,Idle,,25,,5,,13,Go Home,False,False,False,False,False,False,False,False,False,False,False,False,-7.2806600939141,112.796854877876,3.8,111.1,1640.4,True,1,1,False,False,False,False,,True,False,False,Course Lock,328,,9.8,83,,,,,Calm,False,False,Linux,0.0.1,DJI FPV,37QBJ3G00B020K,3F2TJ1429200MP,37RBHB600B03LB,37WPHCPAA104CB,530.6,7.6,518.3,30.714528,17.89552,0,0,DJI FPV,37QBJ3G00B020K,3F2TJ1429200MP,37RBHB600B03LB,37WPJ3CAA10285,DJI Fly,Linux,0.0.1,5DE6E7DC-60B8-7E4C-8834-4F71ABBC8BD5,37QBJ3G00B020K,3F2TJ1429200MP,3F2TJ1429200MP,37RBHB600B03LB,37WPJ3CAA10285,,,,,,
5/12/2025,8:01:20.42 AM,0m 7.8s,7.8,-7.2806575318657,112.79684418859,18.7,18.7,18.7,29,6.7,0.447388,0.671082,0,0,-0.447388,0,-3.579104,0,2.1,0.8,-90.2,269.8,329.2,P-GPS,Other,,23,5,True,,DJI FPV,True,False,,Smart,RC,False,True,False,,,True,,False,False,False,False,False,False,False,False,False,False,0,Free,0,0.6,-89.4,270.6,False,False,False,False,False,False,,True,Normal,100,100,1019,1034,1236,1003,2,False,False,False,False,False,0,False,False,False,False,96,23.96,1704,1776,23.978,False,3.996,3.995,3.997,3.997,3.985,3.99,0.012,False,False,7.712,86.4,86.3,86.3,,2,1,,7,18365.0,2720.74,,Idle,,25,,5,,13,Go Home,False,False,False,False,False,False,False,False,False,False,False,False,-7.2806600939141,112.796854877876,3.9,111.1,1640.4,True,1,1,False,False,False,False,,True,False,False,Course Lock,328,,9.8,83,,,,,Calm,False,False,Linux,0.0.1,DJI FPV,37QBJ3G00B020K,3F2TJ1429200MP,37RBHB600B03LB,37WPHCPAA104CB,530.6,7.6,518.3,30.714528,17.89552,0,0,DJI FPV,37QBJ3G00B020K,3F2TJ1429200MP,37RBHB600B03LB,37WPJ3CAA10285,DJI Fly,Linux,0.0.1,5DE6E7DC-60B8-7E4C-8834-4F71ABBC8BD5,37QBJ3G00B020K,3F2TJ1429200MP,3F2TJ1429200MP,37RBHB600B03LB,37WPJ3CAA10285,,,,,,
5/12/2025,8:01:20.62 AM,0m 8.0s,8.0,-7.2806576223777,112.79684425506,19.6,19.6,19.6,30,6.8,0.223694,0.671082,0,0,-0.223694,0,-3.35541,0,2.9,0.6,-90.1,269.9,143.9,P-GPS,Other,,23,5,True,,DJI FPV,True,False,,Smart,RC,False,True,False,,,True,,False,False,False,False,False,False,False,False,False,False,0,Free,0,0.5,-89.4,270.6,False,False,False,False,False,False,,True,Normal,100,100,1018,1023,1228,975,2,False,False,False,False,False,0,False,False,False,False,96,24.012,1700,1776,23.978,False,3.995,3.999,4.004,4.006,4.002,4.007,0.012,False,False,7.796,86.4,86.3,86.3,,2,1,,7,18365.0,2720.74,,Idle,,25,,5,,13,Go Home,False,False,False,False,False,False,False,False,False,False,False,False,-7.2806600939141,112.796854877876,3.9,111.1,1640.4,True,1,1,False,False,False,False,,True,False,False,Course Lock,328,,9.8,83,,,,,Calm,False,False,Linux,0.0.1,DJI FPV,37QBJ3G00B020K,3F2TJ1429200MP,37RBHB600B03LB,37WPHCPAA104CB,530.6,7.6,518.3,30.714528,17.89552,0,0,DJI FPV,37QBJ3G00B020K,3F2TJ1429200MP,37RBHB600B03LB,37WPJ3CAA10285,DJI Fly,Linux,0.0.1,5DE6E7DC-60B8-7E4C-8834-4F71ABBC8BD5,37QBJ3G00B020K,3F2TJ1429200MP,3F2TJ1429200MP,37RBHB600B03LB,37WPJ3CAA10285,,,,,,
5/12/2025,8:01:20.82 AM,0m 8.2s,8.2,-7.2806584166642,112.796844765369,20.6,20.6,20.9,31,7.1,0.223694,0.671082,0,0,-0.223694,0,-3.35541,0,2.9,0.6,-90.2,269.8,147.4,P-GPS,Other,,23,5,True,,DJI FPV,True,False,,Smart,RC,False,True,False,,,True,,False,False,False,False,False,False,False,False,False,False,0,Free,0,0.4,-89.6,270.4,False,False,False,False,False,False,,True,Normal,100,100,1018,1023,1222,930,2,False,False,False,False,False,0,False,False,False,False,96,24.012,1700,1776,23.978,False,3.995,3.999,4.004,4.006,4.002,4.007,0.012,False,False,7.796,86.4,86.3,86.3,,2,1,,7,18365.0,2720.74,,Idle,,25,,5,,13,Go Home,False,False,False,False,False,False,False,False,False,False,False,False,-7.2806600939141,112.796854877876,3.7,111.1,1640.4,True,1,1,False,False,False,False,,True,False,False,Course Lock,328,,9.8,83,,,,,Calm,False,False,Linux,0.0.1,DJI FPV,37QBJ3G00B020K,3F2TJ1429200MP,37RBHB600B03LB,37WPHCPAA104CB,530.6,7.6,518.3,30.714528,17.89552,0,0,DJI FPV,37QBJ3G00B020K,3F2TJ1429200MP,37RBHB600B03LB,37WPJ3CAA10285,DJI Fly,Linux,0.0.1,5DE6E7DC-60B8-7E4C-8834-4F71ABBC8BD5,37QBJ3G00B020K,3F2TJ1429200MP,3F2TJ1429200MP,37RBHB600B03LB,37WPJ3CAA10285,,,,,,
5/12/2025,8:01:21.02 AM,0m 8.4s,8.4,-7.280658616329,112.796844713568,21.6,21.6,21.6,32,7.2,0,0.671082,0,0,0,0,-3.131716,0,2.7,0.6,-90.6,269.4,,P-GPS,Other,,23,5,True,,DJI FPV,True,False,,Smart,RC,False,True,False,,,True,,False,False,False,False,False,False,False,False,False,False,0,Free,0,0.5,-90.4,269.6,False,False,False,False,False,False,,True,Normal,100,100,1018,1023,1222,867,2,False,False,False,False,False,0,False,False,False,False,96,24.012,1700,1776,23.978,False,3.995,3.999,4.004,4.006,4.002,4.007,0.012,False,False,7.796,86.4,86.3,86.3,,2,1,,7,18365.0,2720.74,,Idle,,25,,5,,13,Go Home,False,False,False,False,False,False,False,False,False,False,False,False,-7.2806600939141,112.796854877876,3.7,111.1,1640.4,True,1,1,False,False,False,False,,True,False,False,Course Lock,328,,9.8,83,,,,,Calm,False,False,Linux,0.0.1,DJI FPV,37QBJ3G00B020K,3F2TJ1429200MP,37RBHB600B03LB,37WPHCPAA104CB,530.6,7.6,518.3,30.714528,17.89552,0,0,DJI FPV,37QBJ3G00B020K,3F2TJ1429200MP,37RBHB600B03LB,37WPJ3CAA10285,DJI Fly,Linux,0.0.1,5DE6E7DC-60B8-7E4C-8834-4F71ABBC8BD5,37QBJ3G00B020K,3F2TJ1429200MP,3F2TJ1429200MP,37RBHB600B03LB,37WPJ3CAA10285,,,,,,
5/12/2025,8:01:21.22 AM,0m 8.6s,8.6,-7.2806582727722,112.796844411788,22.6,22.6,22.6,33,7.3,0,0.671082,0,0,0,0,-2.908022,0,1.6,0.6,-91.9,268.1,,P-GPS,Other,,23,5,True,,DJI FPV,True,False,,Smart,RC,False,True,False,,,True,,False,False,False,False,False,False,False,False,False,False,0,Free,0,0.1,-92.2,267.8,False,False,False,False,False,False,,True,Normal,100,100,1018,1022,1210,741,2,False,False,False,False,False,0,False,False,False,False,96,24.012,1700,1776,23.978,False,3.995,3.999,4.004,4.006,4.002,4.007,0.012,False,False,7.796,86.4,86.3,86.3,,2,1,,7,18365.0,2720.74,,Idle,,25,,5,,13,Go Home,False,False,False,False,False,False,False,False,False,False,False,False,-7.2806600939141,112.796854877876,3.8,111.1,1640.4,True,1,1,False,False,False,False,,True,False,False,Course Lock,328,,9.8,83,,,,,Calm,False,False,Linux,0.0.1,DJI FPV,37QBJ3G00B020K,3F2TJ1429200MP,37RBHB600B03LB,37WPHCPAA104CB,530.6,7.6,518.3,30.714528,17.89552,0,0,DJI FPV,37QBJ3G00B020K,3F2TJ1429200MP,37RBHB600B03LB,37WPJ3CAA10285,DJI Fly,Linux,0.0.1,5DE6E7DC-60B8-7E4C-8834-4F71ABBC8BD5,37QBJ3G00B020K,3F2TJ1429200MP,3F2TJ1429200MP,37RBHB600B03LB,37WPJ3CAA10285,,,,,,
5/12/2025,8:01:21.42 AM,0m 8.8s,8.8,-7.2806576010442,112.796843973104,23.2,23.2,23.6,33,7.6,0,0.671082,0,0,0,0,-2.908022,0,0.8,0,-94.4,265.6,,P-GPS,Other,,23,5,True,,DJI FPV,True,False,,Smart,RC,False,True,False,,,True,,False,False,False,False,False,False,False,False,False,False,0,Free,0,0,-97.3,262.7,False,False,False,False,False,False,,True,Normal,100,100,1018,1023,1209,705,2,False,False,False,False,False,0,False,False,False,False,96,24.012,1700,1776,23.98,False,3.995,3.999,4.004,4.006,4.002,4.007,0.012,False,False,7.796,86.4,86.3,86.3,,3,1,,7,21522.1,3188.46,,Idle,,25,,5,,13,Go Home,False,False,False,False,False,False,False,False,False,False,False,False,-7.2806600939141,112.796854877876,4.0,111.1,1640.4,True,1,1,False,False,False,False,,True,False,False,Course Lock,328,,9.8,83,,,,,Calm,False,False,Linux,0.0.1,DJI FPV,37QBJ3G00B020K,3F2TJ1429200MP,37RBHB600B03LB,37WPHCPAA104CB,530.6,7.6,518.3,30.714528,17.89552,0,0,DJI FPV,37QBJ3G00B020K,3F2TJ1429200MP,37RBHB600B03LB,37WPJ3CAA10285,DJI Fly,Linux,0.0.1,5DE6E7DC-60B8-7E4C-8834-4F71ABBC8BD5,37QBJ3G00B020K,3F2TJ1429200MP,3F2TJ1429200MP,37RBHB600B03LB,37WPJ3CAA10285,,,,,,
5/12/2025,8:01:21.62 AM,0m 9.0s,9.0,-7.2806568151194,112.796842825294,24.2,24.2,24.6,34,8.1,0,0.671082,0,0,0,0,-2.684328,0,0,0.2,-100.6,259.4,,P-GPS,Other,,23,5,True,,DJI FPV,True,False,,Smart,RC,False,True,False,,,True,,False,False,False,False,False,False,False,False,False,False,0,Free,0,0.1,-103.3,256.7,False,False,False,False,False,False,,True,Normal,100,100,1018,1023,1222,704,2,False,False,False,False,False,0,False,False,False,False,96,23.945,1700,1776,23.98,False,3.996,3.988,3.988,3.988,3.987,3.998,0.012,False,False,7.44,86.4,86.3,86.3,,3,1,,7,21522.1,3188.46,,Idle,,25,,5,,13,Go Home,False,False,False,False,False,False,False,False,False,False,False,False,-7.2806600939141,112.796854877876,4.5,111.1,1640.4,True,1,1,False,False,False,False,,True,False,False,Course Lock,328,,9.8,83,,,,,Calm,False,False,Linux,0.0.1,DJI FPV,37QBJ3G00B020K,3F2TJ1429200MP,37RBHB600B03LB,37WPHCPAA104CB,530.6,7.6,518.3,30.714528,17.89552,0,0,DJI FPV,37QBJ3G00B020K,3F2TJ1429200MP,37RBHB600B03LB,37WPJ3CAA10285,DJI Fly,Linux,0.0.1,5DE6E7DC-60B8-7E4C-8834-4F71ABBC8BD5,37QBJ3G00B020K,3F2TJ1429200MP,3F2TJ1429200MP,37RBHB600B03LB,37WPJ3CAA10285,,,,,,
5/12/2025,8:01:21.82 AM,0m 9.2s,9.2,-7.2806562994509,112.796841757797,24.9,24.9,25.2,35,8.6,0,0.671082,0,0,0,0,-2.684328,0,-0.3,0.2,-106.5,253.5,,P-GPS,Other,,23,5,True,,DJI FPV,True,False,,Smart,RC,False,True,False,,,True,,False,False,False,False,False,False,False,False,False,False,0,Free,0,0.2,-109.3,250.7,False,False,False,False,False,False,,True,Normal,100,100,1018,1024,1223,706,2,False,False,False,False,False,0,False,False,False,False,96,23.945,1700,1776,23.98,False,3.996,3.988,3.988,3.988,3.987,3.998,0.012,False,False,7.44,86.4,86.3,86.3,,3,1,,7,21522.1,3188.46,,Idle,,25,,5,,13,Go Home,False,False,False,False,False,False,False,False,False,False,False,False,-7.2806600939141,112.796854877876,4.9,111.1,1640.4,True,1,1,False,False,False,False,,True,False,False,Course Lock,328,,9.8,83,,,,,Calm,False,False,Linux,0.0.1,DJI FPV,37QBJ3G00B020K,3F2TJ1429200MP,37RBHB600B03LB,37WPHCPAA104CB,530.6,7.6,518.3,30.714528,17.89552,0,0,DJI FPV,37QBJ3G00B020K,3F2TJ1429200MP,37RBHB600B03LB,37WPJ3CAA10285,DJI Fly,Linux,0.0.1,5DE6E7DC-60B8-7E4C-8834-4F71ABBC8BD5,37QBJ3G00B020K,3F2TJ1429200MP,3F2TJ1429200MP,37RBHB600B03LB,37WPJ3CAA10285,,,,,,
5/12/2025,8:01:22.02 AM,0m 9.4s,9.4,-7.2806560399048,112.796840638794,25.9,25.9,26.2,36,9.0,0,0.671082,0,0,0,0,-2.908022,0,0,0.4,-112.6,247.4,,P-GPS,Other,,24,5,True,,DJI FPV,True,False,,Smart,RC,False,True,False,,,True,,False,False,False,False,False,False,False,False,False,False,0,Free,0,0.2,-115.2,244.8,False,False,False,False,False,False,,True,Normal,100,100,1018,1028,1210,733,2,False,False,False,False,False,0,False,False,False,False,96,23.945,1700,1776,23.98,False,3.996,3.988,3.988,3.988,3.987,3.998,0.012,False,False,7.44,86.4,86.3,86.3,,3,1,,7,21522.1,3188.46,,Idle,,25,,5,,13,Go Home,False,False,False,False,False,False,False,False,False,False,False,False,-7.2806600939141,112.796854877876,5.3,111.1,1640.4,True,1,1,False,False,False,False,,True,False,False,Course Lock,328,,9.8,83,,,,,Calm,False,False,Linux,0.0.1,DJI FPV,37QBJ3G00B020K,3F2TJ1429200MP,37RBHB600B03LB,37WPHCPAA104CB,530.6,7.6,518.3,30.714528,17.89552,0,0,DJI FPV,37QBJ3G00B020K,3F2TJ1429200MP,37RBHB600B03LB,37WPJ3CAA10285,DJI Fly,Linux,0.0.1,5DE6E7DC-60B8-7E4C-8834-4F71ABBC8BD5,37QBJ3G00B020K,3F2TJ1429200MP,3F2TJ1429200MP,37RBHB600B03LB,37WPJ3CAA10285,,,,,,
5/12/2025,8:01:22.22 AM,0m 9.6s,9.6,-7.2806561511595,112.796840069572,26.9,26.9,27.2,37,9.2,0,0.671082,0,0,0,0,-2.908022,0,0.2,0.2,-118.3,241.7,,P-GPS,Other,,24,5,True,,DJI FPV,True,False,,Smart,RC,False,True,False,,,True,,False,False,False,False,False,False,False,False,False,False,0,Free,0,0,-120.2,239.8,False,False,False,False,False,False,,True,Normal,100,100,1021,1113,1186,731,2,False,False,False,False,False,0,False,False,False,False,96,23.945,1700,1776,23.98,False,3.996,3.988,3.988,3.988,3.987,3.998,0.012,False,False,7.44,86.4,86.3,86.3,,3,1,,7,21522.1,3188.46,,Idle,,25,,5,,13,Go Home,False,False,False,False,False,False,False,False,False,False,False,False,-7.2806600939141,112.796854877876,5.5,111.1,1640.4,True,1,1,False,False,False,False,,True,False,False,Course Lock,328,,9.8,83,,,,,Calm,False,False,Linux,0.0.1,DJI FPV,37QBJ3G00B020K,3F2TJ1429200MP,37RBHB600B03LB,37WPHCPAA104CB,530.6,7.6,518.3,30.714528,17.89552,0,0,DJI FPV,37QBJ3G00B020K,3F2TJ1429200MP,37RBHB600B03LB,37WPJ3CAA10285,DJI Fly,Linux,0.0.1,5DE6E7DC-60B8-7E4C-8834-4F71ABBC8BD5,37QBJ3G00B020K,3F2TJ1429200MP,3F2TJ1429200MP,37RBHB600B03LB,37WPJ3CAA10285,,,,,,
