sep=,
CUSTOM.date [local],CUSTOM.updateTime [local],OSD.flyTime,OSD.flyTime [s],OSD.latitude,OSD.longitude,OSD.height [ft],OSD.heightMax [ft],OSD.vpsHeight [ft],OSD.altitude [ft],OSD.mileage [ft],OSD.hSpeed [MPH],OSD.hSpeedMax [MPH],OSD.xSpeed [MPH],OSD.xSpeedMax [MPH],OSD.ySpeed [MPH],OSD.ySpeedMax [MPH],OSD.zSpeed [MPH],OSD.zSpeedMax [MPH],OSD.pitch,OSD.roll,OSD.yaw,OSD.yaw [360],OSD.directionOfTravel,OSD.flycState,OSD.flycCommand,OSD.flightAction,OSD.gpsNum,OSD.gpsLevel,OSD.isGPSUsed,OSD.nonGPSCause,OSD.droneType,OSD.isSwaveWork,OSD.waveError,OSD.goHomeStatus,OSD.batteryType,OSD.ctrlDevice,OSD.isOnGround,OSD.isMotorOn,OSD.isMotorBlocked,OSD.motorStartFailedCause,OSD.motorFailReason,OSD.isImuPreheated,OSD.imuInitFailReason,OSD.isAcceletorOverRange,OSD.isBarometerDeadInAir,OSD.isCompassError,OSD.isGoHomeHeightModified,OSD.canIOCWork,OSD.isNotEnoughForce,OSD.isOutOfLimit,OSD.isPropellerCatapult,OSD.isVibrating,OSD.isVisionUsed,OSD.voltageWarning,GIMBAL.mode,GIMBAL.pitch,GIMBAL.roll,GIMBAL.yaw,GIMBAL.yaw [360],GIMBAL.isPitchAtLimit,GIMBAL.isRollAtLimit,GIMBAL.isYawAtLimit,GIMBAL.isStuck,CAMERA.isPhoto,CAMERA.isVideo,CAMERA.filename,CAMERA.sdCardIsInserted,CAMERA.sdCardState,RC.downlinkSignal,RC.uplinkSignal,RC.aileron,RC.elevator,RC.throttle,RC.rudder,RC.mode,RC.goHomeDepressed,RC.recordDepressed,RC.shutterDepressed,RC.playbackDepressed,RC.wheelDepressed,RC.wheelOffset,RC.custom1Depressed,RC.custom2Depressed,RC.custom3Depressed,RC.custom4Depressed,BATTERY.chargeLevel,BATTERY.currentPV [V],BATTERY.currentCapacity [mAh],BATTERY.fullCapacity [mAh],BATTERY.voltage [V],BATTERY.isCellVoltageEstimated,BATTERY.cellVoltage1 [V],BATTERY.cellVoltage2 [V],BATTERY.cellVoltage3 [V],BATTERY.cellVoltage4 [V],BATTERY.cellVoltage5 [V],BATTERY.cellVoltage6 [V],BATTERY.maxCellVoltageDeviation,BATTERY.isCellVoltageDeviationHigh,BATTERY.isVoltageLow,BATTERY.current [A],BATTERY.temperature [F],BATTERY.minTemperature [F],BATTERY.maxTemperature [F],BATTERY.usefulTime [s],BATTERY.goHomeTime [s],BATTERY.landTime [s],BATTERY.goHomeBattery,BATTERY.landBattery,BATTERY.safeFlyRadius,BATTERY.volumeConsume,BATTERY.status,BATTERY.goHomeStatus,BATTERY.goHomeCountdown,BATTERY.lowWarning,BATTERY.lowWarningGoHome,BATTERY.seriousLowWarning,BATTERY.seriousLowWarningLanding,BATTERY.timesCharged,MC.failSafeAction,MC.isObstacleAvoidanceEnabled,MC.isCollisionAvoidanceEnabled,MC.isRthObstacleAvoidanceEnabled,MC.isBraking,MC.isAvoidingObstacle,MC.isAvoidingActiveObstacle,MC.isAscentLimitedByObstacle,MC.isLandingConfirmationNeeded,MC.atLowAltitudeLimit,MC.atDistanceLimit,MC.atAirportAltitudeLimit,MC.atAirportBoundary,HOME.latitude,HOME.longitude,HOME.distance [ft],HOME.height [ft],HOME.heightLimit [ft],HOME.isHomeRecord,HOME.goHomeMode,HOME.aircraftHeadDirection,HOME.isDynamicHomePointEnabled,HOME.isReachedLimitDistance,HOME.isReachedLimitHeight,HOME.isCompassCalibrating,HOME.compassCalibrationState,HOME.isMultipleFlightModeEnabled,HOME.isBeginnerMode,HOME.isIOCEnabled,HOME.iocMode,HOME.goHomeHeight [ft],HOME.courseLockAngle,HOME.forceLandingHeight [ft],HOME.dataRecorderFileIndex,WEATHER.windDirection,WEATHER.windRelativeDirection,WEATHER.windSpeed [MPH],WEATHER.maxWindSpeed [MPH],WEATHER.windStrength,WEATHER.isFacingWind,WEATHER.isFlyingIntoWind,RECOVER.appType,RECOVER.appVersion,RECOVER.aircraftName,RECOVER.aircraftSerial,RECOVER.cameraSerial,RECOVER.rcSerial,RECOVER.batterySerial,DETAILS.totalTime [s],DETAILS.totalDistance [ft],DETAILS.maxHeight [ft],DETAILS.maxHorizontalSpeed [MPH],DETAILS.maxVerticalSpeed [MPH],DETAILS.photoNum,DETAILS.videoTime [s],DETAILS.aircraftName,DETAILS.aircraftSerial,DETAILS.cameraSerial,DETAILS.rcSerial,DETAILS.batterySerial,DETAILS.appName,DETAILS.appType,DETAILS.appVersion,DETAILS.guid,SERIAL.flightController,SERIAL.camera,SERIAL.gimbal,SERIAL.rc,SERIAL.battery,SERIAL.battery2,APPGPS.latitude,APPGPS.longitude,APPGPS.accuracy,APP.tip,APP.warning
6/27/2025,3:23:15.27 AM,0m 0.1s,0.1,-7.2803139093966,112.792009737577,0,0,1.6,12,0,0,0,0,0,0,0,0,0,-11.8,-1.3,-138.1,221.9,,Starting Motors,Other,Takeoff (RC Assisted),12,5,True,,DJI FPV,False,False,,Smart,RC,True,True,False,,,True,,False,False,False,False,False,False,False,False,False,False,0,Free,0,0,0,0,False,False,False,False,False,False,,True,Normal,100,100,364,364,364,1684,2,False,False,False,False,False,0,False,False,False,False,83,,,,23.755,True,3.959,3.959,3.959,3.959,3.959,3.959,,False,False,,,,,,3,,,5,5073.5,751.63,,Idle,,25,,5,,12,Hover,True,True,True,False,False,False,False,False,False,False,False,False,-7.2803203771769,112.792022644835,5.2,37.2,1640.4,True,1,1,False,False,False,False,,True,False,False,Course Lock,328,,9.8,88,,,,,Calm,False,False,,,,,,,,223.8,4.0,324.8,32.879886,14.316416,0,1232,DJI FPV,37QBJ3G00B020K,3F2TJ1429200MP,37RBHB600B03LB,37WPJ3CAA10285,DJI Fly,Linux,0.0.1,34C9E972-F3FE-0C19-B90D-4572EA614039,37QBJ3G00B020K,3F2TJ1429200MP,,37RBHB600B03LB,37WPJ3CAA10285,,,,,Gimbal auto check failed.; Motors starting.; Gimbal stuck. Check whether gimbal lock is removed and make sure gimbal can rotate freely.; Data Recorder File Index is 88.; Set Return to Home (RTH) altitude to 100 m (328 ft).; Set maximum flight altitude to 500 m (1640 ft).; Flight mode changed to Starting Motors.,
6/27/2025,3:23:15.47 AM,0m 0.3s,0.3,-7.2803138017808,112.792009553828,0,0,1.6,12,0,0,0,0,0,0,0,0,0,-11.8,-1.3,-138,222,,Starting Motors,Other,Takeoff (RC Assisted),12,5,True,,DJI FPV,False,False,,Smart,RC,True,True,False,,,True,,False,False,False,False,False,False,False,False,False,False,0,Free,0,0,0,0,False,False,False,False,False,False,,True,Normal,100,100,364,364,364,1684,2,False,False,False,False,False,0,False,False,False,False,83,,,,23.755,True,3.959,3.959,3.959,3.959,3.959,3.959,,False,False,,,,,,3,,,5,5073.5,751.63,,Idle,,25,,5,,12,Hover,True,True,True,False,False,False,False,False,False,False,False,False,-7.2803203771769,112.792022644835,5.3,37.2,1640.4,True,1,1,False,False,False,False,,True,False,False,Course Lock,328,,9.8,88,,,,,Calm,False,False,,,,,,,,223.8,4.0,324.8,32.879886,14.316416,0,1232,DJI FPV,37QBJ3G00B020K,3F2TJ1429200MP,37RBHB600B03LB,37WPJ3CAA10285,DJI Fly,Linux,0.0.1,34C9E972-F3FE-0C19-B90D-4572EA614039,37QBJ3G00B020K,3F2TJ1429200MP,,37RBHB600B03LB,37WPJ3CAA10285,,,,,,
6/27/2025,3:23:15.67 AM,0m 0.5s,0.5,-7.2803136998677,112.79200938055,0,0,1.6,12,0,0,0,0,0,0,0,0,0,-11.8,-1.3,-138,222,,Starting Motors,Other,Takeoff (RC Assisted),12,5,True,,DJI FPV,False,False,,Smart,RC,True,True,False,,,True,,False,False,False,False,False,False,False,False,False,False,0,Free,0,0,0,0,False,False,False,False,False,False,,True,Normal,100,100,364,364,364,1684,2,False,False,False,False,False,0,False,False,False,False,83,,,,23.755,True,3.959,3.959,3.959,3.959,3.959,3.959,,False,False,,,,,,3,,,5,5073.5,751.63,,Idle,,25,,5,,12,Hover,True,True,True,False,False,False,False,False,False,False,False,False,-7.2803203771769,112.792022644835,5.3,37.2,1640.4,True,1,1,False,False,False,False,,True,False,False,Course Lock,328,,9.8,88,,,,,Calm,False,False,,,,,,,,223.8,4.0,324.8,32.879886,14.316416,0,1232,DJI FPV,37QBJ3G00B020K,3F2TJ1429200MP,37RBHB600B03LB,37WPJ3CAA10285,DJI Fly,Linux,0.0.1,34C9E972-F3FE-0C19-B90D-4572EA614039,37QBJ3G00B020K,3F2TJ1429200MP,,37RBHB600B03LB,37WPJ3CAA10285,,,,,,
6/27/2025,3:23:15.87 AM,0m 0.7s,0.7,-7.2803135930604,112.792009044702,0,0,1.6,12,0.2,0,0,0,0,0,0,0,0,-11.8,-1.3,-138,222,,Starting Motors,Other,Takeoff (RC Assisted),12,5,True,,DJI FPV,False,False,,Smart,RC,True,True,False,,,True,,False,False,False,False,False,False,False,False,False,False,0,Free,0,0,0,0,False,False,False,False,False,True,,True,Normal,100,100,1019,1018,1077,1007,2,False,False,False,False,False,0,False,False,False,False,83,,,,23.755,True,3.959,3.959,3.959,3.959,3.959,3.959,,False,False,,,,,,3,,,5,5073.5,751.63,,Idle,,25,,5,,12,Hover,True,True,True,False,False,False,False,False,False,False,False,False,-7.2803203771769,112.792022644835,5.5,37.2,1640.4,True,1,1,False,False,False,False,,True,False,False,Course Lock,328,,9.8,88,,,,,Calm,False,False,,,,,,,,223.8,4.0,324.8,32.879886,14.316416,0,1232,DJI FPV,37QBJ3G00B020K,3F2TJ1429200MP,37RBHB600B03LB,37WPJ3CAA10285,DJI Fly,Linux,0.0.1,34C9E972-F3FE-0C19-B90D-4572EA614039,37QBJ3G00B020K,3F2TJ1429200MP,,37RBHB600B03LB,37WPJ3CAA10285,,,,,,
6/27/2025,3:23:16.07 AM,0m 0.9s,0.9,-7.2803134889062,112.792008706213,0,0,1.6,12,0.3,0,0,0,0,0,0,0,0,-11.9,-1.3,-138,222,,Starting Motors,Other,Takeoff (RC Assisted),12,5,True,,DJI FPV,False,False,,Smart,RC,True,True,False,,,True,,False,False,False,False,False,False,False,False,False,False,0,Free,0,0,0,0,False,False,False,False,False,True,,True,Normal,100,100,1019,1018,1017,1008,2,False,False,False,False,False,0,False,False,False,False,83,,,,23.755,True,3.959,3.959,3.959,3.959,3.959,3.959,,False,False,,,,,,3,,,5,5073.5,751.63,,Idle,,25,,5,,12,Hover,True,True,True,False,False,False,False,False,False,False,False,False,-7.2803203771769,112.792022644835,5.6,37.2,1640.4,True,1,1,False,False,False,False,,True,False,False,Course Lock,328,,9.8,88,,,,,Calm,False,False,,,,,,,,223.8,4.0,324.8,32.879886,14.316416,0,1232,DJI FPV,37QBJ3G00B020K,3F2TJ1429200MP,37RBHB600B03LB,37WPJ3CAA10285,DJI Fly,Linux,0.0.1,34C9E972-F3FE-0C19-B90D-4572EA614039,37QBJ3G00B020K,3F2TJ1429200MP,,37RBHB600B03LB,37WPJ3CAA10285,,,,,,
6/27/2025,3:23:16.27 AM,0m 1.1s,1.1,-7.2803135366617,112.792008525416,0,0,1.6,12,0.3,0,0,0,0,0,0,0,0,-11.9,-1.3,-138,222,,Starting Motors,Other,Takeoff (RC Assisted),12,5,True,,DJI FPV,False,False,,Smart,RC,True,True,False,,,True,,False,False,False,False,False,False,False,False,False,False,0,Free,0,0,0,0,False,False,False,False,False,True,,True,Normal,100,100,1020,1018,1161,1072,2,False,False,False,False,False,0,False,False,False,False,83,,,,23.751,True,3.959,3.959,3.959,3.959,3.959,3.959,,False,False,,,,,,4,,,5,5073.3,751.60,,Idle,,25,,5,,12,Hover,True,True,True,False,False,False,False,False,False,False,False,False,-7.2803203771769,112.792022644835,5.6,37.2,1640.4,True,1,1,False,False,False,False,,True,False,False,Course Lock,328,,9.8,88,,,,,Calm,False,False,,,,,,,,223.8,4.0,324.8,32.879886,14.316416,0,1232,DJI FPV,37QBJ3G00B020K,3F2TJ1429200MP,37RBHB600B03LB,37WPJ3CAA10285,DJI Fly,Linux,0.0.1,34C9E972-F3FE-0C19-B90D-4572EA614039,37QBJ3G00B020K,3F2TJ1429200MP,,37RBHB600B03LB,37WPJ3CAA10285,,,,,,
6/27/2025,3:23:16.47 AM,0m 1.3s,1.3,-7.2803132714116,112.792008342496,0,0,1.6,12,0.5,0,0,0,0,0,0,0,0,-11.9,-1.3,-138,222,,Starting Motors,Other,Takeoff (RC Assisted),12,5,True,,DJI FPV,False,False,,Smart,RC,True,True,False,,,True,,False,False,False,False,False,False,False,False,False,False,0,Free,0,0,0,0,False,False,False,False,False,True,,True,Normal,100,100,981,1173,1018,1006,2,False,False,False,False,False,0,False,False,False,False,83,,,,23.751,True,3.959,3.959,3.959,3.959,3.959,3.959,,False,False,,,,,,4,,,5,5073.3,751.60,,Idle,,25,,5,,12,Hover,True,True,True,False,False,False,False,False,False,False,False,False,-7.2803203771769,112.792022644835,5.7,37.2,1640.4,True,1,1,False,False,False,False,,True,False,False,Course Lock,328,,9.8,88,,,,,Calm,False,False,,,,,,,,223.8,4.0,324.8,32.879886,14.316416,0,1232,DJI FPV,37QBJ3G00B020K,3F2TJ1429200MP,37RBHB600B03LB,37WPJ3CAA10285,DJI Fly,Linux,0.0.1,34C9E972-F3FE-0C19-B90D-4572EA614039,37QBJ3G00B020K,3F2TJ1429200MP,,37RBHB600B03LB,37WPJ3CAA10285,,,,,,
6/27/2025,3:23:16.66 AM,0m 1.5s,1.5,-7.2803131674031,112.792008002615,0,0,1.6,12,0.6,0,0,0,0,0,0,0,0,-11.9,-1.2,-138,222,,Manual Takeoff,Other,Takeoff (RC Assisted),12,5,True,,DJI FPV,False,False,,Smart,RC,True,True,False,,,True,,False,False,False,False,False,False,False,False,False,False,0,Free,0,0,0,0,False,False,False,False,False,True,,True,Normal,100,100,926,1595,1017,1006,2,False,False,False,False,False,0,False,False,False,False,83,,,,23.751,True,3.959,3.959,3.959,3.959,3.959,3.959,,False,False,,,,,,4,,,5,5073.3,751.60,,Idle,,25,,5,,12,Hover,True,True,True,False,False,False,False,False,False,False,False,False,-7.2803203771769,112.792022644835,5.9,37.2,1640.4,True,1,1,False,False,False,False,,True,False,False,Course Lock,328,,9.8,88,,,,,Calm,False,False,,,,,,,,223.8,4.0,324.8,32.879886,14.316416,0,1232,DJI FPV,37QBJ3G00B020K,3F2TJ1429200MP,37RBHB600B03LB,37WPJ3CAA10285,DJI Fly,Linux,0.0.1,34C9E972-F3FE-0C19-B90D-4572EA614039,37QBJ3G00B020K,3F2TJ1429200MP,,37RBHB600B03LB,37WPJ3CAA10285,,,,,Flight mode changed to Manual Takeoff.,
6/27/2025,3:23:16.87 AM,0m 1.7s,1.7,-7.2803130629843,112.792007666714,0,0,1.6,12,0.7,0,0,0,0,0,0,0,0,-11.9,-1.2,-138,222,,Manual Takeoff,Other,Takeoff (RC Assisted),12,5,True,,DJI FPV,False,False,,Smart,RC,True,True,False,,,True,,False,False,False,False,False,False,False,False,False,False,0,Free,0,0,0,0,False,False,False,False,False,True,,True,Normal,100,100,674,1684,1018,1005,2,False,False,False,False,False,0,False,False,False,False,83,,,,23.751,True,3.959,3.959,3.959,3.959,3.959,3.959,,False,False,,,,,,4,,,5,5073.3,751.60,,Idle,,25,,5,,12,Hover,True,True,True,False,False,False,False,False,False,False,False,False,-7.2803203771769,112.792022644835,6.0,37.2,1640.4,True,1,1,False,False,False,False,,True,False,False,Course Lock,328,,9.8,88,,,,,Calm,False,False,,,,,,,,223.8,4.0,324.8,32.879886,14.316416,0,1232,DJI FPV,37QBJ3G00B020K,3F2TJ1429200MP,37RBHB600B03LB,37WPJ3CAA10285,DJI Fly,Linux,0.0.1,34C9E972-F3FE-0C19-B90D-4572EA614039,37QBJ3G00B020K,3F2TJ1429200MP,,37RBHB600B03LB,37WPJ3CAA10285,,,,,,
6/27/2025,3:23:17.07 AM,0m 1.9s,1.9,-7.2803129608387,112.792007337557,0,0,1.6,12,0.8,0,0,0,0,0,0,0,0,-11.9,-1.2,-138,222,,Manual Takeoff,Other,Takeoff (RC Assisted),12,5,True,,DJI FPV,False,False,,Smart,RC,True,True,False,,,True,,False,False,False,False,False,False,False,False,False,False,0,Free,0,0,0,0,False,False,False,False,False,True,,True,Normal,100,100,757,1684,1017,1006,2,False,False,False,False,False,0,False,False,False,False,83,,,,23.751,True,3.959,3.959,3.959,3.959,3.959,3.959,,False,False,,,,,,4,,,5,5073.3,751.60,,Idle,,25,,5,,12,Hover,True,True,True,False,False,False,False,False,False,False,False,False,-7.2803203771769,112.792022644835,6.1,37.2,1640.4,True,1,1,False,False,False,False,,True,False,False,Course Lock,328,,9.8,88,,,,,Calm,False,False,,,,,,,,223.8,4.0,324.8,32.879886,14.316416,0,1232,DJI FPV,37QBJ3G00B020K,3F2TJ1429200MP,37RBHB600B03LB,37WPJ3CAA10285,DJI Fly,Linux,0.0.1,34C9E972-F3FE-0C19-B90D-4572EA614039,37QBJ3G00B020K,3F2TJ1429200MP,,37RBHB600B03LB,37WPJ3CAA10285,,,,,,
6/27/2025,3:23:17.28 AM,0m 2.1s,2.1,-7.2803128598283,112.792007162584,0,0,1.6,12,0.9,0,0,0,0,0,0,0,0,-11.9,-1.2,-138,222,,Manual Takeoff,Other,Takeoff (RC Assisted),12,5,True,,DJI FPV,False,False,,Smart,RC,True,True,False,,,True,,False,False,False,False,False,False,False,False,False,False,0,Free,0,0,0,0,False,False,False,False,False,True,,True,Normal,100,100,846,1362,1018,1006,2,False,False,False,False,False,0,False,False,False,False,83,,,,23.714,True,3.952,3.952,3.952,3.952,3.952,3.952,,False,False,,,,,,4,,,5,5279.6,782.16,,Idle,,25,,5,,12,Hover,True,True,True,False,False,False,False,False,False,False,False,False,-7.2803203771769,112.792022644835,6.2,37.2,1640.4,True,1,1,False,False,False,False,,True,False,False,Course Lock,328,,9.8,88,,,,,Calm,False,False,,,,,,,,223.8,4.0,324.8,32.879886,14.316416,0,1232,DJI FPV,37QBJ3G00B020K,3F2TJ1429200MP,37RBHB600B03LB,37WPJ3CAA10285,DJI Fly,Linux,0.0.1,34C9E972-F3FE-0C19-B90D-4572EA614039,37QBJ3G00B020K,3F2TJ1429200MP,,37RBHB600B03LB,37WPJ3CAA10285,,,,,,
6/27/2025,3:23:17.48 AM,0m 2.3s,2.3,-7.2803127587575,112.792006832839,0,0,1.6,12,1.0,0,0,0,0,0,0,0,0,-12,-1.2,-138,222,,Manual Takeoff,Other,Takeoff (RC Assisted),12,5,True,,DJI FPV,False,False,,Smart,RC,True,True,False,,,True,,False,False,False,False,False,False,False,False,False,False,0,Free,0,0,0,0,False,False,False,False,False,True,,True,Normal,100,100,1020,1019,1017,1006,2,False,False,False,False,False,0,False,False,False,False,83,,,,23.714,True,3.952,3.952,3.952,3.952,3.952,3.952,,False,False,,,,,,4,,,5,5279.6,782.16,,Idle,,25,,5,,12,Hover,True,True,True,False,False,False,False,False,False,False,False,False,-7.2803203771769,112.792022644835,6.3,37.2,1640.4,True,1,1,False,False,False,False,,True,False,False,Course Lock,328,,9.8,88,,,,,Calm,False,False,,,,,,,,223.8,4.0,324.8,32.879886,14.316416,0,1232,DJI FPV,37QBJ3G00B020K,3F2TJ1429200MP,37RBHB600B03LB,37WPJ3CAA10285,DJI Fly,Linux,0.0.1,34C9E972-F3FE-0C19-B90D-4572EA614039,37QBJ3G00B020K,3F2TJ1429200MP,,37RBHB600B03LB,37WPJ3CAA10285,,,,,,
6/27/2025,3:23:17.69 AM,0m 2.5s,2.5,-7.2803126593944,112.792006659981,0,0,1.6,12,1.1,0,0,0,0,0,0,0,0,-12,-1.2,-138,222,,Manual Takeoff,Other,Takeoff (RC Assisted),14,5,True,,DJI FPV,False,False,,Smart,RC,True,True,False,,,True,,False,False,False,False,False,False,False,False,False,False,0,Free,0,0,0,0,False,False,False,False,False,True,,True,Normal,100,100,1020,1019,1017,1006,2,False,False,False,False,False,0,False,False,False,False,83,,,,23.714,True,3.952,3.952,3.952,3.952,3.952,3.952,,False,False,,,,,,4,,,5,5279.6,782.16,,Idle,,25,,5,,12,Hover,True,True,True,False,False,False,False,False,False,False,False,False,-7.2803203771769,112.792022644835,6.4,37.2,1640.4,True,1,1,False,False,False,False,,True,False,False,Course Lock,328,,9.8,88,,,,,Calm,False,False,,,,,,,,223.8,4.0,324.8,32.879886,14.316416,0,1232,DJI FPV,37QBJ3G00B020K,3F2TJ1429200MP,37RBHB600B03LB,37WPJ3CAA10285,DJI Fly,Linux,0.0.1,34C9E972-F3FE-0C19-B90D-4572EA614039,37QBJ3G00B020K,3F2TJ1429200MP,,37RBHB600B03LB,37WPJ3CAA10285,,,,,,
6/27/2025,3:23:17.89 AM,0m 2.7s,2.7,-7.2803125744736,112.792006365043,0,0,1.6,12,1.2,0,0,0,0,0,0,0,0,-12,-1.2,-137.9,222.1,,Manual Takeoff,Other,Takeoff (RC Assisted),14,5,True,,DJI FPV,False,False,,Smart,RC,True,True,False,,,True,,False,False,False,False,False,False,False,False,False,False,0,Free,0,0,0,0,False,False,False,False,False,True,,True,Normal,100,100,1020,1018,1017,1006,2,False,False,False,False,False,0,False,False,False,False,83,,,,23.714,True,3.952,3.952,3.952,3.952,3.952,3.952,,False,False,,,,,,4,,,5,5279.6,782.16,,Idle,,25,,5,,12,Hover,True,True,True,False,False,False,False,False,False,False,False,False,-7.2803203771769,112.792022644835,6.5,37.2,1640.4,True,1,1,False,False,False,False,,True,False,False,Course Lock,328,,9.8,88,,,,,Calm,False,False,,,,,,,,223.8,4.0,324.8,32.879886,14.316416,0,1232,DJI FPV,37QBJ3G00B020K,3F2TJ1429200MP,37RBHB600B03LB,37WPJ3CAA10285,DJI Fly,Linux,0.0.1,34C9E972-F3FE-0C19-B90D-4572EA614039,37QBJ3G00B020K,3F2TJ1429200MP,,37RBHB600B03LB,37WPJ3CAA10285,,,,,,
6/27/2025,3:23:18.10 AM,0m 2.9s,2.9,-7.2803127542135,112.792006597015,0,0,1.6,12,1.3,0,0,0,0,0,0,0,0,-12,-1.2,-137.9,222.1,,Manual Takeoff,Other,Takeoff (RC Assisted),14,5,True,,DJI FPV,False,False,,Smart,RC,True,True,False,,,True,,False,False,False,False,False,False,False,False,False,False,0,Free,0,0,0,0,False,False,False,False,False,True,,True,Normal,100,100,1020,1018,1017,1006,2,False,False,False,False,False,0,False,False,False,False,83,,,,23.714,True,3.952,3.952,3.952,3.952,3.952,3.952,,False,False,,,,,,4,,,5,5279.6,782.16,,Idle,,25,,5,,12,Hover,True,True,True,False,False,False,False,False,False,False,False,False,-7.2803203771769,112.792022644835,6.4,37.2,1640.4,True,1,1,False,False,False,False,,True,False,False,Course Lock,328,,9.8,88,,,,,Calm,False,False,,,,,,,,223.8,4.0,324.8,32.879886,14.316416,0,1232,DJI FPV,37QBJ3G00B020K,3F2TJ1429200MP,37RBHB600B03LB,37WPJ3CAA10285,DJI Fly,Linux,0.0.1,34C9E972-F3FE-0C19-B90D-4572EA614039,37QBJ3G00B020K,3F2TJ1429200MP,,37RBHB600B03LB,37WPJ3CAA10285,,,,,,
6/27/2025,3:23:18.27 AM,0m 3.1s,3.1,-7.2803127931665,112.792006556693,0,0,1.6,12,1.4,0,0,0,0,0,0,0,0,-12,-1.2,-137.9,222.1,,Manual Takeoff,Other,Takeoff (RC Assisted),14,5,True,,DJI FPV,False,False,,Smart,RC,True,True,False,,,True,,False,False,False,False,False,False,False,False,False,False,0,Free,0,0,0,0,False,False,False,False,False,True,,True,Normal,100,100,1020,1018,1018,1006,2,False,False,False,False,False,0,False,False,False,False,83,23.698,1468,1776,23.708,False,3.953,3.947,3.949,3.951,3.95,3.949,0.006,False,False,1.44,98.4,98.4,98.4,,4,,,5,5620.1,832.61,,Idle,,25,,5,,12,Hover,True,True,True,False,False,False,False,False,False,False,False,False,-7.2803203771769,112.792022644835,6.4,37.2,1640.4,True,1,1,False,False,False,False,,True,False,False,Course Lock,328,,9.8,88,,,,,Calm,False,False,Linux,0.0.1,DJI FPV,37QBJ3G00B020K,3F2TJ1429200MP,37RBHB600B03LB,,223.8,4.0,324.8,32.879886,14.316416,0,1232,DJI FPV,37QBJ3G00B020K,3F2TJ1429200MP,37RBHB600B03LB,37WPJ3CAA10285,DJI Fly,Linux,0.0.1,34C9E972-F3FE-0C19-B90D-4572EA614039,37QBJ3G00B020K,3F2TJ1429200MP,3F2TJ1429200MP,37RBHB600B03LB,37WPJ3CAA10285,,,,,Gimbal auto check failed.,
6/27/2025,3:23:18.51 AM,0m 3.3s,3.3,-7.2803129737865,112.792006801763,0,0,1.6,12,1.5,0,0,0,0,0,0,0,0,-12,-1.2,-137.9,222.1,,Manual Takeoff,Other,Takeoff (RC Assisted),14,5,True,,DJI FPV,False,False,,Smart,RC,True,True,False,,,True,,False,False,False,False,False,False,False,False,False,False,0,Free,0,0,0,0,False,False,False,False,False,True,,True,Normal,100,100,1020,1018,1018,1006,2,False,False,False,False,False,0,False,False,False,False,83,23.698,1468,1776,23.708,False,3.953,3.947,3.949,3.951,3.95,3.949,0.006,False,False,1.44,98.4,98.4,98.4,,4,,,5,5620.1,832.61,,Idle,,25,,5,,12,Hover,True,True,True,False,False,False,False,False,False,False,False,False,-7.2803203771769,112.792022644835,6.3,37.2,1640.4,True,1,1,False,False,False,False,,True,False,False,Course Lock,328,,9.8,88,,,,,Calm,False,False,Linux,0.0.1,DJI FPV,37QBJ3G00B020K,3F2TJ1429200MP,37RBHB600B03LB,,223.8,4.0,324.8,32.879886,14.316416,0,1232,DJI FPV,37QBJ3G00B020K,3F2TJ1429200MP,37RBHB600B03LB,37WPJ3CAA10285,DJI Fly,Linux,0.0.1,34C9E972-F3FE-0C19-B90D-4572EA614039,37QBJ3G00B020K,3F2TJ1429200MP,3F2TJ1429200MP,37RBHB600B03LB,37WPJ3CAA10285,,,,,,
6/27/2025,3:23:18.71 AM,0m 3.5s,3.5,-7.2803129904769,112.792006716272,0,0,1.6,12,1.5,0,0,0,0,0,0,0,0,-12.1,-1.2,-137.9,222.1,,Manual Takeoff,Other,Takeoff (RC Assisted),14,5,True,,DJI FPV,False,False,,Smart,RC,True,True,False,,,True,,False,False,False,False,False,False,False,False,False,False,0,Free,0,0,0,0,False,False,False,False,False,True,,True,Normal,100,100,1020,1018,1017,1006,2,False,False,False,False,False,0,False,False,False,False,83,23.698,1468,1776,23.708,False,3.953,3.947,3.949,3.951,3.95,3.949,0.006,False,False,1.44,98.4,98.4,98.4,,4,,,5,5620.1,832.61,,Idle,,25,,5,,12,Hover,True,True,True,False,False,False,False,False,False,False,False,False,-7.2803203771769,112.792022644835,6.3,37.2,1640.4,True,1,1,False,False,False,False,,True,False,False,Course Lock,328,,9.8,88,,,,,Calm,False,False,Linux,0.0.1,DJI FPV,37QBJ3G00B020K,3F2TJ1429200MP,37RBHB600B03LB,,223.8,4.0,324.8,32.879886,14.316416,0,1232,DJI FPV,37QBJ3G00B020K,3F2TJ1429200MP,37RBHB600B03LB,37WPJ3CAA10285,DJI Fly,Linux,0.0.1,34C9E972-F3FE-0C19-B90D-4572EA614039,37QBJ3G00B020K,3F2TJ1429200MP,3F2TJ1429200MP,37RBHB600B03LB,37WPJ3CAA10285,,,,,,
6/27/2025,3:23:18.87 AM,0m 3.7s,3.7,-7.2803131545986,112.792006777745,0,0,1.6,12,1.6,0,0,0,0,0,0,0,0,-12.1,-1.2,-137.9,222.1,,Manual Takeoff,Other,Takeoff (RC Assisted),14,5,True,,DJI FPV,False,False,,Smart,RC,True,True,False,,,True,,False,False,False,False,False,False,False,False,False,False,0,Free,0,0,0,0,False,False,False,False,False,True,,True,Normal,100,100,1020,1018,1017,1006,2,False,False,False,False,False,0,False,False,False,False,83,23.698,1468,1776,23.708,False,3.953,3.947,3.949,3.951,3.95,3.949,0.006,False,False,1.44,98.4,98.4,98.4,,4,,,5,5620.1,832.61,,Idle,,25,,5,,12,Hover,True,True,True,False,False,False,False,False,False,False,False,False,-7.2803203771769,112.792022644835,6.3,37.2,1640.4,True,1,1,False,False,False,False,,True,False,False,Course Lock,328,,9.8,88,,,,,Calm,False,False,Linux,0.0.1,DJI FPV,37QBJ3G00B020K,3F2TJ1429200MP,37RBHB600B03LB,,223.8,4.0,324.8,32.879886,14.316416,0,1232,DJI FPV,37QBJ3G00B020K,3F2TJ1429200MP,37RBHB600B03LB,37WPJ3CAA10285,DJI Fly,Linux,0.0.1,34C9E972-F3FE-0C19-B90D-4572EA614039,37QBJ3G00B020K,3F2TJ1429200MP,3F2TJ1429200MP,37RBHB600B03LB,37WPJ3CAA10285,,,,,,
6/27/2025,3:23:19.07 AM,0m 3.9s,3.9,-7.2803131529172,112.792006670562,0,0,1.6,12,1.6,0,0,0,0,0,0,0,0,-12.1,-1.1,-137.9,222.1,,Manual Takeoff,Other,Takeoff (RC Assisted),14,5,True,,DJI FPV,False,False,,Smart,RC,True,True,False,,,True,,False,False,False,False,False,False,False,False,False,False,0,Free,0,0,0,0,False,False,False,False,False,True,,True,Normal,100,100,1020,1018,1086,1162,2,False,False,False,False,False,0,False,False,False,False,83,23.698,1468,1776,23.708,False,3.953,3.947,3.949,3.951,3.95,3.949,0.006,False,False,1.44,98.4,98.4,98.4,,4,,,5,5620.1,832.61,,Idle,,25,,5,,12,Hover,True,True,True,False,False,False,False,False,False,False,False,False,-7.2803203771769,112.792022644835,6.3,37.2,1640.4,True,1,1,False,False,False,False,,True,False,False,Course Lock,328,,9.8,88,,,,,Calm,False,False,Linux,0.0.1,DJI FPV,37QBJ3G00B020K,3F2TJ1429200MP,37RBHB600B03LB,,223.8,4.0,324.8,32.879886,14.316416,0,1232,DJI FPV,37QBJ3G00B020K,3F2TJ1429200MP,37RBHB600B03LB,37WPJ3CAA10285,DJI Fly,Linux,0.0.1,34C9E972-F3FE-0C19-B90D-4572EA614039,37QBJ3G00B020K,3F2TJ1429200MP,3F2TJ1429200MP,37RBHB600B03LB,37WPJ3CAA10285,,,,,,
6/27/2025,3:23:19.27 AM,0m 4.1s,4.1,-7.2803131468587,112.792006558599,0,0,1.6,12,1.6,0,0,0,0,0,0,0,0,-12.1,-1.1,-137.9,222.1,,Manual Takeoff,Other,Takeoff (RC Assisted),14,5,True,,DJI FPV,False,False,,Smart,RC,True,True,False,,,True,,False,False,False,False,False,False,False,False,False,False,0,Free,0,0,0,0,False,False,False,False,False,True,,True,Normal,100,100,930,1021,1094,1010,2,False,False,False,False,False,0,False,False,False,False,83,23.698,1468,1776,23.699,False,3.953,3.945,3.95,3.951,3.95,3.95,0.008,False,False,1.48,98.4,98.4,98.4,,4,,,5,5964.8,883.68,,Idle,,25,,5,,12,Hover,True,True,True,False,False,False,False,False,False,False,False,False,-7.2803203771769,112.792022644835,6.3,37.2,1640.4,True,1,1,False,False,False,False,,True,False,False,Course Lock,328,,9.8,88,,,,,Calm,False,False,Linux,0.0.1,DJI FPV,37QBJ3G00B020K,3F2TJ1429200MP,37RBHB600B03LB,,223.8,4.0,324.8,32.879886,14.316416,0,1232,DJI FPV,37QBJ3G00B020K,3F2TJ1429200MP,37RBHB600B03LB,37WPJ3CAA10285,DJI Fly,Linux,0.0.1,34C9E972-F3FE-0C19-B90D-4572EA614039,37QBJ3G00B020K,3F2TJ1429200MP,3F2TJ1429200MP,37RBHB600B03LB,37WPJ3CAA10285,,,,,,
6/27/2025,3:23:19.47 AM,0m 4.3s,4.3,-7.2803131378038,112.792006447656,0,0,1.6,12,1.7,0,0,0,0,0,0,0,0,-12.1,-1.1,-137.9,222.1,,Manual Takeoff,Other,Takeoff (RC Assisted),14,5,True,,DJI FPV,False,False,,Smart,RC,True,True,False,,,True,,False,False,False,False,False,False,False,False,False,False,0,Free,0,0,0,0,False,False,False,False,False,True,,True,Normal,100,100,799,1338,1379,1034,2,False,False,False,False,False,0,False,False,False,False,83,23.698,1468,1776,23.699,False,3.953,3.945,3.95,3.951,3.95,3.95,0.008,False,False,1.48,98.4,98.4,98.4,,4,,,5,5964.8,883.68,,Idle,,25,,5,,12,Hover,True,True,True,False,False,False,False,False,False,False,False,False,-7.2803203771769,112.792022644835,6.4,37.2,1640.4,True,1,1,False,False,False,False,,True,False,False,Course Lock,328,,9.8,88,,,,,Calm,False,False,Linux,0.0.1,DJI FPV,37QBJ3G00B020K,3F2TJ1429200MP,37RBHB600B03LB,,223.8,4.0,324.8,32.879886,14.316416,0,1232,DJI FPV,37QBJ3G00B020K,3F2TJ1429200MP,37RBHB600B03LB,37WPJ3CAA10285,DJI Fly,Linux,0.0.1,34C9E972-F3FE-0C19-B90D-4572EA614039,37QBJ3G00B020K,3F2TJ1429200MP,3F2TJ1429200MP,37RBHB600B03LB,37WPJ3CAA10285,,,,,,
6/27/2025,3:23:19.67 AM,0m 4.5s,4.5,-7.280313276564,112.792006493077,0,0,1.6,12,1.7,0,0,0,0,0,0,0,0,-11.9,-1.2,-137.9,222.1,,Manual Takeoff,Other,Takeoff (RC Assisted),14,5,True,,DJI FPV,False,False,,Smart,RC,True,True,False,,,True,,False,False,False,False,False,False,False,False,False,False,0,Free,0,0,0,0,False,False,False,False,False,True,,True,Normal,100,100,852,1684,1684,1020,2,False,False,False,False,False,0,False,False,False,False,83,23.698,1468,1776,23.699,False,3.953,3.945,3.95,3.951,3.95,3.95,0.008,False,False,1.48,98.4,98.4,98.4,,4,,,5,5964.8,883.68,,Idle,,25,,5,,12,Hover,True,True,True,False,False,False,False,False,False,False,False,False,-7.2803203771769,112.792022644835,6.3,37.2,1640.4,True,1,1,False,False,False,False,,True,False,False,Course Lock,328,,9.8,88,,,,,Calm,False,False,Linux,0.0.1,DJI FPV,37QBJ3G00B020K,3F2TJ1429200MP,37RBHB600B03LB,,223.8,4.0,324.8,32.879886,14.316416,0,1232,DJI FPV,37QBJ3G00B020K,3F2TJ1429200MP,37RBHB600B03LB,37WPJ3CAA10285,DJI Fly,Linux,0.0.1,34C9E972-F3FE-0C19-B90D-4572EA614039,37QBJ3G00B020K,3F2TJ1429200MP,3F2TJ1429200MP,37RBHB600B03LB,37WPJ3CAA10285,,,,,,
6/27/2025,3:23:19.87 AM,0m 4.7s,4.7,-7.280313372575,112.792006436392,0,0,1.6,12,1.8,0,0,0,0,0,0,0,0,-11.6,-1.4,-137.8,222.2,,Manual Takeoff,Other,Takeoff (RC Assisted),14,5,True,,DJI FPV,False,False,,Smart,RC,True,True,False,,,True,,False,False,False,False,False,False,False,False,False,False,0,Free,0,0,0,0,False,False,False,False,False,True,,True,Normal,100,100,814,1684,1684,1009,2,False,False,False,False,False,0,False,False,False,False,83,23.698,1468,1776,23.699,False,3.953,3.945,3.95,3.951,3.95,3.95,0.008,False,False,1.48,98.4,98.4,98.4,,4,,,5,5964.8,883.68,,Idle,,25,,5,,12,Hover,True,True,True,False,False,False,False,False,False,False,False,False,-7.2803203771769,112.792022644835,6.3,37.2,1640.4,True,1,1,False,False,False,False,,True,False,False,Course Lock,328,,9.8,88,,,,,Calm,False,False,Linux,0.0.1,DJI FPV,37QBJ3G00B020K,3F2TJ1429200MP,37RBHB600B03LB,,223.8,4.0,324.8,32.879886,14.316416,0,1232,DJI FPV,37QBJ3G00B020K,3F2TJ1429200MP,37RBHB600B03LB,37WPJ3CAA10285,DJI Fly,Linux,0.0.1,34C9E972-F3FE-0C19-B90D-4572EA614039,37QBJ3G00B020K,3F2TJ1429200MP,3F2TJ1429200MP,37RBHB600B03LB,37WPJ3CAA10285,,,,,,
6/27/2025,3:23:20.07 AM,0m 4.9s,4.9,-7.2803133824502,112.792006261991,0,0,1.6,12,1.8,0,0,0,0,0,0,0,0,-10.8,-1.6,-137.6,222.4,,Manual Takeoff,Other,Takeoff (RC Assisted),14,5,True,,DJI FPV,False,False,,Smart,RC,True,True,False,,,True,,False,False,False,False,False,False,False,False,False,False,0,Free,0,0,0,0,False,False,False,False,False,True,,True,Normal,100,100,851,1684,1684,1042,2,False,False,False,False,False,0,False,False,False,False,83,23.698,1468,1776,23.699,False,3.953,3.945,3.95,3.951,3.95,3.95,0.008,False,False,1.48,98.4,98.4,98.4,,4,,,5,5964.8,883.68,,Idle,,25,,5,,12,Hover,True,True,True,False,False,False,False,False,False,False,False,False,-7.2803203771769,112.792022644835,6.4,37.2,1640.4,True,1,1,False,False,False,False,,True,False,False,Course Lock,328,,9.8,88,,,,,Calm,False,False,Linux,0.0.1,DJI FPV,37QBJ3G00B020K,3F2TJ1429200MP,37RBHB600B03LB,,223.8,4.0,324.8,32.879886,14.316416,0,1232,DJI FPV,37QBJ3G00B020K,3F2TJ1429200MP,37RBHB600B03LB,37WPJ3CAA10285,DJI Fly,Linux,0.0.1,34C9E972-F3FE-0C19-B90D-4572EA614039,37QBJ3G00B020K,3F2TJ1429200MP,3F2TJ1429200MP,37RBHB600B03LB,37WPJ3CAA10285,,,,,,
6/27/2025,3:23:20.26 AM,0m 5.1s,5.1,-7.2803133478786,112.792006152258,0,0,1.6,12,1.9,0,0,0,0,0,0,0,0,-9.3,-1.6,-137.3,222.7,,Manual Takeoff,Other,Takeoff (RC Assisted),14,5,True,,DJI FPV,False,False,,Smart,RC,True,True,False,,,True,,False,False,False,False,False,False,False,False,False,False,0,Free,0,0,0,0,False,False,False,False,False,True,,True,Normal,100,100,898,1684,1684,1021,2,False,False,False,False,False,0,False,False,False,False,83,23.572,1468,1776,23.629,False,3.934,3.928,3.929,3.929,3.926,3.926,0.008,False,False,3.32,98.4,98.4,98.4,,4,,,5,6317.2,935.88,,Idle,,25,,5,,12,Hover,True,True,True,False,False,False,False,False,False,False,False,False,-7.2803203771769,112.792022644835,6.4,37.2,1640.4,True,1,1,False,False,False,False,,True,False,False,Course Lock,328,,9.8,88,,,,,Calm,False,False,Linux,0.0.1,DJI FPV,37QBJ3G00B020K,3F2TJ1429200MP,37RBHB600B03LB,,223.8,4.0,324.8,32.879886,14.316416,0,1232,DJI FPV,37QBJ3G00B020K,3F2TJ1429200MP,37RBHB600B03LB,37WPJ3CAA10285,DJI Fly,Linux,0.0.1,34C9E972-F3FE-0C19-B90D-4572EA614039,37QBJ3G00B020K,3F2TJ1429200MP,3F2TJ1429200MP,37RBHB600B03LB,37WPJ3CAA10285,,,,,,
6/27/2025,3:23:20.46 AM,0m 5.3s,5.3,-7.2803133512682,112.792006160474,0,0,1.6,12,1.9,0,0,0,0,0,0,0,0,-8.9,-1,-137.1,222.9,,Manual Takeoff,Other,Takeoff (RC Assisted),14,5,True,,DJI FPV,False,False,,Smart,RC,True,True,False,,,True,,False,False,False,False,False,False,False,False,False,False,0,Free,0,0,0,0,False,False,False,False,False,True,,True,Normal,100,100,870,1682,1652,1148,2,False,False,False,False,False,0,False,False,False,False,83,23.572,1468,1776,23.629,False,3.934,3.928,3.929,3.929,3.926,3.926,0.008,False,False,3.32,98.4,98.4,98.4,,4,,,5,6317.2,935.88,,Idle,,25,,5,,12,Hover,True,True,True,False,False,False,False,False,False,False,False,False,-7.2803203771769,112.792022644835,6.4,37.2,1640.4,True,1,1,False,False,False,False,,True,False,False,Course Lock,328,,9.8,88,,,,,Calm,False,False,Linux,0.0.1,DJI FPV,37QBJ3G00B020K,3F2TJ1429200MP,37RBHB600B03LB,,223.8,4.0,324.8,32.879886,14.316416,0,1232,DJI FPV,37QBJ3G00B020K,3F2TJ1429200MP,37RBHB600B03LB,37WPJ3CAA10285,DJI Fly,Linux,0.0.1,34C9E972-F3FE-0C19-B90D-4572EA614039,37QBJ3G00B020K,3F2TJ1429200MP,3F2TJ1429200MP,37RBHB600B03LB,37WPJ3CAA10285,,,,,,
6/27/2025,3:23:20.66 AM,0m 5.5s,5.5,-7.2803136889797,112.792006016801,0,0,1.6,12,2.0,0.632702,0.632702,-0.447388,0,-0.447388,0,-0.447388,0,-14.2,-1.6,-135.8,224.2,202.8,P-GPS (Brake),Other,,14,5,True,,DJI FPV,False,False,,Smart,RC,False,True,False,,,True,,False,False,False,False,False,False,False,False,False,False,0,Free,0,0,0,0,False,False,False,False,False,True,,True,Normal,100,100,880,1666,1594,1139,2,False,False,False,False,False,0,False,False,False,False,83,23.572,1468,1776,23.629,False,3.934,3.928,3.929,3.929,3.926,3.926,0.008,False,False,3.32,98.4,98.4,98.4,,4,,,5,6317.2,935.88,,Idle,,25,,5,,12,Hover,True,True,True,False,False,False,False,False,False,False,False,False,-7.2803203771769,112.792022644835,6.4,37.2,1640.4,True,1,1,False,False,False,False,,True,False,False,Course Lock,328,,9.8,88,,,,,Calm,False,False,Linux,0.0.1,DJI FPV,37QBJ3G00B020K,3F2TJ1429200MP,37RBHB600B03LB,,223.8,4.0,324.8,32.879886,14.316416,0,1232,DJI FPV,37QBJ3G00B020K,3F2TJ1429200MP,37RBHB600B03LB,37WPJ3CAA10285,DJI Fly,Linux,0.0.1,34C9E972-F3FE-0C19-B90D-4572EA614039,37QBJ3G00B020K,3F2TJ1429200MP,3F2TJ1429200MP,37RBHB600B03LB,37WPJ3CAA10285,,,,,Flight mode changed to P-GPS (Brake).,
6/27/2025,3:23:20.87 AM,0m 5.7s,5.7,-7.2803146405687,112.79200525189,0,0,1.6,12,2.5,2.23694,2.23694,-1.789552,0,-1.342164,0,-2.23694,0,-16.6,-2.1,-134.4,225.6,218.5,P-GPS (Brake),Other,,14,5,True,,DJI FPV,False,False,,Smart,RC,False,True,False,,,True,,False,False,False,False,False,False,False,False,False,False,0,Free,0,0,0,0,False,False,False,False,False,True,,True,Normal,100,100,836,1529,1425,1011,2,False,False,False,False,False,0,False,False,False,False,83,23.572,1468,1776,23.629,False,3.934,3.928,3.929,3.929,3.926,3.926,0.008,False,False,3.32,98.4,98.4,98.4,,4,,,5,6317.2,935.88,,Idle,,25,,5,,12,Hover,True,True,True,False,False,False,False,False,True,False,False,False,-7.2803203771769,112.792022644835,6.6,37.2,1640.4,True,1,1,False,False,False,False,,True,False,False,Course Lock,328,,9.8,88,,,,,Calm,False,False,Linux,0.0.1,DJI FPV,37QBJ3G00B020K,3F2TJ1429200MP,37RBHB600B03LB,,223.8,4.0,324.8,32.879886,14.316416,0,1232,DJI FPV,37QBJ3G00B020K,3F2TJ1429200MP,37RBHB600B03LB,37WPJ3CAA10285,DJI Fly,Linux,0.0.1,34C9E972-F3FE-0C19-B90D-4572EA614039,37QBJ3G00B020K,3F2TJ1429200MP,3F2TJ1429200MP,37RBHB600B03LB,37WPJ3CAA10285,,,,,,
6/27/2025,3:23:21.08 AM,0m 5.9s,5.9,-7.2803168538301,112.792004054896,1.3,1.3,1.6,13,3.4,3.982758,3.982758,-3.131716,0,-2.460634,0,-4.47388,0,-13.7,-3.8,-134.2,225.8,208.2,P-GPS (Brake),Other,,14,5,True,,DJI FPV,True,False,,Smart,RC,False,True,False,,,True,,False,False,False,False,False,False,False,False,False,False,0,Free,0,0,0,0,False,False,False,False,False,True,,True,Normal,100,100,823,1440,1396,1056,2,False,False,False,False,False,0,False,False,False,False,83,23.572,1468,1776,23.629,False,3.934,3.928,3.929,3.929,3.926,3.926,0.008,False,False,3.32,98.4,98.4,98.4,,4,,,5,6317.2,935.88,,Idle,,25,,5,,12,Hover,True,True,True,False,False,False,False,False,True,False,False,False,-7.2803203771769,112.792022644835,6.8,37.2,1640.4,True,1,1,False,False,False,False,,True,False,False,Course Lock,328,,9.8,88,,,,,Calm,False,False,Linux,0.0.1,DJI FPV,37QBJ3G00B020K,3F2TJ1429200MP,37RBHB600B03LB,,223.8,4.0,324.8,32.879886,14.316416,0,1232,DJI FPV,37QBJ3G00B020K,3F2TJ1429200MP,37RBHB600B03LB,37WPJ3CAA10285,DJI Fly,Linux,0.0.1,34C9E972-F3FE-0C19-B90D-4572EA614039,37QBJ3G00B020K,3F2TJ1429200MP,3F2TJ1429200MP,37RBHB600B03LB,37WPJ3CAA10285,,,,,,
6/27/2025,3:23:21.28 AM,0m 6.1s,6.1,-7.2803201604198,112.79200228498,2.9,2.9,3.6,15,4.7,5.149822,5.149822,-4.250186,0,-2.908022,0,-6.934514,0,-9.2,-3.8,-132.3,227.7,207.9,P-GPS (Brake),Other,,14,5,True,,DJI FPV,True,False,,Smart,RC,False,True,False,,,True,,False,False,False,False,False,False,False,False,False,False,0,Free,0,0,0,0,False,False,False,False,False,True,,True,Normal,100,100,847,1396,1311,1020,2,False,False,False,False,False,0,False,False,False,False,83,22.942,1464,1776,23.516,False,3.836,3.812,3.81,3.827,3.825,3.833,0.026,False,False,12.364,98.6,98.4,98.6,,2,,,6,7295.9,1080.87,,Idle,,25,,5,,12,Go Home,True,True,True,False,False,False,False,False,True,False,False,False,-7.2803134598856,112.792006068388,2.8,37.2,1640.4,True,1,1,False,False,False,False,,True,False,False,Course Lock,328,,9.8,88,,,,,Calm,False,False,Linux,0.0.1,DJI FPV,37QBJ3G00B020K,3F2TJ1429200MP,37RBHB600B03LB,,223.8,4.0,324.8,32.879886,14.316416,0,1232,DJI FPV,37QBJ3G00B020K,3F2TJ1429200MP,37RBHB600B03LB,37WPJ3CAA10285,DJI Fly,Linux,0.0.1,34C9E972-F3FE-0C19-B90D-4572EA614039,37QBJ3G00B020K,3F2TJ1429200MP,3F2TJ1429200MP,37RBHB600B03LB,37WPJ3CAA10285,,,,,Gimbal auto check failed.; Home point updated. RTH altitude adjusted to 100m.; Gimbal stuck. Check whether gimbal lock is removed and make sure gimbal can rotate freely.,
6/27/2025,3:23:21.49 AM,0m 6.3s,6.3,-7.2803237033736,112.791999965218,4.5,4.5,5.9,17,6.3,5.772865,5.772865,-4.697574,0,-3.35541,0,-7.381902,0,-9.9,-3.9,-131.7,228.3,213.0,P-GPS (Brake),Other,,14,5,True,,DJI FPV,True,False,,Smart,RC,False,True,False,,,True,,False,False,False,False,False,False,False,False,False,False,0,Free,0,0,0,0,False,False,False,False,False,True,,True,Normal,100,100,846,1418,1240,1125,2,False,False,False,False,False,0,False,False,False,False,83,22.942,1464,1776,23.516,False,3.836,3.812,3.81,3.827,3.825,3.833,0.026,False,False,12.364,98.6,98.4,98.6,,2,,,6,7295.9,1080.87,,Idle,,25,,5,,12,Go Home,True,True,True,False,False,False,False,False,True,False,False,False,-7.2803134598856,112.792006068388,4.3,37.2,1640.4,True,1,1,False,False,False,False,,True,False,False,Course Lock,328,,9.8,88,,,,,Calm,False,False,Linux,0.0.1,DJI FPV,37QBJ3G00B020K,3F2TJ1429200MP,37RBHB600B03LB,,223.8,4.0,324.8,32.879886,14.316416,0,1232,DJI FPV,37QBJ3G00B020K,3F2TJ1429200MP,37RBHB600B03LB,37WPJ3CAA10285,DJI Fly,Linux,0.0.1,34C9E972-F3FE-0C19-B90D-4572EA614039,37QBJ3G00B020K,3F2TJ1429200MP,3F2TJ1429200MP,37RBHB600B03LB,37WPJ3CAA10285,,,,,,
6/27/2025,3:23:21.70 AM,0m 6.5s,6.5,-7.2803274662101,112.791997339033,7.2,7.2,7.8,19,8.0,6.267425,6.267425,-5.144962,0,-3.579104,0,-6.71082,0,-13.4,-4.2,-131,229,214.6,P-GPS (Brake),Other,,14,5,True,,DJI FPV,True,False,,Smart,RC,False,True,False,,,True,,False,False,False,False,False,False,False,False,False,False,0,Free,0,0,0,0,False,False,False,False,False,True,,True,Normal,100,100,870,1426,1141,1094,2,False,False,False,False,False,0,False,False,False,False,83,22.942,1464,1776,23.516,False,3.836,3.812,3.81,3.827,3.825,3.833,0.026,False,False,12.364,98.6,98.4,98.6,,2,,,6,7295.9,1080.87,,Idle,,25,,5,,12,Go Home,True,True,True,False,False,False,False,False,True,False,False,False,-7.2803134598856,112.792006068388,6.0,37.2,1640.4,True,1,1,False,False,False,False,,True,False,False,Course Lock,328,,9.8,88,,,,,Calm,False,False,Linux,0.0.1,DJI FPV,37QBJ3G00B020K,3F2TJ1429200MP,37RBHB600B03LB,,223.8,4.0,324.8,32.879886,14.316416,0,1232,DJI FPV,37QBJ3G00B020K,3F2TJ1429200MP,37RBHB600B03LB,37WPJ3CAA10285,DJI Fly,Linux,0.0.1,34C9E972-F3FE-0C19-B90D-4572EA614039,37QBJ3G00B020K,3F2TJ1429200MP,3F2TJ1429200MP,37RBHB600B03LB,37WPJ3CAA10285,,,,,,
6/27/2025,3:23:21.90 AM,0m 6.7s,6.7,-7.2803319954388,112.791993953207,9.5,9.5,9.5,22,10.0,6.762813,6.762813,-5.59235,0,-3.802798,0,-4.921268,0,-17.5,-4.1,-129.8,230.2,216.5,P-GPS (Brake),Other,,14,5,True,,DJI FPV,True,False,,Smart,RC,False,True,False,,,True,,False,False,False,False,False,False,False,False,False,False,0,Free,0,0,0,0,False,False,False,False,False,True,,True,Normal,100,100,885,1362,1048,1008,2,False,False,False,False,False,0,False,False,False,False,83,22.942,1464,1776,23.516,False,3.836,3.812,3.81,3.827,3.825,3.833,0.026,False,False,12.364,98.6,98.4,98.6,,2,,,6,7295.9,1080.87,,Idle,,25,,5,,12,Go Home,True,True,True,False,False,False,False,False,True,False,False,False,-7.2803134598856,112.792006068388,8.0,37.2,1640.4,True,1,1,False,False,False,False,,True,False,False,Course Lock,328,,9.8,88,,,,,Calm,False,False,Linux,0.0.1,DJI FPV,37QBJ3G00B020K,3F2TJ1429200MP,37RBHB600B03LB,,223.8,4.0,324.8,32.879886,14.316416,0,1232,DJI FPV,37QBJ3G00B020K,3F2TJ1429200MP,37RBHB600B03LB,37WPJ3CAA10285,DJI Fly,Linux,0.0.1,34C9E972-F3FE-0C19-B90D-4572EA614039,37QBJ3G00B020K,3F2TJ1429200MP,3F2TJ1429200MP,37RBHB600B03LB,37WPJ3CAA10285,,,,,,
6/27/2025,3:23:22.11 AM,0m 6.9s,6.9,-7.2803363910869,112.791990326974,10.8,10.8,10.8,23,12.1,7.258861,7.258861,-6.039738,0,-4.026492,0,-2.908022,0,-18.6,-4.5,-129.7,230.3,219.2,P-GPS (Brake),Other,,14,5,True,,DJI FPV,True,False,,Smart,RC,False,True,False,,,True,,False,False,False,False,False,False,False,False,False,False,0,Free,0,0,0,0,False,False,False,False,False,True,,True,Normal,100,100,951,1284,1020,1006,2,False,False,False,False,False,0,False,False,False,False,83,22.942,1464,1776,23.516,False,3.836,3.812,3.81,3.827,3.825,3.833,0.026,False,False,12.364,98.6,98.4,98.6,,2,,,6,7295.9,1080.87,,Idle,,25,,5,,12,Go Home,True,True,True,False,False,False,False,False,True,False,False,False,-7.2803134598856,112.792006068388,10.1,37.2,1640.4,True,1,1,False,False,False,False,,True,False,False,Course Lock,328,,9.8,88,,,,,Calm,False,False,Linux,0.0.1,DJI FPV,37QBJ3G00B020K,3F2TJ1429200MP,37RBHB600B03LB,,223.8,4.0,324.8,32.879886,14.316416,0,1232,DJI FPV,37QBJ3G00B020K,3F2TJ1429200MP,37RBHB600B03LB,37WPJ3CAA10285,DJI Fly,Linux,0.0.1,34C9E972-F3FE-0C19-B90D-4572EA614039,37QBJ3G00B020K,3F2TJ1429200MP,3F2TJ1429200MP,37RBHB600B03LB,37WPJ3CAA10285,,,,,,
6/27/2025,3:23:22.27 AM,0m 7.1s,7.1,-7.280340920432,112.791987079561,11.4,11.4,11.1,24,14.1,7.880254,7.880254,-6.487126,0,-4.47388,0,-1.11847,0,-16.3,-3.6,-129.9,230.1,215.4,P-GPS (Brake),Other,,14,5,True,,DJI FPV,True,False,,Smart,RC,False,True,False,,,True,,False,False,False,False,False,False,False,False,False,False,0,Free,0,0,0,0,False,False,False,False,False,True,,True,Normal,100,100,971,1163,1020,1006,2,False,False,False,False,False,0,False,False,False,False,83,23.426,1460,1776,22.979,False,3.904,3.899,3.905,3.907,3.905,3.906,0.026,False,False,7.88,98.4,98.4,98.6,,10,,,7,11841.9,1754.36,,Idle,,25,,5,,12,Go Home,True,True,True,False,False,False,False,False,True,False,False,False,-7.2803134598856,112.792006068388,12.1,37.2,1640.4,True,1,1,False,False,False,False,,True,False,False,Course Lock,328,,9.8,88,,,,,Calm,False,False,Linux,0.0.1,DJI FPV,37QBJ3G00B020K,3F2TJ1429200MP,37RBHB600B03LB,,223.8,4.0,324.8,32.879886,14.316416,0,1232,DJI FPV,37QBJ3G00B020K,3F2TJ1429200MP,37RBHB600B03LB,37WPJ3CAA10285,DJI Fly,Linux,0.0.1,34C9E972-F3FE-0C19-B90D-4572EA614039,37QBJ3G00B020K,3F2TJ1429200MP,3F2TJ1429200MP,37RBHB600B03LB,37WPJ3CAA10285,,,,,,
6/27/2025,3:23:22.47 AM,0m 7.3s,7.3,-7.2803462988736,112.791983140341,11.8,11.8,11.4,24,16.5,8.191599,8.191599,-6.71082,0,-4.697574,0,-0.447388,0,-9.6,-2,-130.2,229.8,215.9,P-GPS (Brake),Other,,14,5,True,,DJI FPV,True,False,,Smart,RC,False,True,False,,,True,,False,False,False,False,False,False,False,False,False,False,0,Free,0,0,0,0,False,False,False,False,False,True,,True,Normal,100,100,990,1074,1021,1006,2,False,False,False,False,False,0,False,False,False,False,83,23.426,1460,1776,22.979,False,3.904,3.899,3.905,3.907,3.905,3.906,0.026,False,False,7.88,98.4,98.4,98.6,,10,,,7,11841.9,1754.36,,Idle,,25,,5,,12,Go Home,True,True,True,False,False,False,False,False,True,False,False,False,-7.2803134598856,112.792006068388,14.5,37.2,1640.4,True,1,1,False,False,False,False,,True,False,False,Course Lock,328,,9.8,88,,,,,Calm,False,False,Linux,0.0.1,DJI FPV,37QBJ3G00B020K,3F2TJ1429200MP,37RBHB600B03LB,,223.8,4.0,324.8,32.879886,14.316416,0,1232,DJI FPV,37QBJ3G00B020K,3F2TJ1429200MP,37RBHB600B03LB,37WPJ3CAA10285,DJI Fly,Linux,0.0.1,34C9E972-F3FE-0C19-B90D-4572EA614039,37QBJ3G00B020K,3F2TJ1429200MP,3F2TJ1429200MP,37RBHB600B03LB,37WPJ3CAA10285,,,,,,
6/27/2025,3:23:22.67 AM,0m 7.5s,7.5,-7.2803513049621,112.791979260568,11.8,11.8,11.8,24,18.8,8.191599,8.191599,-6.71082,0,-4.697574,0,0,0,-4.7,-1,-130.3,229.7,217.5,P-GPS (Brake),Other,,14,5,True,,DJI FPV,True,False,,Smart,RC,False,True,False,,,True,,False,False,False,False,False,False,False,False,False,False,0,Free,0,0,0,0,False,False,False,False,False,True,,True,Normal,100,100,1006,1019,1021,1007,2,False,False,False,False,False,0,False,False,False,False,83,23.426,1460,1776,22.979,False,3.904,3.899,3.905,3.907,3.905,3.906,0.026,False,False,7.88,98.4,98.4,98.6,,10,,,7,11841.9,1754.36,,Idle,,25,,5,,12,Go Home,True,True,True,False,False,False,False,False,True,False,False,False,-7.2803134598856,112.792006068388,16.8,37.2,1640.4,True,1,1,False,False,False,False,,True,False,False,Course Lock,328,,9.8,88,,,,,Calm,False,False,Linux,0.0.1,DJI FPV,37QBJ3G00B020K,3F2TJ1429200MP,37RBHB600B03LB,,223.8,4.0,324.8,32.879886,14.316416,0,1232,DJI FPV,37QBJ3G00B020K,3F2TJ1429200MP,37RBHB600B03LB,37WPJ3CAA10285,DJI Fly,Linux,0.0.1,34C9E972-F3FE-0C19-B90D-4572EA614039,37QBJ3G00B020K,3F2TJ1429200MP,3F2TJ1429200MP,37RBHB600B03LB,37WPJ3CAA10285,,,,,,
6/27/2025,3:23:22.87 AM,0m 7.7s,7.7,-7.2803564223975,112.791975357945,11.8,11.8,11.8,24,21.2,7.880254,8.191599,-6.487126,0,-4.47388,0,0,0,-1.9,-0.9,-130.4,229.6,217.1,P-GPS (Brake),Other,,14,5,True,,DJI FPV,True,False,,Smart,RC,False,True,False,,,True,,False,False,False,False,False,False,False,False,False,False,0,Free,0,0,0,0,False,False,False,False,False,True,,True,Normal,100,100,1019,1019,1022,1007,2,False,False,False,False,False,0,False,False,False,False,83,23.426,1460,1776,22.979,False,3.904,3.899,3.905,3.907,3.905,3.906,0.026,False,False,7.88,98.4,98.4,98.6,,10,,,7,11841.9,1754.36,,Idle,,25,,5,,12,Go Home,True,True,True,False,False,False,False,False,True,False,False,False,-7.2803134598856,112.792006068388,19.2,37.2,1640.4,True,1,1,False,False,False,False,,True,False,False,Course Lock,328,,9.8,88,,,,,Calm,False,False,Linux,0.0.1,DJI FPV,37QBJ3G00B020K,3F2TJ1429200MP,37RBHB600B03LB,,223.8,4.0,324.8,32.879886,14.316416,0,1232,DJI FPV,37QBJ3G00B020K,3F2TJ1429200MP,37RBHB600B03LB,37WPJ3CAA10285,DJI Fly,Linux,0.0.1,34C9E972-F3FE-0C19-B90D-4572EA614039,37QBJ3G00B020K,3F2TJ1429200MP,3F2TJ1429200MP,37RBHB600B03LB,37WPJ3CAA10285,,,,,,
6/27/2025,3:23:23.07 AM,0m 7.9s,7.9,-7.2803608390174,112.791971617129,11.8,11.8,12.1,24,23.3,6.71082,8.191599,-5.368656,0,-4.026492,0,0,0,21.2,5.5,-129.4,230.6,220.0,P-GPS (Brake),Other,,14,5,True,,DJI FPV,True,False,,Smart,RC,False,True,False,,,True,,False,False,False,False,False,False,False,False,False,False,0,Free,0,0,0,0,False,False,False,False,False,True,,True,Normal,100,100,1020,1018,1018,1006,2,False,False,False,False,False,0,False,False,False,False,83,23.426,1460,1776,22.979,False,3.904,3.899,3.905,3.907,3.905,3.906,0.026,False,False,7.88,98.4,98.4,98.6,,10,,,7,11841.9,1754.36,,Idle,,25,,5,,12,Go Home,True,True,True,False,False,False,False,False,True,False,False,False,-7.2803134598856,112.792006068388,21.3,37.2,1640.4,True,1,1,False,False,False,False,,True,False,False,Course Lock,328,,9.8,88,,,,,Calm,False,False,Linux,0.0.1,DJI FPV,37QBJ3G00B020K,3F2TJ1429200MP,37RBHB600B03LB,,223.8,4.0,324.8,32.879886,14.316416,0,1232,DJI FPV,37QBJ3G00B020K,3F2TJ1429200MP,37RBHB600B03LB,37WPJ3CAA10285,DJI Fly,Linux,0.0.1,34C9E972-F3FE-0C19-B90D-4572EA614039,37QBJ3G00B020K,3F2TJ1429200MP,3F2TJ1429200MP,37RBHB600B03LB,37WPJ3CAA10285,,,,,,
6/27/2025,3:23:23.27 AM,0m 8.1s,8.1,-7.2803640371852,112.791968558069,11.4,11.8,12.1,24,24.9,4.611569,8.191599,-3.579104,0,-2.908022,0,0,0,24.4,5.9,-129.2,230.8,223.4,P-GPS (Brake),Other,,14,5,True,,DJI FPV,True,False,,Smart,RC,False,True,False,,,True,,False,False,False,False,False,False,False,False,False,False,0,Free,0,0,0,0,False,False,False,False,False,True,,True,Normal,100,100,1020,1018,1019,1006,2,False,False,False,False,False,0,False,False,False,False,83,23.227,1460,1776,23.308,False,3.876,3.858,3.874,3.879,3.871,3.869,0.026,False,False,6.204,98.4,98.4,98.6,,17,,19,7,15892.1,2354.39,,Idle,,25,,5,,12,Go Home,True,True,True,False,False,False,False,False,True,False,False,False,-7.2803134598856,112.792006068388,22.9,37.2,1640.4,True,1,1,False,False,False,False,,True,False,False,Course Lock,328,,9.8,88,,,,,Calm,False,False,Linux,0.0.1,DJI FPV,37QBJ3G00B020K,3F2TJ1429200MP,37RBHB600B03LB,,223.8,4.0,324.8,32.879886,14.316416,0,1232,DJI FPV,37QBJ3G00B020K,3F2TJ1429200MP,37RBHB600B03LB,37WPJ3CAA10285,DJI Fly,Linux,0.0.1,34C9E972-F3FE-0C19-B90D-4572EA614039,37QBJ3G00B020K,3F2TJ1429200MP,3F2TJ1429200MP,37RBHB600B03LB,37WPJ3CAA10285,,,,,,
6/27/2025,3:23:23.45 AM,0m 8.3s,8.3,-7.2803659316726,112.791966666524,11.4,11.8,12.4,24,25.9,2.550504,8.191599,-2.013246,0,-1.565858,0,0,0,20.3,4.6,-129.4,230.6,224.7,P-GPS (Brake),Other,,14,5,True,,DJI FPV,True,False,,Smart,RC,False,True,False,,,True,,False,False,False,False,False,False,False,False,False,False,0,Free,0,0,0,0,False,False,False,False,False,True,,True,Normal,100,100,1019,1019,1018,1007,2,False,False,False,False,False,0,False,False,False,False,83,23.227,1460,1776,23.308,False,3.876,3.858,3.874,3.879,3.871,3.869,0.026,False,False,6.204,98.4,98.4,98.6,,17,,19,7,15892.1,2354.39,,Idle,,25,,5,,12,Go Home,True,True,True,False,False,False,False,False,True,False,False,False,-7.2803134598856,112.792006068388,23.8,37.2,1640.4,True,1,1,False,False,False,False,,True,False,False,Course Lock,328,,9.8,88,,,,,Calm,False,False,Linux,0.0.1,DJI FPV,37QBJ3G00B020K,3F2TJ1429200MP,37RBHB600B03LB,,223.8,4.0,324.8,32.879886,14.316416,0,1232,DJI FPV,37QBJ3G00B020K,3F2TJ1429200MP,37RBHB600B03LB,37WPJ3CAA10285,DJI Fly,Linux,0.0.1,34C9E972-F3FE-0C19-B90D-4572EA614039,37QBJ3G00B020K,3F2TJ1429200MP,3F2TJ1429200MP,37RBHB600B03LB,37WPJ3CAA10285,,,,,,
6/27/2025,3:23:23.66 AM,0m 8.5s,8.5,-7.2803668526243,112.791965822091,11.4,11.8,12.7,24,26.3,0.949053,8.191599,-0.671082,0,-0.671082,0,-0.223694,0,10.3,2.1,-130.4,229.6,222.2,P-GPS (Brake),Other,,14,5,True,,DJI FPV,True,False,,Smart,RC,False,True,False,,,True,,False,False,False,False,False,False,False,False,False,False,0,Free,0,0,0,0,False,False,False,False,False,True,,True,Normal,100,100,1017,1123,1019,1006,2,False,False,False,False,False,0,False,False,False,False,83,23.227,1460,1776,23.308,False,3.876,3.858,3.874,3.879,3.871,3.869,0.026,False,False,6.204,98.4,98.4,98.6,,17,,19,7,15892.1,2354.39,,Idle,,25,,5,,12,Go Home,True,True,True,False,False,False,False,False,True,False,False,False,-7.2803134598856,112.792006068388,24.3,37.2,1640.4,True,1,1,False,False,False,False,,True,False,False,Course Lock,328,,9.8,88,,,,,Calm,False,False,Linux,0.0.1,DJI FPV,37QBJ3G00B020K,3F2TJ1429200MP,37RBHB600B03LB,,223.8,4.0,324.8,32.879886,14.316416,0,1232,DJI FPV,37QBJ3G00B020K,3F2TJ1429200MP,37RBHB600B03LB,37WPJ3CAA10285,DJI Fly,Linux,0.0.1,34C9E972-F3FE-0C19-B90D-4572EA614039,37QBJ3G00B020K,3F2TJ1429200MP,3F2TJ1429200MP,37RBHB600B03LB,37WPJ3CAA10285,,,,,,
6/27/2025,3:23:23.87 AM,0m 8.7s,8.7,-7.2803670967011,112.791965585021,11.4,11.8,12.7,24,26.4,0.316351,8.191599,-0.223694,0,-0.223694,0,0,0,2.4,0.6,-130.4,229.6,223.9,P-GPS (Brake),Other,,14,5,True,,DJI FPV,True,False,,Smart,RC,False,True,False,,,True,,False,False,False,False,False,False,False,False,False,False,0,Free,0,0,0,0,False,False,False,False,False,True,,True,Normal,100,100,1017,1358,1032,1054,2,False,False,False,False,False,0,False,False,False,False,83,23.227,1460,1776,23.308,False,3.876,3.858,3.874,3.879,3.871,3.869,0.026,False,False,6.204,98.4,98.4,98.6,,17,,19,7,15892.1,2354.39,,Idle,,25,,5,,12,Go Home,True,True,True,False,False,False,False,False,True,False,False,False,-7.2803134598856,112.792006068388,24.4,37.2,1640.4,True,1,1,False,False,False,False,,True,False,False,Course Lock,328,,9.8,88,,,,,Calm,False,False,Linux,0.0.1,DJI FPV,37QBJ3G00B020K,3F2TJ1429200MP,37RBHB600B03LB,,223.8,4.0,324.8,32.879886,14.316416,0,1232,DJI FPV,37QBJ3G00B020K,3F2TJ1429200MP,37RBHB600B03LB,37WPJ3CAA10285,DJI Fly,Linux,0.0.1,34C9E972-F3FE-0C19-B90D-4572EA614039,37QBJ3G00B020K,3F2TJ1429200MP,3F2TJ1429200MP,37RBHB600B03LB,37WPJ3CAA10285,,,,,,
6/27/2025,3:23:24.07 AM,0m 8.9s,8.9,-7.2803669414422,112.791965414423,11.4,11.8,12.7,24,26.5,0.223694,8.191599,0,0,-0.223694,0,0,0,-8.8,-0.4,-130.5,229.5,312.5,P-GPS (Brake),Other,,14,5,True,,DJI FPV,True,False,,Smart,RC,False,True,False,,,True,,False,False,False,False,False,False,False,False,False,False,0,Free,0,0,0,0,False,False,False,False,False,True,,True,Normal,100,100,1017,1383,1168,1140,2,False,False,False,False,False,0,False,False,False,False,83,23.227,1460,1776,23.308,False,3.876,3.858,3.874,3.879,3.871,3.869,0.026,False,False,6.204,98.4,98.4,98.6,,17,,19,7,15892.1,2354.39,,Idle,,25,,5,,12,Go Home,True,True,True,False,False,False,False,False,True,False,False,False,-7.2803134598856,112.792006068388,24.4,37.2,1640.4,True,1,1,False,False,False,False,,True,False,False,Course Lock,328,,9.8,88,,,,,Calm,False,False,Linux,0.0.1,DJI FPV,37QBJ3G00B020K,3F2TJ1429200MP,37RBHB600B03LB,,223.8,4.0,324.8,32.879886,14.316416,0,1232,DJI FPV,37QBJ3G00B020K,3F2TJ1429200MP,37RBHB600B03LB,37WPJ3CAA10285,DJI Fly,Linux,0.0.1,34C9E972-F3FE-0C19-B90D-4572EA614039,37QBJ3G00B020K,3F2TJ1429200MP,3F2TJ1429200MP,37RBHB600B03LB,37WPJ3CAA10285,,,,,,
6/27/2025,3:23:24.27 AM,0m 9.1s,9.1,-7.2803669558475,112.791964599099,11.4,11.8,12.7,24,26.8,1.000389,8.191599,-0.447388,0,-0.894776,0,-0.447388,0,-14.3,-1,-130.3,229.7,268.9,P-GPS (Brake),Other,,14,5,True,,DJI FPV,True,False,,Smart,RC,False,True,False,,,True,,False,False,False,False,False,False,False,False,False,False,0,Free,0,0,0,0,False,False,False,False,False,True,,True,Normal,100,100,1018,1396,1217,1131,2,False,False,False,False,False,0,False,False,False,False,83,23.211,1460,1776,23.114,False,3.869,3.866,3.868,3.87,3.868,3.87,0.026,False,False,7.976,98.6,98.4,98.6,,18,,19,7,18414.1,2728.01,,Idle,,25,,5,,12,Go Home,True,True,True,False,False,False,False,False,True,False,False,False,-7.2803134598856,112.792006068388,24.6,37.2,1640.4,True,1,1,False,False,False,False,,True,False,False,Course Lock,328,,9.8,88,,,,,Calm,False,False,Linux,0.0.1,DJI FPV,37QBJ3G00B020K,3F2TJ1429200MP,37RBHB600B03LB,,223.8,4.0,324.8,32.879886,14.316416,0,1232,DJI FPV,37QBJ3G00B020K,3F2TJ1429200MP,37RBHB600B03LB,37WPJ3CAA10285,DJI Fly,Linux,0.0.1,34C9E972-F3FE-0C19-B90D-4572EA614039,37QBJ3G00B020K,3F2TJ1429200MP,3F2TJ1429200MP,37RBHB600B03LB,37WPJ3CAA10285,,,,,Gimbal auto check failed.,
6/27/2025,3:23:24.49 AM,0m 9.3s,9.3,-7.280367841782,112.791963446932,11.8,11.8,12.7,24,27.3,2.41962,8.191599,-1.342164,0,-2.013246,0,-1.342164,0,-11.9,-1.2,-129.3,230.7,232.2,P-GPS (Brake),Other,,14,5,True,,DJI FPV,True,False,,Smart,RC,False,True,False,,,True,,False,False,False,False,False,False,False,False,False,False,0,Free,0,0,0,0,False,False,False,False,False,True,,True,Normal,100,100,1017,1419,1274,1139,2,False,False,False,False,False,0,False,False,False,False,83,23.211,1460,1776,23.114,False,3.869,3.866,3.868,3.87,3.868,3.87,0.026,False,False,7.976,98.6,98.4,98.6,,18,,19,7,18414.1,2728.01,,Idle,,25,,5,,12,Go Home,True,True,True,False,False,False,False,False,True,False,False,False,-7.2803134598856,112.792006068388,25.1,37.2,1640.4,True,1,1,False,False,False,False,,True,False,False,Course Lock,328,,9.8,88,,,,,Calm,False,False,Linux,0.0.1,DJI FPV,37QBJ3G00B020K,3F2TJ1429200MP,37RBHB600B03LB,,223.8,4.0,324.8,32.879886,14.316416,0,1232,DJI FPV,37QBJ3G00B020K,3F2TJ1429200MP,37RBHB600B03LB,37WPJ3CAA10285,DJI Fly,Linux,0.0.1,34C9E972-F3FE-0C19-B90D-4572EA614039,37QBJ3G00B020K,3F2TJ1429200MP,3F2TJ1429200MP,37RBHB600B03LB,37WPJ3CAA10285,,,,,,
6/27/2025,3:23:24.69 AM,0m 9.5s,9.5,-7.2803694589615,112.791962784523,12.4,12.4,13.4,25,28.0,3.22616,8.191599,-1.789552,0,-2.684328,0,-2.460634,0,-11.4,-1.3,-128.4,231.6,202.1,P-GPS (Brake),Other,,14,5,True,,DJI FPV,True,False,,Smart,RC,False,True,False,,,True,,False,False,False,False,False,False,False,False,False,False,0,Free,0,0,0,0,False,False,False,False,False,True,,True,Normal,100,100,1017,1426,1291,1084,2,False,False,False,False,False,0,False,False,False,False,83,23.211,1460,1776,23.114,False,3.869,3.866,3.868,3.87,3.868,3.87,0.026,False,False,7.976,98.6,98.4,98.6,,18,,19,7,18414.1,2728.01,,Idle,,25,,5,,12,Go Home,True,True,True,False,False,False,False,False,True,False,False,False,-7.2803134598856,112.792006068388,25.7,37.2,1640.4,True,1,1,False,False,False,False,,True,False,False,Course Lock,328,,9.8,88,,,,,Calm,False,False,Linux,0.0.1,DJI FPV,37QBJ3G00B020K,3F2TJ1429200MP,37RBHB600B03LB,,223.8,4.0,324.8,32.879886,14.316416,0,1232,DJI FPV,37QBJ3G00B020K,3F2TJ1429200MP,37RBHB600B03LB,37WPJ3CAA10285,DJI Fly,Linux,0.0.1,34C9E972-F3FE-0C19-B90D-4572EA614039,37QBJ3G00B020K,3F2TJ1429200MP,3F2TJ1429200MP,37RBHB600B03LB,37WPJ3CAA10285,,,,,,
6/27/2025,3:23:24.90 AM,0m 9.7s,9.7,-7.2803711126577,112.791960679408,13.4,13.4,14.1,26,29.0,4.343351,8.191599,-2.460634,0,-3.579104,0,-3.579104,0,-10.6,-1.4,-128,232,231.6,P-GPS (Brake),Other,,14,5,True,,DJI FPV,True,False,,Smart,RC,False,True,False,,,True,,False,False,False,False,False,False,False,False,False,False,0,Free,0,0,0,0,False,False,False,False,False,True,,True,Normal,100,100,1017,1428,1300,1112,2,False,False,False,False,False,0,False,False,False,False,83,23.211,1460,1776,23.114,False,3.869,3.866,3.868,3.87,3.868,3.87,0.026,False,False,7.976,98.6,98.4,98.6,,18,,19,7,18414.1,2728.01,,Idle,,25,,5,,12,Go Home,True,True,True,False,False,False,False,False,True,False,False,False,-7.2803134598856,112.792006068388,26.6,37.2,1640.4,True,1,1,False,False,False,False,,True,False,False,Course Lock,328,,9.8,88,,,,,Calm,False,False,Linux,0.0.1,DJI FPV,37QBJ3G00B020K,3F2TJ1429200MP,37RBHB600B03LB,,223.8,4.0,324.8,32.879886,14.316416,0,1232,DJI FPV,37QBJ3G00B020K,3F2TJ1429200MP,37RBHB600B03LB,37WPJ3CAA10285,DJI Fly,Linux,0.0.1,34C9E972-F3FE-0C19-B90D-4572EA614039,37QBJ3G00B020K,3F2TJ1429200MP,3F2TJ1429200MP,37RBHB600B03LB,37WPJ3CAA10285,,,,,,
6/27/2025,3:23:25.10 AM,0m 9.9s,9.9,-7.280373455137,112.791957699645,14.7,14.7,15.4,27,30.3,5.279367,8.191599,-3.131716,0,-4.250186,0,-4.250186,0,-10.8,-0.9,-127.5,232.5,231.6,P-GPS (Brake),Other,,14,5,True,,DJI FPV,True,False,,Smart,RC,False,True,False,,,True,,False,False,False,False,False,False,False,False,False,False,0,Free,0,0,0,0,False,False,False,False,False,True,,True,Normal,100,100,1016,1421,1287,1065,2,False,False,False,False,False,0,False,False,False,False,83,23.211,1460,1776,23.114,False,3.869,3.866,3.868,3.87,3.868,3.87,0.026,False,False,7.976,98.6,98.4,98.6,,18,,19,7,18414.1,2728.01,,Idle,,25,,5,,12,Go Home,True,True,True,False,False,False,False,False,True,False,False,False,-7.2803134598856,112.792006068388,28.0,37.2,1640.4,True,1,1,False,False,False,False,,True,False,False,Course Lock,328,,9.8,88,,,,,Calm,False,False,Linux,0.0.1,DJI FPV,37QBJ3G00B020K,3F2TJ1429200MP,37RBHB600B03LB,,223.8,4.0,324.8,32.879886,14.316416,0,1232,DJI FPV,37QBJ3G00B020K,3F2TJ1429200MP,37RBHB600B03LB,37WPJ3CAA10285,DJI Fly,Linux,0.0.1,34C9E972-F3FE-0C19-B90D-4572EA614039,37QBJ3G00B020K,3F2TJ1429200MP,3F2TJ1429200MP,37RBHB600B03LB,37WPJ3CAA10285,,,,,,
